{
	"BUS_DIRECTION_ONE": [
		{
			"BUS_SEQUENCE": 1,
			"START_BUS_STOP": "SENGKANG INT",
			"END_BUS_STOP": "SENGKANG STN",
			"START_BUS_STOP_NUM": "67009",
			"START_BUS_STOP_LATLNG": "1.391780603816011, 103.89588499436074",
			"END_BUS_STOP_NUM": "67409",
			"END_BUS_STOP_LATLNG": "1.392423051768193, 103.8961219424307",
			"DISTANCE": "0",
			"GEOMETRIES": "cwnGugcyRLm@eBa@S@W@[LA@SJc@bBAD"
		},
		{
			"BUS_SEQUENCE": 2,
			"START_BUS_STOP": "SENGKANG STN",
			"END_BUS_STOP": "SENGKANG COMMUNITY HUB",
			"START_BUS_STOP_NUM": "67409",
			"START_BUS_STOP_LATLNG": "1.392423051768193, 103.8961219424307",
			"END_BUS_STOP_NUM": "67441",
			"END_BUS_STOP_LATLNG": "1.3923819420770955, 103.89347888453116",
			"DISTANCE": "0.2",
			"GEOMETRIES": "_~nG{ecyRAHq@hCOp@Oj@On@Ux@Sz@F\\DVHZ@BP\\dAVb@J@?"
		},
		{
			"BUS_SEQUENCE": 3,
			"START_BUS_STOP": "SENGKANG COMMUNITY HUB",
			"END_BUS_STOP": "BLK 201 CP",
			"START_BUS_STOP_NUM": "67441",
			"START_BUS_STOP_LATLNG": "1.3923819420770955, 103.89347888453116",
			"END_BUS_STOP_NUM": "67271",
			"END_BUS_STOP_LATLNG": "1.3882513874007467, 103.89208955744496",
			"DISTANCE": "0.6",
			"GEOMETRIES": "u}nGktbyRLD@?n@NXFFBH@VHh@LXHVFZFD@NBVDpElA`@JTFB@@?B?HBHB@?HBTFVFhCj@`@J??"
		},
		{
			"BUS_SEQUENCE": 4,
			"START_BUS_STOP": "BLK 201 CP",
			"END_BUS_STOP": "AFT SENGKANG EAST AVE",
			"START_BUS_STOP_NUM": "67271",
			"START_BUS_STOP_LATLNG": "1.3882513874007467, 103.89208955744496",
			"END_BUS_STOP_NUM": "67461",
			"END_BUS_STOP_LATLNG": "1.38575273465234, 103.89121528705637",
			"DISTANCE": "1.1",
			"GEOMETRIES": "}cnGqkbyRx@RnBf@bAV^Jx@NDB??NBJBD@B?VF\\HhAZ"
		},
		{
			"BUS_SEQUENCE": 5,
			"START_BUS_STOP": "AFT SENGKANG EAST AVE",
			"END_BUS_STOP": "BEF BUANGKOK DR",
			"START_BUS_STOP_NUM": "67461",
			"START_BUS_STOP_LATLNG": "1.38575273465234, 103.89121528705637",
			"END_BUS_STOP_NUM": "67451",
			"END_BUS_STOP_LATLNG": "1.383046110999999, 103.88960583301706",
			"DISTANCE": "1.4",
			"GEOMETRIES": "itmGefbyRD@zCt@lAb@`Ad@t@d@DBl@`@nB|AJJ"
		},
		{
			"BUS_SEQUENCE": 6,
			"START_BUS_STOP": "BEF BUANGKOK DR",
			"END_BUS_STOP": "BLK 565",
			"START_BUS_STOP_NUM": "67451",
			"START_BUS_STOP_LATLNG": "1.383046110999999, 103.88960583301706",
			"END_BUS_STOP_NUM": "64621",
			"END_BUS_STOP_LATLNG": "1.3813333329687147, 103.88821499999295",
			"DISTANCE": "1.8",
			"GEOMETRIES": "qcmGm|ayR??dAz@@@TNn@f@PLLHLJRLNLFDPLRN~@t@B@BB??"
		},
		{
			"BUS_SEQUENCE": 7,
			"START_BUS_STOP": "BLK 565",
			"END_BUS_STOP": "BLK 579",
			"START_BUS_STOP_NUM": "64621",
			"START_BUS_STOP_LATLNG": "1.3813333329687147, 103.88821499999295",
			"END_BUS_STOP_NUM": "64461",
			"END_BUS_STOP_LATLNG": "1.3793847299880744, 103.8864030920165",
			"DISTANCE": "2",
			"GEOMETRIES": "{xlGwsayR??|AnARNXRHDHHLH@@LJHFLJz@p@l@p@j@z@HV"
		},
		{
			"BUS_SEQUENCE": 8,
			"START_BUS_STOP": "BLK 579",
			"END_BUS_STOP": "OPP BLK 913",
			"START_BUS_STOP_NUM": "64461",
			"START_BUS_STOP_LATLNG": "1.3793847299880744, 103.8864030920165",
			"END_BUS_STOP_NUM": "64619",
			"END_BUS_STOP_LATLNG": "1.3780933871814878, 103.88468027114665",
			"DISTANCE": "2.3",
			"GEOMETRIES": "emlGohayRDH@BNv@Bb@@LDb@D~BRT?@VVJHPLlBCF?t@?BA"
		},
		{
			"BUS_SEQUENCE": 9,
			"START_BUS_STOP": "OPP BLK 913",
			"END_BUS_STOP": "BLK 687",
			"START_BUS_STOP_NUM": "64619",
			"START_BUS_STOP_LATLNG": "1.3780933871814878, 103.88468027114665",
			"END_BUS_STOP_NUM": "64609",
			"END_BUS_STOP_LATLNG": "1.3759563890039295, 103.88470138897598",
			"DISTANCE": "2.6",
			"GEOMETRIES": "adlGq}`yRxBAT?PAD???J?J?@?\\?RAhDCL?"
		},
		{
			"BUS_SEQUENCE": 10,
			"START_BUS_STOP": "BLK 687",
			"END_BUS_STOP": "BLK 665",
			"START_BUS_STOP_NUM": "64609",
			"START_BUS_STOP_LATLNG": "1.3759563890039295, 103.88470138897598",
			"END_BUS_STOP_NUM": "64479",
			"END_BUS_STOP_LATLNG": "1.3744013407130027, 103.88353995121632",
			"DISTANCE": "2.8",
			"GEOMETRIES": "uvkG{}`yR`@???n@EF?dAWb@UPOLKFE??FEBF@?@D??@??@NVHP`@p@?BBHA^OfACVCJ??E^AF"
		},
		{
			"BUS_SEQUENCE": 11,
			"START_BUS_STOP": "BLK 665",
			"END_BUS_STOP": "BLK 946A",
			"START_BUS_STOP_NUM": "64479",
			"START_BUS_STOP_LATLNG": "1.3744013407130027, 103.88353995121632",
			"END_BUS_STOP_NUM": "64489",
			"END_BUS_STOP_LATLNG": "1.37488764981722, 103.88067688397113",
			"DISTANCE": "3.1",
			"GEOMETRIES": "ymkGiw`yRU`B_AbHOlA@v@?D?F?f@??"
		},
		{
			"BUS_SEQUENCE": 12,
			"START_BUS_STOP": "BLK 946A",
			"END_BUS_STOP": "REGENTVILLE",
			"START_BUS_STOP_NUM": "64489",
			"START_BUS_STOP_LATLNG": "1.37488764981722, 103.88067688397113",
			"END_BUS_STOP_NUM": "64499",
			"END_BUS_STOP_LATLNG": "1.3748828566070994, 103.87828864496954",
			"DISTANCE": "3.4",
			"GEOMETRIES": "}pkGge`yR?jB@xE?@?t@?v@?@@d@"
		},
		{
			"BUS_SEQUENCE": 13,
			"START_BUS_STOP": "REGENTVILLE",
			"END_BUS_STOP": "BLK 531",
			"START_BUS_STOP_NUM": "64499",
			"START_BUS_STOP_LATLNG": "1.3748828566070994, 103.87828864496954",
			"END_BUS_STOP_NUM": "66539",
			"END_BUS_STOP_LATLNG": "1.3750034059153358, 103.8750162086281",
			"DISTANCE": "3.7",
			"GEOMETRIES": "ypkGiv_yR?F?H??@bD?RAV?B?@?F??AJ?P?D???Z?TKlFCxA"
		},
		{
			"BUS_SEQUENCE": 14,
			"START_BUS_STOP": "BLK 531",
			"END_BUS_STOP": "BLK 538",
			"START_BUS_STOP_NUM": "66539",
			"START_BUS_STOP_LATLNG": "1.3750034059153358, 103.8750162086281",
			"END_BUS_STOP_NUM": "66529",
			"END_BUS_STOP_LATLNG": "1.37512174055594, 103.87318199195965",
			"DISTANCE": "4.1",
			"GEOMETRIES": "kqkG{a_yR?@ARCzAMzF"
		},
		{
			"BUS_SEQUENCE": 15,
			"START_BUS_STOP": "BLK 538",
			"END_BUS_STOP": "OPP SEAGATE",
			"START_BUS_STOP_NUM": "66529",
			"START_BUS_STOP_LATLNG": "1.37512174055594, 103.87318199195965",
			"END_BUS_STOP_NUM": "66519",
			"END_BUS_STOP_LATLNG": "1.3773461218142034, 103.87159967372143",
			"DISTANCE": "4.3",
			"GEOMETRIES": "_rkGmv~xR?@AZExBGlDiGQmBEc@A"
		},
		{
			"BUS_SEQUENCE": 16,
			"START_BUS_STOP": "OPP SEAGATE",
			"END_BUS_STOP": "AFT SEAGATE",
			"START_BUS_STOP_NUM": "66519",
			"START_BUS_STOP_LATLNG": "1.3773461218142034, 103.87159967372143",
			"END_BUS_STOP_NUM": "66459",
			"END_BUS_STOP_LATLNG": "1.3784894670121908, 103.87075091953804",
			"DISTANCE": "4.7",
			"GEOMETRIES": "k_lGam~xR??}@CqEI?LBbBBtA@B"
		},
		{
			"BUS_SEQUENCE": 17,
			"START_BUS_STOP": "AFT SEAGATE",
			"END_BUS_STOP": "TECHPLACE 2",
			"START_BUS_STOP_NUM": "66459",
			"START_BUS_STOP_LATLNG": "1.3784894670121908, 103.87075091953804",
			"END_BUS_STOP_NUM": "54659",
			"END_BUS_STOP_LATLNG": "1.3783400802079362, 103.86686274044777",
			"DISTANCE": "4.9",
			"GEOMETRIES": "qglGcg~xRHvFH`EHjF@N?LBbA"
		},
		{
			"BUS_SEQUENCE": 18,
			"START_BUS_STOP": "TECHPLACE 2",
			"END_BUS_STOP": "AFT BLK 5000",
			"START_BUS_STOP_NUM": "54659",
			"START_BUS_STOP_LATLNG": "1.3783400802079362, 103.86686274044777",
			"END_BUS_STOP_NUM": "54509",
			"END_BUS_STOP_LATLNG": "1.377588358237285, 103.86257049780349",
			"DISTANCE": "5.3",
			"GEOMETRIES": "mflG{n}xR?JBn@HzD@TFjAR~A^|BT|ABLBNd@rCFV"
		},
		{
			"BUS_SEQUENCE": 19,
			"START_BUS_STOP": "AFT BLK 5000",
			"END_BUS_STOP": "BEF CTE",
			"START_BUS_STOP_NUM": "54509",
			"START_BUS_STOP_LATLNG": "1.377588358237285, 103.86257049780349",
			"END_BUS_STOP_NUM": "54499",
			"END_BUS_STOP_LATLNG": "1.377008066514632, 103.86055355422366",
			"DISTANCE": "5.8",
			"GEOMETRIES": "ualG{s|xR?@TrAv@|DBPDRH\\Pz@"
		},
		{
			"BUS_SEQUENCE": 20,
			"START_BUS_STOP": "BEF CTE",
			"END_BUS_STOP": "OPP ITE COLLEGE CTRL",
			"START_BUS_STOP_NUM": "54499",
			"START_BUS_STOP_LATLNG": "1.377008066514632, 103.86055355422366",
			"END_BUS_STOP_NUM": "54489",
			"END_BUS_STOP_LATLNG": "1.3756613890056306, 103.85579666700443",
			"DISTANCE": "6",
			"GEOMETRIES": "a~kGgg|xR?@TfAVpAJf@XtA?@BNDNBRNr@BLBNPv@BLBNBH?BXrAJh@f@fCLhAJr@Bd@?B??"
		},
		{
			"BUS_SEQUENCE": 21,
			"START_BUS_STOP": "OPP ITE COLLEGE CTRL",
			"END_BUS_STOP": "BLK 538",
			"START_BUS_STOP_NUM": "54489",
			"START_BUS_STOP_LATLNG": "1.3756613890056306, 103.85579666700443",
			"END_BUS_STOP_NUM": "54479",
			"END_BUS_STOP_LATLNG": "1.3757933507746651, 103.853200441537",
			"DISTANCE": "6.6",
			"GEOMETRIES": "}ukGsi{xRDx@??EzB?XAZ[hG?HA?"
		},
		{
			"BUS_SEQUENCE": 22,
			"START_BUS_STOP": "BLK 538",
			"END_BUS_STOP": "BLK 502",
			"START_BUS_STOP_NUM": "54479",
			"START_BUS_STOP_LATLNG": "1.3757933507746651, 103.853200441537",
			"END_BUS_STOP_NUM": "54359",
			"END_BUS_STOP_LATLNG": "1.3761533476807946, 103.8499921086812",
			"DISTANCE": "6.9",
			"GEOMETRIES": "}vkGsyzxR?BAXCd@?FADARAN?D_@zHANAN?B?DARAPMvB?@"
		},
		{
			"BUS_SEQUENCE": 23,
			"START_BUS_STOP": "BLK 502",
			"END_BUS_STOP": "BLK 504",
			"START_BUS_STOP_NUM": "54359",
			"START_BUS_STOP_LATLNG": "1.3761533476807946, 103.8499921086812",
			"END_BUS_STOP_NUM": "54349",
			"END_BUS_STOP_LATLNG": "1.374773332996269, 103.84810527802902",
			"DISTANCE": "7.2",
			"GEOMETRIES": "_ykGqezxR?@?@MbBi@jFNf@NT`@XXJjDSfBK"
		},
		{
			"BUS_SEQUENCE": 24,
			"START_BUS_STOP": "BLK 504",
			"END_BUS_STOP": "BEF ANG MO KIO STN EXIT B",
			"START_BUS_STOP_NUM": "54349",
			"START_BUS_STOP_LATLNG": "1.374773332996269, 103.84810527802902",
			"END_BUS_STOP_NUM": "54399",
			"END_BUS_STOP_LATLNG": "1.371373023007229, 103.84866111647399",
			"DISTANCE": "7.6",
			"GEOMETRIES": "gokGyxyxR??PAtBKZClCOLAtE[hAQVGp@ODA@?"
		},
		{
			"BUS_SEQUENCE": 25,
			"START_BUS_STOP": "BEF ANG MO KIO STN EXIT B",
			"END_BUS_STOP": "BLK 422",
			"START_BUS_STOP_NUM": "54399",
			"START_BUS_STOP_LATLNG": "1.371373023007229, 103.84866111647399",
			"END_BUS_STOP_NUM": "54339",
			"END_BUS_STOP_LATLNG": "1.3678447007403989, 103.85057966582927",
			"DISTANCE": "8",
			"GEOMETRIES": "uyjGe|yxRlBo@hCkA?AvBaAVM^QBAFC@ARIZQzE{BBA"
		},
		{
			"BUS_SEQUENCE": 26,
			"START_BUS_STOP": "BLK 422",
			"END_BUS_STOP": "BLK 420",
			"START_BUS_STOP_NUM": "54339",
			"START_BUS_STOP_LATLNG": "1.3678447007403989, 103.85057966582927",
			"END_BUS_STOP_NUM": "54329",
			"END_BUS_STOP_LATLNG": "1.3644977252514139, 103.85247983714417",
			"DISTANCE": "8.5",
			"GEOMETRIES": "ocjGghzxRDCxAq@?ABAnDcBTKPIrDeBjD_B"
		},
		{
			"BUS_SEQUENCE": 27,
			"START_BUS_STOP": "BLK 420",
			"END_BUS_STOP": "OPP CHRIST THE KING CH",
			"START_BUS_STOP_NUM": "54329",
			"START_BUS_STOP_LATLNG": "1.3644977252514139, 103.85247983714417",
			"END_BUS_STOP_NUM": "54319",
			"END_BUS_STOP_LATLNG": "1.3620596914453182, 103.8530548230645",
			"DISTANCE": "8.9",
			"GEOMETRIES": "sniGatzxRLGFCBAZMLG|@]~@WxASTAL?NAdACr@BJ@"
		},
		{
			"BUS_SEQUENCE": 28,
			"START_BUS_STOP": "OPP CHRIST THE KING CH",
			"END_BUS_STOP": "AFT ANG MO KIO AVE 10",
			"START_BUS_STOP_NUM": "54319",
			"START_BUS_STOP_LATLNG": "1.3620596914453182, 103.8530548230645",
			"END_BUS_STOP_NUM": "54101",
			"END_BUS_STOP_LATLNG": "1.357320978009842, 103.85465761724521",
			"DISTANCE": "9.2",
			"GEOMETRIES": "}_iGqwzxRR@tAP\\L??XHlA^d@@B?f@?`@Ef@U\\WZYd@i@|@y@xA{@l@YTMLGLEJEbC}@fAc@HE"
		},
		{
			"BUS_SEQUENCE": 29,
			"START_BUS_STOP": "AFT ANG MO KIO AVE 10",
			"END_BUS_STOP": "GOLDEN HILL EST",
			"START_BUS_STOP_NUM": "54101",
			"START_BUS_STOP_LATLNG": "1.357320978009842, 103.85465761724521",
			"END_BUS_STOP_NUM": "66091",
			"END_BUS_STOP_LATLNG": "1.3545466669820099, 103.86145166702077",
			"DISTANCE": "9.8",
			"GEOMETRIES": "wahGua{xRFCBADABA~AaAj@k@d@i@h@s@d@aAd@uABIX{ABMp@wEHe@DYZyBJm@`AgHNaAN{@D[@A"
		},
		{
			"BUS_SEQUENCE": 30,
			"START_BUS_STOP": "GOLDEN HILL EST",
			"END_BUS_STOP": "LOR CHUAN STN EXIT B",
			"START_BUS_STOP_NUM": "66091",
			"START_BUS_STOP_LATLNG": "1.3545466669820099, 103.86145166702077",
			"END_BUS_STOP_NUM": "66709",
			"END_BUS_STOP_LATLNG": "1.3521488899625664, 103.86306499643662",
			"DISTANCE": "10.7",
			"GEOMETRIES": "cpgG{l|xR???Ej@mDPiABMXqBJkBC]Cg@?AAKLB??PDl@Ll@b@??f@`@zD~C"
		},
		{
			"BUS_SEQUENCE": 31,
			"START_BUS_STOP": "LOR CHUAN STN EXIT B",
			"END_BUS_STOP": "ST. GABRIEL'S PR SCH",
			"START_BUS_STOP_NUM": "66709",
			"START_BUS_STOP_LATLNG": "1.3521488899625664, 103.86306499643662",
			"END_BUS_STOP_NUM": "66029",
			"END_BUS_STOP_LATLNG": "1.3501630545926555, 103.86140888533203",
			"DISTANCE": "11.3",
			"GEOMETRIES": "ebgG{v|xRbAx@XTPNd@^bBvADBpAfAt@l@"
		},
		{
			"BUS_SEQUENCE": 32,
			"START_BUS_STOP": "ST. GABRIEL'S PR SCH",
			"END_BUS_STOP": "BEF BRADDELL RD",
			"START_BUS_STOP_NUM": "66029",
			"START_BUS_STOP_LATLNG": "1.3501630545926555, 103.86140888533203",
			"END_BUS_STOP_NUM": "66019",
			"END_BUS_STOP_LATLNG": "1.3460283748920139, 103.86040421534554",
			"DISTANCE": "11.6",
			"GEOMETRIES": "}ufGil|xR??^Zf@`@zAnAJF`Aj@RJXL`@Hz@RhCLl@A\\EVCjEg@RC"
		},
		{
			"BUS_SEQUENCE": 33,
			"START_BUS_STOP": "BEF BRADDELL RD",
			"END_BUS_STOP": "COMFORTDELGRO CORP LTD",
			"START_BUS_STOP_NUM": "66019",
			"START_BUS_STOP_LATLNG": "1.3460283748920139, 103.86040421534554",
			"END_BUS_STOP_NUM": "52069",
			"END_BUS_STOP_LATLNG": "1.3431438998891156, 103.85856611406128",
			"DISTANCE": "12.1",
			"GEOMETRIES": "q{eGye|xRD?lDa@bCSN@FDHD|A_@p@FPVHL@@HLPVJzBBlE"
		},
		{
			"BUS_SEQUENCE": 34,
			"START_BUS_STOP": "COMFORTDELGRO CORP LTD",
			"END_BUS_STOP": "BLK 219",
			"START_BUS_STOP_NUM": "52069",
			"START_BUS_STOP_LATLNG": "1.3431438998891156, 103.85856611406128",
			"END_BUS_STOP_NUM": "52059",
			"END_BUS_STOP_LATLNG": "1.3430784232442785, 103.85637814349425",
			"DISTANCE": "12.6",
			"GEOMETRIES": "}ieGa{{xR?@?N?VEbCAbB?ZCPC`A@^?T"
		},
		{
			"BUS_SEQUENCE": 35,
			"START_BUS_STOP": "BLK 219",
			"END_BUS_STOP": "BLK 1",
			"START_BUS_STOP_NUM": "52059",
			"START_BUS_STOP_LATLNG": "1.3430784232442785, 103.85637814349425",
			"END_BUS_STOP_NUM": "52361",
			"END_BUS_STOP_LATLNG": "1.339744089099308, 103.85298121607642",
			"DISTANCE": "12.8",
			"GEOMETRIES": "kjeGim{xR@`@?v@@D?X@nB@`@Nt@`@vBPX\\V^LbFn@bAj@xA`@bAXv@VHBHFFBJD"
		},
		{
			"BUS_SEQUENCE": 36,
			"START_BUS_STOP": "BLK 1",
			"END_BUS_STOP": "BLK 56",
			"START_BUS_STOP_NUM": "52361",
			"START_BUS_STOP_LATLNG": "1.339744089099308, 103.85298121607642",
			"END_BUS_STOP_NUM": "52279",
			"END_BUS_STOP_LATLNG": "1.3370242055511772, 103.84992957112877",
			"DISTANCE": "13.4",
			"GEOMETRIES": "{tdGiwzxRDBHFXLb@ZVR@@????HFLHHHIJIHC@GHC@EFQPWZQ|@C`AH\\Vd@XXZT|@b@`@RLFJFnB`AZNp@LJBZBN@b@?f@I"
		},
		{
			"BUS_SEQUENCE": 37,
			"START_BUS_STOP": "BLK 56",
			"END_BUS_STOP": "OPP CHUNG HWA FREE CLINIC",
			"START_BUS_STOP_NUM": "52279",
			"START_BUS_STOP_LATLNG": "1.3370242055511772, 103.84992957112877",
			"END_BUS_STOP_NUM": "52259",
			"END_BUS_STOP_LATLNG": "1.3327874654695901, 103.85165691373106",
			"DISTANCE": "14",
			"GEOMETRIES": "gcdGkdzxRDANCDAB?^ONIXSNKd@Y~B{Az@k@??xAk@FAl@MZEr@KPC??B?HAhAIZEfAIVCH?`@E??"
		},
		{
			"BUS_SEQUENCE": 38,
			"START_BUS_STOP": "OPP CHUNG HWA FREE CLINIC",
			"END_BUS_STOP": "Bef Toa Payoh Pk",
			"START_BUS_STOP_NUM": "52259",
			"START_BUS_STOP_LATLNG": "1.3327874654695901, 103.85165691373106",
			"END_BUS_STOP_NUM": "52501",
			"END_BUS_STOP_LATLNG": "1.3309022091879075, 103.85011762889829",
			"DISTANCE": "14.5",
			"GEOMETRIES": "yhcGgozxRD?^EdBM`AIhAMFA??RCBZ@@?BBZFh@HhAJrA?F?P?d@?D?D"
		},
		{
			"BUS_SEQUENCE": 39,
			"START_BUS_STOP": "Bef Toa Payoh Pk",
			"END_BUS_STOP": "TOA PAYOH INT",
			"START_BUS_STOP_NUM": "52501",
			"START_BUS_STOP_LATLNG": "1.3309022091879075, 103.85011762889829",
			"END_BUS_STOP_NUM": "52009",
			"END_BUS_STOP_LATLNG": "1.3320208338574886, 103.8469276352487",
			"DISTANCE": "14.9",
			"GEOMETRIES": "}}bGgfzxRADALKzAGx@E`@GdAATEd@APQ~B{@HOH"
		}
	],
	"BUS_DIRECTION_TWO": [
		{
			"BUS_SEQUENCE": 1,
			"START_BUS_STOP": "TOA PAYOH INT",
			"END_BUS_STOP": "AFT HDB HUB",
			"START_BUS_STOP_NUM": "52009",
			"START_BUS_STOP_LATLNG": "1.3320208338574886, 103.8469276352487",
			"END_BUS_STOP_NUM": "52509",
			"END_BUS_STOP_LATLNG": "1.3311571230376174, 103.85017633434691",
			"DISTANCE": "0",
			"GEOMETRIES": "mecGkvyxR?gATKhAIXHG`Az@IP_CFw@@UFeADa@Fy@J{A@M@E?E?E"
		},
		{
			"BUS_SEQUENCE": 2,
			"START_BUS_STOP": "AFT HDB HUB",
			"END_BUS_STOP": "CHUNG HWA FREE CLINIC",
			"START_BUS_STOP_NUM": "52509",
			"START_BUS_STOP_LATLNG": "1.3311571230376174, 103.85017633434691",
			"END_BUS_STOP_NUM": "52251",
			"END_BUS_STOP_LATLNG": "1.332969806324898, 103.85142087938439",
			"DISTANCE": "0.5",
			"GEOMETRIES": "}}bGsfzxR?e@?Q?GKsAIiAOa@YY_@QOA]CaAHeBL_@DE?a@DI?"
		},
		{
			"BUS_SEQUENCE": 3,
			"START_BUS_STOP": "CHUNG HWA FREE CLINIC",
			"END_BUS_STOP": "JACKSON SQ",
			"START_BUS_STOP_NUM": "52251",
			"START_BUS_STOP_LATLNG": "1.332969806324898, 103.85142087938439",
			"END_BUS_STOP_NUM": "52271",
			"END_BUS_STOP_LATLNG": "1.336831139071071, 103.84974718092393",
			"DISTANCE": "0.8",
			"GEOMETRIES": "ejcGaozxRWBgAH[DiAHI@C???QBs@J[Dm@LG@yAj@??{@j@_CzAe@XOJYROH_@NC?"
		},
		{
			"BUS_SEQUENCE": 4,
			"START_BUS_STOP": "JACKSON SQ",
			"END_BUS_STOP": "BLK 237",
			"START_BUS_STOP_NUM": "52271",
			"START_BUS_STOP_LATLNG": "1.336831139071071, 103.84974718092393",
			"END_BUS_STOP_NUM": "52369",
			"END_BUS_STOP_LATLNG": "1.340018332980652, 103.85273333299855",
			"DISTANCE": "1.3",
			"GEOMETRIES": "kbdGsdzxR??E@OBE@g@Hc@?OA[CKCq@M[OoBaAKGMGa@S}@c@g@WeAg@??CCMGCAMGDMJW@A@C?ABEXq@Zw@Lo@@m@Ie@CGM[YMIGQIGC??"
		},
		{
			"BUS_SEQUENCE": 5,
			"START_BUS_STOP": "BLK 237",
			"END_BUS_STOP": "BLK 147",
			"START_BUS_STOP_NUM": "52369",
			"START_BUS_STOP_LATLNG": "1.340018332980652, 103.85273333299855",
			"END_BUS_STOP_NUM": "52051",
			"END_BUS_STOP_LATLNG": "1.3433882070934882, 103.85469257245785",
			"DISTANCE": "1.9",
			"GEOMETRIES": "oudGswzxRIGICw@WcAYyAa@y@OqAIkGQWAyACg@Ba@NOb@C\\BVNPRL`@J^If@i@LcADw@CoAEe@KeA"
		},
		{
			"BUS_SEQUENCE": 6,
			"START_BUS_STOP": "BLK 147",
			"END_BUS_STOP": "BCA ACAD",
			"START_BUS_STOP_NUM": "52051",
			"START_BUS_STOP_LATLNG": "1.3433882070934882, 103.85469257245785",
			"END_BUS_STOP_NUM": "52061",
			"END_BUS_STOP_LATLNG": "1.3435217401896409, 103.85873879159367",
			"DISTANCE": "2.7",
			"GEOMETRIES": "qkeGwb{xRCWIiF?}AB{CBeD?iC"
		},
		{
			"BUS_SEQUENCE": 7,
			"START_BUS_STOP": "BCA ACAD",
			"END_BUS_STOP": "AFT BRADDELL RD",
			"START_BUS_STOP_NUM": "52061",
			"START_BUS_STOP_LATLNG": "1.3435217401896409, 103.85873879159367",
			"END_BUS_STOP_NUM": "66011",
			"END_BUS_STOP_LATLNG": "1.3471699790241887, 103.85997678086372",
			"DISTANCE": "3.2",
			"GEOMETRIES": "wkeGc|{xR?{BQs@US_@O}@MEQAQAc@AUM]IEGEOAcCRmD`@YBkEf@K@"
		},
		{
			"BUS_SEQUENCE": 8,
			"START_BUS_STOP": "AFT BRADDELL RD",
			"END_BUS_STOP": "NEW TECH PK",
			"START_BUS_STOP_NUM": "66011",
			"START_BUS_STOP_LATLNG": "1.3471699790241887, 103.85997678086372",
			"END_BUS_STOP_NUM": "66021",
			"END_BUS_STOP_LATLNG": "1.3502938875209802, 103.86116749984473",
			"DISTANCE": "3.8",
			"GEOMETRIES": "}bfGkd|xRK@]Dm@@iCM{@Sa@IYMSKaAk@KG{AoAg@a@WS"
		},
		{
			"BUS_SEQUENCE": 9,
			"START_BUS_STOP": "NEW TECH PK",
			"END_BUS_STOP": "GOLDENHILL PK CONDO",
			"START_BUS_STOP_NUM": "66021",
			"START_BUS_STOP_LATLNG": "1.3502938875209802, 103.86116749984473",
			"END_BUS_STOP_NUM": "66701",
			"END_BUS_STOP_LATLNG": "1.352218056231043, 103.86285305271481",
			"DISTANCE": "4.3",
			"GEOMETRIES": "uufGal|xRGGu@m@qAgAECcBwAe@_@QOYUu@m@"
		},
		{
			"BUS_SEQUENCE": 10,
			"START_BUS_STOP": "GOLDENHILL PK CONDO",
			"END_BUS_STOP": "OPP GOLDEN HILL EST",
			"START_BUS_STOP_NUM": "66701",
			"START_BUS_STOP_LATLNG": "1.352218056231043, 103.86285305271481",
			"END_BUS_STOP_NUM": "66099",
			"END_BUS_STOP_LATLNG": "1.354274746944555, 103.86142199387719",
			"DISTANCE": "4.6",
			"GEOMETRIES": "wagGov|xRiEkDi@Yg@YSE[FQTEPKjBYpBCLQhAk@jD"
		},
		{
			"BUS_SEQUENCE": 11,
			"START_BUS_STOP": "OPP GOLDEN HILL EST",
			"END_BUS_STOP": "BEF ANG MO KIO AVE 10",
			"START_BUS_STOP_NUM": "66099",
			"START_BUS_STOP_LATLNG": "1.354274746944555, 103.86142199387719",
			"END_BUS_STOP_NUM": "54109",
			"END_BUS_STOP_LATLNG": "1.3570816920487814, 103.85433890252277",
			"DISTANCE": "5.1",
			"GEOMETRIES": "cpgGcm|xR?@?DA@EZOz@O`AaAfHKl@[xBEXId@q@vECLYzACHe@tAe@`Ai@r@e@h@k@j@_B`AC@E@A?"
		},
		{
			"BUS_SEQUENCE": 12,
			"START_BUS_STOP": "BEF ANG MO KIO AVE 10",
			"END_BUS_STOP": "BLK 332",
			"START_BUS_STOP_NUM": "54109",
			"START_BUS_STOP_LATLNG": "1.3570816920487814, 103.85433890252277",
			"END_BUS_STOP_NUM": "54311",
			"END_BUS_STOP_LATLNG": "1.3614361081962465, 103.85257506359629",
			"DISTANCE": "6",
			"GEOMETRIES": "mahG{a{xRA@GBIDgAb@cC|@KDMDMFULm@XyAz@}@x@e@h@Y^g@l@ORA@ABA@C@MPQI??ICCAA?AAg@Q_@MmA_@WI"
		},
		{
			"BUS_SEQUENCE": 13,
			"START_BUS_STOP": "BLK 332",
			"END_BUS_STOP": "BLK 354",
			"START_BUS_STOP_NUM": "54311",
			"START_BUS_STOP_LATLNG": "1.3614361081962465, 103.85257506359629",
			"END_BUS_STOP_NUM": "54321",
			"END_BUS_STOP_LATLNG": "1.3639846735446977, 103.85237785571755",
			"DISTANCE": "6.6",
			"GEOMETRIES": "s{hGovzxRA???]MuAQ_@Cs@CeABO@M?U@yAR_AVy@Z"
		},
		{
			"BUS_SEQUENCE": 14,
			"START_BUS_STOP": "BLK 354",
			"END_BUS_STOP": "BLK 346",
			"START_BUS_STOP_NUM": "54321",
			"START_BUS_STOP_LATLNG": "1.3639846735446977, 103.85237785571755",
			"END_BUS_STOP_NUM": "54331",
			"END_BUS_STOP_LATLNG": "1.3671947372081297, 103.8505684537588",
			"DISTANCE": "6.9",
			"GEOMETRIES": "kliGguzxRC@MF[LC@GByDfBsDdBQHUJoDbBC@??"
		},
		{
			"BUS_SEQUENCE": 15,
			"START_BUS_STOP": "BLK 346",
			"END_BUS_STOP": "AFT ANG MO KIO INT",
			"START_BUS_STOP_NUM": "54331",
			"START_BUS_STOP_LATLNG": "1.3671947372081297, 103.8505684537588",
			"END_BUS_STOP_NUM": "54391",
			"END_BUS_STOP_LATLNG": "1.371548059939846, 103.84829804913585",
			"DISTANCE": "7.3",
			"GEOMETRIES": "o`jG_jzxR?@yAp@ID{EzB[PSHA@GBC@_@PWLwB`A?@iCjAoBn@E@o@N"
		},
		{
			"BUS_SEQUENCE": 16,
			"START_BUS_STOP": "AFT ANG MO KIO INT",
			"END_BUS_STOP": "OPP BLK 504",
			"START_BUS_STOP_NUM": "54391",
			"START_BUS_STOP_LATLNG": "1.371548059939846, 103.84829804913585",
			"END_BUS_STOP_NUM": "54341",
			"END_BUS_STOP_LATLNG": "1.3746214209523824, 103.84782467173312",
			"DISTANCE": "7.9",
			"GEOMETRIES": "m{jGs{yxRA?WFiAPuEZM@mCN[BoBJ"
		},
		{
			"BUS_SEQUENCE": 17,
			"START_BUS_STOP": "OPP BLK 504",
			"END_BUS_STOP": "NANYANG POLY",
			"START_BUS_STOP_NUM": "54341",
			"START_BUS_STOP_LATLNG": "1.3746214209523824, 103.84782467173312",
			"END_BUS_STOP_NUM": "54351",
			"END_BUS_STOP_LATLNG": "1.3764777788587723, 103.85003474200924",
			"DISTANCE": "8.3",
			"GEOMETRIES": "onkG{xyxRE?Q@gBJkDR_@B{@FI???A?M@BM??????@OJs@F_@h@kFLcB?A?C"
		},
		{
			"BUS_SEQUENCE": 18,
			"START_BUS_STOP": "NANYANG POLY",
			"END_BUS_STOP": "OPP BLK 538",
			"START_BUS_STOP_NUM": "54351",
			"START_BUS_STOP_LATLNG": "1.3764777788587723, 103.85003474200924",
			"END_BUS_STOP_NUM": "54471",
			"END_BUS_STOP_LATLNG": "1.3761347084610622, 103.85329655992408",
			"DISTANCE": "8.8",
			"GEOMETRIES": "_ykGsezxR??LwB@Q@S?E?C@O@O^{H?E@O@S@E?GBe@@Y@C?I?A"
		},
		{
			"BUS_SEQUENCE": 19,
			"START_BUS_STOP": "OPP BLK 538",
			"END_BUS_STOP": "ITE COLLEGE CTRL",
			"START_BUS_STOP_NUM": "54471",
			"START_BUS_STOP_LATLNG": "1.3761347084610622, 103.85329655992408",
			"END_BUS_STOP_NUM": "54481",
			"END_BUS_STOP_LATLNG": "1.375994979322369, 103.85576534172257",
			"DISTANCE": "9.2",
			"GEOMETRIES": "{vkG_zzxRZgG@[?YD{B??Ey@"
		},
		{
			"BUS_SEQUENCE": 20,
			"START_BUS_STOP": "ITE COLLEGE CTRL",
			"END_BUS_STOP": "AFT CTE",
			"START_BUS_STOP_NUM": "54481",
			"START_BUS_STOP_LATLNG": "1.375994979322369, 103.85576534172257",
			"END_BUS_STOP_NUM": "54491",
			"END_BUS_STOP_LATLNG": "1.377171652991872, 103.8601032326527",
			"DISTANCE": "9.5",
			"GEOMETRIES": "}ukGsi{xR???CCe@Ks@MiAg@gCKi@YsA?CCICOCMQw@COCMOs@CSEOCO?AYuAKg@WqA"
		},
		{
			"BUS_SEQUENCE": 21,
			"START_BUS_STOP": "AFT CTE",
			"END_BUS_STOP": "OPP AMK IND PK 2",
			"START_BUS_STOP_NUM": "54491",
			"START_BUS_STOP_LATLNG": "1.377171652991872, 103.8601032326527",
			"END_BUS_STOP_NUM": "54501",
			"END_BUS_STOP_LATLNG": "1.3778713889868202, 103.86266305598139",
			"DISTANCE": "10",
			"GEOMETRIES": "k}kG}d|xR??UgAQ}@I]ESCQw@}DUsAGY?E"
		},
		{
			"BUS_SEQUENCE": 22,
			"START_BUS_STOP": "OPP AMK IND PK 2",
			"END_BUS_STOP": "OPP TECHPLACE 2",
			"START_BUS_STOP_NUM": "54501",
			"START_BUS_STOP_LATLNG": "1.3778713889868202, 103.86266305598139",
			"END_BUS_STOP_NUM": "54651",
			"END_BUS_STOP_LATLNG": "1.3785427574054876, 103.86551861831313",
			"DISTANCE": "10.2",
			"GEOMETRIES": "}alGyt|xRe@mCCOCMU}A_@}BS_BGkA?E"
		},
		{
			"BUS_SEQUENCE": 23,
			"START_BUS_STOP": "OPP TECHPLACE 2",
			"END_BUS_STOP": "AFT AMK IND PK 2",
			"START_BUS_STOP_NUM": "54651",
			"START_BUS_STOP_LATLNG": "1.3785427574054876, 103.86551861831313",
			"END_BUS_STOP_NUM": "66451",
			"END_BUS_STOP_LATLNG": "1.3787249688180283, 103.86854361874475",
			"DISTANCE": "10.6",
			"GEOMETRIES": "}elGsf}xRAOI{DCo@CoA?MAOIkF?C"
		},
		{
			"BUS_SEQUENCE": 24,
			"START_BUS_STOP": "AFT AMK IND PK 2",
			"END_BUS_STOP": "YIO CHU KANG AMENITY CTR",
			"START_BUS_STOP_NUM": "66451",
			"START_BUS_STOP_LATLNG": "1.3787249688180283, 103.86854361874475",
			"END_BUS_STOP_NUM": "66511",
			"END_BUS_STOP_LATLNG": "1.3766502119343245, 103.87172116805385",
			"DISTANCE": "10.9",
			"GEOMETRIES": "}flGmy}xRI}DK{FCuACcB?MpEH|@Bb@@dBD"
		},
		{
			"BUS_SEQUENCE": 25,
			"START_BUS_STOP": "YIO CHU KANG AMENITY CTR",
			"END_BUS_STOP": "BAN TECK HAN BLDG",
			"START_BUS_STOP_NUM": "66511",
			"START_BUS_STOP_LATLNG": "1.3766502119343245, 103.87172116805385",
			"END_BUS_STOP_NUM": "66521",
			"END_BUS_STOP_LATLNG": "1.3752230444846203, 103.87393140656636",
			"DISTANCE": "11.6",
			"GEOMETRIES": "a{kGyl~xRF?hGPFmDDyB@[FuC"
		},
		{
			"BUS_SEQUENCE": 26,
			"START_BUS_STOP": "BAN TECK HAN BLDG",
			"END_BUS_STOP": "OPP BLK 531",
			"START_BUS_STOP_NUM": "66521",
			"START_BUS_STOP_LATLNG": "1.3752230444846203, 103.87393140656636",
			"END_BUS_STOP_NUM": "66531",
			"END_BUS_STOP_LATLNG": "1.3751927774494908, 103.87488352078607",
			"DISTANCE": "11.9",
			"GEOMETRIES": "wqkGa{~xRDgBBuA"
		},
		{
			"BUS_SEQUENCE": 27,
			"START_BUS_STOP": "OPP BLK 531",
			"END_BUS_STOP": "HOUGANG 1",
			"START_BUS_STOP_NUM": "66531",
			"START_BUS_STOP_LATLNG": "1.3751927774494908, 103.87488352078607",
			"END_BUS_STOP_NUM": "64491",
			"END_BUS_STOP_LATLNG": "1.3751302780116332, 103.8790516670034",
			"DISTANCE": "12",
			"GEOMETRIES": "mqkG_a_yR?E@SB{AJmF?U?[???E?Q@K???G?A?C@W?SAcD???IAm@?A?w@?u@?A"
		},
		{
			"BUS_SEQUENCE": 28,
			"START_BUS_STOP": "HOUGANG 1",
			"END_BUS_STOP": "BET BLKS 930/931",
			"START_BUS_STOP_NUM": "64491",
			"START_BUS_STOP_LATLNG": "1.3751302780116332, 103.8790516670034",
			"END_BUS_STOP_NUM": "64481",
			"END_BUS_STOP_LATLNG": "1.3751447432933521, 103.8807864140804",
			"DISTANCE": "12.5",
			"GEOMETRIES": "{pkGa{_yRAyE?kB?U"
		},
		{
			"BUS_SEQUENCE": 29,
			"START_BUS_STOP": "BET BLKS 930/931",
			"END_BUS_STOP": "BLK 917",
			"START_BUS_STOP_NUM": "64481",
			"START_BUS_STOP_LATLNG": "1.3751447432933521, 103.8807864140804",
			"END_BUS_STOP_NUM": "64471",
			"END_BUS_STOP_LATLNG": "1.3745480559877783, 103.8839677779891",
			"DISTANCE": "12.7",
			"GEOMETRIES": "}pkG}e`yR?Q?G?EAw@NmA~@cHViBD_@??BKBW"
		},
		{
			"BUS_SEQUENCE": 30,
			"START_BUS_STOP": "BLK 917",
			"END_BUS_STOP": "BLK 919",
			"START_BUS_STOP_NUM": "64471",
			"START_BUS_STOP_LATLNG": "1.3745480559877783, 103.8839677779891",
			"END_BUS_STOP_NUM": "64601",
			"END_BUS_STOP_LATLNG": "1.3754864036440562, 103.8845866729986",
			"DISTANCE": "13",
			"GEOMETRIES": "imkGuy`yR??NgA@_@CI?Ca@q@QEOEc@CMAc@TeAV"
		},
		{
			"BUS_SEQUENCE": 31,
			"START_BUS_STOP": "BLK 919",
			"END_BUS_STOP": "BLK 913",
			"START_BUS_STOP_NUM": "64601",
			"START_BUS_STOP_LATLNG": "1.3754864036440562, 103.8845866729986",
			"END_BUS_STOP_NUM": "64611",
			"END_BUS_STOP_LATLNG": "1.3783733382678216, 103.88445923003086",
			"DISTANCE": "13.2",
			"GEOMETRIES": "{skGa~`yRG?o@D??a@?M?iDBS@]?A?K?K???E?Q@U?yB@C@u@?"
		},
		{
			"BUS_SEQUENCE": 32,
			"START_BUS_STOP": "BLK 913",
			"END_BUS_STOP": "OPP BLK 579",
			"START_BUS_STOP_NUM": "64611",
			"START_BUS_STOP_LATLNG": "1.3783733382678216, 103.88445923003086",
			"END_BUS_STOP_NUM": "64469",
			"END_BUS_STOP_LATLNG": "1.379568332983901, 103.88576472203239",
			"DISTANCE": "13.5",
			"GEOMETRIES": "{elGo}`yR??G?mBBQ?]@G???M@?O??AE???E?EAQ?WE_CEc@AM"
		},
		{
			"BUS_SEQUENCE": 33,
			"START_BUS_STOP": "OPP BLK 579",
			"END_BUS_STOP": "OPP BLK 565",
			"START_BUS_STOP_NUM": "64469",
			"START_BUS_STOP_LATLNG": "1.379568332983901, 103.88576472203239",
			"END_BUS_STOP_NUM": "64629",
			"END_BUS_STOP_LATLNG": "1.3815399999662827, 103.88805638900108",
			"DISTANCE": "13.7",
			"GEOMETRIES": "illGeeayR??Cc@Ow@ACOa@k@{@m@q@{@q@MKIGMKAAMIIIIEYSSO}AoA??CCCA"
		},
		{
			"BUS_SEQUENCE": 34,
			"START_BUS_STOP": "OPP BLK 565",
			"END_BUS_STOP": "AFT BUANGKOK DR",
			"START_BUS_STOP_NUM": "64629",
			"START_BUS_STOP_LATLNG": "1.3815399999662827, 103.88805638900108",
			"END_BUS_STOP_NUM": "67459",
			"END_BUS_STOP_LATLNG": "1.3828863889981924, 103.88911083301014",
			"DISTANCE": "14.1",
			"GEOMETRIES": "cylG}sayR_Au@SOQMGEOMSMMKMIQMo@g@UOAAAA"
		},
		{
			"BUS_SEQUENCE": 35,
			"START_BUS_STOP": "AFT BUANGKOK DR",
			"END_BUS_STOP": "BEF SENGKANG EAST AVE",
			"START_BUS_STOP_NUM": "67459",
			"START_BUS_STOP_LATLNG": "1.3828863889981924, 103.88911083301014",
			"END_BUS_STOP_NUM": "67469",
			"END_BUS_STOP_LATLNG": "1.3853363898964792, 103.89074215657581",
			"DISTANCE": "14.3",
			"GEOMETRIES": "mamGszayRcAy@KKoB}Am@a@ECu@e@aAe@mAc@y@S"
		},
		{
			"BUS_SEQUENCE": 36,
			"START_BUS_STOP": "BEF SENGKANG EAST AVE",
			"END_BUS_STOP": "BLK 301D",
			"START_BUS_STOP_NUM": "67469",
			"START_BUS_STOP_LATLNG": "1.3853363898964792, 103.89074215657581",
			"END_BUS_STOP_NUM": "67279",
			"END_BUS_STOP_LATLNG": "1.3882213928230747, 103.89178694709211",
			"DISTANCE": "14.6",
			"GEOMETRIES": "aqmGaebyRaBa@oA]]IWGC?EAKCOC??ECy@O_@KcAWoBg@a@I"
		},
		{
			"BUS_SEQUENCE": 37,
			"START_BUS_STOP": "BLK 301D",
			"END_BUS_STOP": "BLK 323B",
			"START_BUS_STOP_NUM": "67279",
			"START_BUS_STOP_LATLNG": "1.3882213928230747, 103.89178694709211",
			"END_BUS_STOP_NUM": "67449",
			"END_BUS_STOP_LATLNG": "1.392032890775743, 103.8930711500473",
			"DISTANCE": "14.9",
			"GEOMETRIES": "ecnGgkbyRWIa@KiCk@WGUGICA?ICICC?A?CAUGa@KqEmAWEOCEA[GWGYIi@MWIIAGCA?"
		},
		{
			"BUS_SEQUENCE": 38,
			"START_BUS_STOP": "BLK 323B",
			"END_BUS_STOP": "OPP SENGKANG STN/BLK 260A",
			"START_BUS_STOP_NUM": "67449",
			"START_BUS_STOP_LATLNG": "1.392032890775743, 103.8930711500473",
			"END_BUS_STOP_NUM": "67401",
			"END_BUS_STOP_LATLNG": "1.392908422892378, 103.89531738456283",
			"DISTANCE": "15.3",
			"GEOMETRIES": "}znGmsbyRWGo@OA?OEc@KeAW[IGAQEEAMEBO@E@A?A@G@ADSJa@R{@Ty@No@Nk@FW"
		},
		{
			"BUS_SEQUENCE": 39,
			"START_BUS_STOP": "OPP SENGKANG STN/BLK 260A",
			"END_BUS_STOP": "BLK 240",
			"START_BUS_STOP_NUM": "67401",
			"START_BUS_STOP_LATLNG": "1.392908422892378, 103.89531738456283",
			"END_BUS_STOP_NUM": "67181",
			"END_BUS_STOP_LATLNG": "1.390967891384862, 103.89776828268866",
			"DISTANCE": "15.7",
			"GEOMETRIES": "{_oGm`cyRFYp@iCBOb@cBDSNi@Ns@Li@H[Ni@BK?CDOLBB@??B@RDTFjAXPDB@@?D@"
		},
		{
			"BUS_SEQUENCE": 40,
			"START_BUS_STOP": "BLK 240",
			"END_BUS_STOP": "SENGKANG INT",
			"START_BUS_STOP_NUM": "67181",
			"START_BUS_STOP_LATLNG": "1.390967891384862, 103.89776828268866",
			"END_BUS_STOP_NUM": "67009",
			"END_BUS_STOP_LATLNG": "1.391780603816011, 103.89588499436074",
			"DISTANCE": "16.1",
			"GEOMETRIES": "wtnGmocyRJBhAX@@xA^PB`@HLBCF?BA@?@GVGTIVCLIVGVI^?@A??@CNMEA?ICA?EAm@OsA[gAWMl@"
		}
	]
}