{
	"BUS_DIRECTION_ONE": [
		{
			"BUS_SEQUENCE": 1,
			"START_BUS_STOP": "JURONG EAST BUS INTERCHANGE",
			"END_BUS_STOP": "SEVENTH-DAY ADVENT CH",
			"START_BUS_STOP_NUM": "28009",
			"START_BUS_STOP_LATLNG": "1.3323504861095, 103.740664588477",
			"END_BUS_STOP_NUM": "28441",
			"END_BUS_STOP_LATLNG": "1.33576638902918, 103.738849166981",
			"DISTANCE": "0",
			"GEOMETRIES": "{fcG_{dxRc@YOWyAn@k@NmBHo@FWBcAJ[DM@c@La@XY\\Uf@Gr@Fv@D`@LpAMAWAQAQGEA"
		},
		{
			"BUS_SEQUENCE": 2,
			"START_BUS_STOP": "SEVENTH-DAY ADVENT CH",
			"END_BUS_STOP": "BLK 105",
			"START_BUS_STOP_NUM": "28441",
			"START_BUS_STOP_LATLNG": "1.33576638902918, 103.738849166981",
			"END_BUS_STOP_NUM": "28071",
			"END_BUS_STOP_LATLNG": "1.33765035288669, 103.739042429613",
			"DISTANCE": "0.7",
			"GEOMETRIES": "k{cGiodxRGAUMGCUSm@k@cB}A}@O[BQHq@t@_@dAKN"
		},
		{
			"BUS_SEQUENCE": 3,
			"START_BUS_STOP": "BLK 105",
			"END_BUS_STOP": "BLK 112",
			"START_BUS_STOP_NUM": "28071",
			"START_BUS_STOP_LATLNG": "1.33765035288669, 103.739042429613",
			"END_BUS_STOP_NUM": "28081",
			"END_BUS_STOP_LATLNG": "1.33950830792818, 103.736647646651",
			"DISTANCE": "1",
			"GEOMETRIES": "chdGqpdxRg@x@w@dAyFxHY`@"
		},
		{
			"BUS_SEQUENCE": 4,
			"START_BUS_STOP": "BLK 112",
			"END_BUS_STOP": "OPP BLK 227",
			"START_BUS_STOP_NUM": "28081",
			"START_BUS_STOP_LATLNG": "1.33950830792818, 103.736647646651",
			"END_BUS_STOP_NUM": "28281",
			"END_BUS_STOP_LATLNG": "1.3420603281321, 103.735375481322",
			"DISTANCE": "1.3",
			"GEOMETRIES": "wsdGuadxRmAbBsBtCaAzAU\\]UcBgAs@a@"
		},
		{
			"BUS_SEQUENCE": 5,
			"START_BUS_STOP": "OPP BLK 227",
			"END_BUS_STOP": "BLK 303",
			"START_BUS_STOP_NUM": "28281",
			"START_BUS_STOP_LATLNG": "1.3420603281321, 103.735375481322",
			"END_BUS_STOP_NUM": "28291",
			"END_BUS_STOP_LATLNG": "1.34446090409168, 103.7363830304",
			"DISTANCE": "1.7",
			"GEOMETRIES": "gbeGazcxRe@UaA]]M{Aa@e@Ok@MuA]wAa@EA"
		},
		{
			"BUS_SEQUENCE": 6,
			"START_BUS_STOP": "BLK 303",
			"END_BUS_STOP": "AFT PIE",
			"START_BUS_STOP_NUM": "28291",
			"START_BUS_STOP_LATLNG": "1.34446090409168, 103.7363830304",
			"END_BUS_STOP_NUM": "43459",
			"END_BUS_STOP_LATLNG": "1.34779637077856, 103.738029358079",
			"DISTANCE": "2",
			"GEOMETRIES": "oqeGe`dxRICuBw@wDaB}D_Bu@[o@YaAW"
		},
		{
			"BUS_SEQUENCE": 7,
			"START_BUS_STOP": "AFT PIE",
			"END_BUS_STOP": "DULWICH COLLEGE",
			"START_BUS_STOP_NUM": "43459",
			"START_BUS_STOP_LATLNG": "1.34779637077856, 103.738029358079",
			"END_BUS_STOP_NUM": "40321",
			"END_BUS_STOP_LATLNG": "1.35174487949103, 103.739471520569",
			"DISTANCE": "2.5",
			"GEOMETRIES": "mffGqjdxRk@OuAMkAA}AHqATQBCmBCkDaEAi@?iCCSB"
		},
		{
			"BUS_SEQUENCE": 8,
			"START_BUS_STOP": "DULWICH COLLEGE",
			"END_BUS_STOP": "BLK 460D",
			"START_BUS_STOP_NUM": "40321",
			"START_BUS_STOP_LATLNG": "1.35174487949103, 103.739471520569",
			"END_BUS_STOP_NUM": "40331",
			"END_BUS_STOP_LATLNG": "1.35335947570507, 103.740278580374",
			"DISTANCE": "3.1",
			"GEOMETRIES": "o_gGisdxRWDkAVaBp@eBeF"
		},
		{
			"BUS_SEQUENCE": 9,
			"START_BUS_STOP": "BLK 460D",
			"END_BUS_STOP": "BLK 461C",
			"START_BUS_STOP_NUM": "40331",
			"START_BUS_STOP_LATLNG": "1.35335947570507, 103.740278580374",
			"END_BUS_STOP_NUM": "40351",
			"END_BUS_STOP_LATLNG": "1.35499656917814, 103.74100218974",
			"DISTANCE": "3.4",
			"GEOMETRIES": "{hgG_xdxRAAa@mAQWKOyD_DqB|B"
		},
		{
			"BUS_SEQUENCE": 10,
			"START_BUS_STOP": "BLK 461C",
			"END_BUS_STOP": "BLK 438A",
			"START_BUS_STOP_NUM": "40351",
			"START_BUS_STOP_LATLNG": "1.35499656917814, 103.74100218974",
			"END_BUS_STOP_NUM": "40361",
			"END_BUS_STOP_LATLNG": "1.35715418971956, 103.740856189753",
			"DISTANCE": "3.7",
			"GEOMETRIES": "itgGy|dxREDg@l@mCxCkBuAkBuA"
		},
		{
			"BUS_SEQUENCE": 11,
			"START_BUS_STOP": "BLK 438A",
			"END_BUS_STOP": "BLK 436A",
			"START_BUS_STOP_NUM": "40361",
			"START_BUS_STOP_LATLNG": "1.35715418971956, 103.740856189753",
			"END_BUS_STOP_NUM": "43789",
			"END_BUS_STOP_LATLNG": "1.35915702140816, 103.739502377426",
			"DISTANCE": "4",
			"GEOMETRIES": "}`hGw{dxRaEyCyB_BaC~Ck@v@qCrDxAhAbB|ABB"
		},
		{
			"BUS_SEQUENCE": 12,
			"START_BUS_STOP": "BLK 436A",
			"END_BUS_STOP": "BLK 439C",
			"START_BUS_STOP_NUM": "43789",
			"START_BUS_STOP_LATLNG": "1.35915702140816, 103.739502377426",
			"END_BUS_STOP_NUM": "40311",
			"END_BUS_STOP_LATLNG": "1.35730456918268, 103.738907810297",
			"DISTANCE": "4.6",
			"GEOMETRIES": "wnhGyqdxRHHpAhAdA`AxBnBnC{C"
		},
		{
			"BUS_SEQUENCE": 13,
			"START_BUS_STOP": "BLK 439C",
			"END_BUS_STOP": "OPP BLK 461C",
			"START_BUS_STOP_NUM": "40311",
			"START_BUS_STOP_LATLNG": "1.35730456918268, 103.738907810297",
			"END_BUS_STOP_NUM": "40359",
			"END_BUS_STOP_LATLNG": "1.35540218970451, 103.740905810289",
			"DISTANCE": "4.9",
			"GEOMETRIES": "kahGondxRdF{FlCyC"
		},
		{
			"BUS_SEQUENCE": 14,
			"START_BUS_STOP": "OPP BLK 461C",
			"END_BUS_STOP": "BLK 448B",
			"START_BUS_STOP_NUM": "40359",
			"START_BUS_STOP_LATLNG": "1.35540218970451, 103.740905810289",
			"END_BUS_STOP_NUM": "40339",
			"END_BUS_STOP_LATLNG": "1.35347432348291, 103.740876520562",
			"DISTANCE": "5.2",
			"GEOMETRIES": "wugGe{dxRl@s@pB}BxD~CJN"
		},
		{
			"BUS_SEQUENCE": 15,
			"START_BUS_STOP": "BLK 448B",
			"END_BUS_STOP": "MILLENNIA INSTITUTE",
			"START_BUS_STOP_NUM": "40339",
			"START_BUS_STOP_LATLNG": "1.35347432348291, 103.740876520562",
			"END_BUS_STOP_NUM": "40329",
			"END_BUS_STOP_LATLNG": "1.35096917519706, 103.739619047092",
			"DISTANCE": "5.5",
			"GEOMETRIES": "qjgGg{dxRPV`@lA@@dBdF`Bq@jAWVERChCB"
		},
		{
			"BUS_SEQUENCE": 16,
			"START_BUS_STOP": "MILLENNIA INSTITUTE",
			"END_BUS_STOP": "BEF PIE",
			"START_BUS_STOP_NUM": "40329",
			"START_BUS_STOP_LATLNG": "1.35096917519706, 103.739619047092",
			"END_BUS_STOP_NUM": "43453",
			"END_BUS_STOP_LATLNG": "1.34790223618728, 103.738504402255",
			"DISTANCE": "5.9",
			"GEOMETRIES": "qzfGisdxRh@?`E@BjDL`@PTHF|@R|AIjA@tAL"
		},
		{
			"BUS_SEQUENCE": 17,
			"START_BUS_STOP": "BEF PIE",
			"END_BUS_STOP": "BLK 253",
			"START_BUS_STOP_NUM": "43453",
			"START_BUS_STOP_LATLNG": "1.34790223618728, 103.738504402255",
			"END_BUS_STOP_NUM": "28299",
			"END_BUS_STOP_LATLNG": "1.34438323067917, 103.736670272242",
			"DISTANCE": "6.4",
			"GEOMETRIES": "ygfGakdxRj@N`AVn@Xt@Z|D~AvD`BtBv@"
		},
		{
			"BUS_SEQUENCE": 18,
			"START_BUS_STOP": "BLK 253",
			"END_BUS_STOP": "BLK 228",
			"START_BUS_STOP_NUM": "28299",
			"START_BUS_STOP_LATLNG": "1.34438323067917, 103.736670272242",
			"END_BUS_STOP_NUM": "28289",
			"END_BUS_STOP_LATLNG": "1.34238972202327, 103.735988889011",
			"DISTANCE": "6.8",
			"GEOMETRIES": "yqeGi`dxRHBD@vA`@tA\\j@Ld@NzA`@\\L"
		},
		{
			"BUS_SEQUENCE": 19,
			"START_BUS_STOP": "BLK 228",
			"END_BUS_STOP": "BEF YUHUA CC",
			"START_BUS_STOP_NUM": "28289",
			"START_BUS_STOP_LATLNG": "1.34238972202327, 103.735988889011",
			"END_BUS_STOP_NUM": "28089",
			"END_BUS_STOP_LATLNG": "1.34016358625469, 103.736346388316",
			"DISTANCE": "7.1",
			"GEOMETRIES": "oeeGu{cxR`A\\d@Tr@`@nARP?f@GnAg@rBuC"
		},
		{
			"BUS_SEQUENCE": 20,
			"START_BUS_STOP": "BEF YUHUA CC",
			"END_BUS_STOP": "BLK 210",
			"START_BUS_STOP_NUM": "28089",
			"START_BUS_STOP_LATLNG": "1.34016358625469, 103.736346388316",
			"END_BUS_STOP_NUM": "28079",
			"END_BUS_STOP_LATLNG": "1.33839906637569, 103.738600902709",
			"DISTANCE": "7.4",
			"GEOMETRIES": "evdGq~cxRlAcBXa@xFyH"
		},
		{
			"BUS_SEQUENCE": 21,
			"START_BUS_STOP": "BLK 210",
			"END_BUS_STOP": "BEF SEVENTH-DAY ADVENT CH",
			"START_BUS_STOP_NUM": "28079",
			"START_BUS_STOP_LATLNG": "1.33839906637569, 103.738600902709",
			"END_BUS_STOP_NUM": "28449",
			"END_BUS_STOP_LATLNG": "1.33618166701348, 103.73944500003",
			"DISTANCE": "7.7",
			"GEOMETRIES": "ckdGqldxRv@eAf@y@JO^eAj@kBNi@ZZdAdAbB|A"
		},
		{
			"BUS_SEQUENCE": 22,
			"START_BUS_STOP": "BEF SEVENTH-DAY ADVENT CH",
			"END_BUS_STOP": "JURONG EAST BUS INTERCHANGE",
			"START_BUS_STOP_NUM": "28449",
			"START_BUS_STOP_LATLNG": "1.33618166701348, 103.73944500003",
			"END_BUS_STOP_NUM": "28009",
			"END_BUS_STOP_LATLNG": "1.3323504861095, 103.740664588477",
			"DISTANCE": "8.1",
			"GEOMETRIES": "u~cG}qdxRDDf@d@TRFB\\DRETMVc@Ea@Gw@Fs@Tg@X]`@Yb@MLAZEbAKVCn@GlBIj@OxAo@NVb@X"
		}
	]
}