{
	"BUS_DIRECTION_ONE": [
		{
			"BUS_SEQUENCE": 1,
			"START_BUS_STOP": "BT BATOK INT",
			"END_BUS_STOP": "BLK 231",
			"START_BUS_STOP_NUM": "43009",
			"START_BUS_STOP_LATLNG": "1.3499935430612586, 103.75106190953444",
			"END_BUS_STOP_NUM": "43179",
			"END_BUS_STOP_LATLNG": "1.3489707828043975, 103.75430345301594",
			"DISTANCE": "0",
			"GEOMETRIES": "_ufGq{fxR{AzBqAw@p@w@p@aAZg@LSd@u@rAwBDMLWLWbAyB`@_BVu@"
		},
		{
			"BUS_SEQUENCE": 2,
			"START_BUS_STOP": "BLK 231",
			"END_BUS_STOP": "BLK 254",
			"START_BUS_STOP_NUM": "43179",
			"START_BUS_STOP_LATLNG": "1.3489707828043975, 103.75430345301594",
			"END_BUS_STOP_NUM": "43169",
			"END_BUS_STOP_LATLNG": "1.3493107495048342, 103.7578877455261",
			"DISTANCE": "0.6",
			"GEOMETRIES": "emfG_ogxRVu@FWNu@Rg@Vg@BGr@eA|@cAHGTSVQo@k@{CoCoAiAm@k@UY??"
		},
		{
			"BUS_SEQUENCE": 3,
			"START_BUS_STOP": "BLK 254",
			"END_BUS_STOP": "OPP THE PETALS CONDO",
			"START_BUS_STOP_NUM": "43169",
			"START_BUS_STOP_LATLNG": "1.3493107495048342, 103.7578877455261",
			"END_BUS_STOP_NUM": "43231",
			"END_BUS_STOP_LATLNG": "1.353936257141271, 103.7600630422262",
			"DISTANCE": "1.2",
			"GEOMETRIES": "{ofG_fhxRUk@Ik@IgAS_DY{DQYUMYIo@Ng@LgDrA}@TQBOD[BWB_CJY?O?SAQ?C?i@Gm@OKCIE]MKG"
		},
		{
			"BUS_SEQUENCE": 4,
			"START_BUS_STOP": "OPP THE PETALS CONDO",
			"END_BUS_STOP": "OPP HILLVIEW APTS",
			"START_BUS_STOP_NUM": "43231",
			"START_BUS_STOP_LATLNG": "1.353936257141271, 103.7600630422262",
			"END_BUS_STOP_NUM": "43241",
			"END_BUS_STOP_LATLNG": "1.3558439285187849, 103.7618870954824",
			"DISTANCE": "2",
			"GEOMETRIES": "ulgGathxRYM_@Yk@k@MUo@cAOSACGKo@s@o@g@w@c@YMQG"
		},
		{
			"BUS_SEQUENCE": 5,
			"START_BUS_STOP": "OPP HILLVIEW APTS",
			"END_BUS_STOP": "HILLBROOKS",
			"START_BUS_STOP_NUM": "43241",
			"START_BUS_STOP_LATLNG": "1.3558439285187849, 103.7618870954824",
			"END_BUS_STOP_NUM": "43251",
			"END_BUS_STOP_LATLNG": "1.3585953441179206, 103.76319656643707",
			"DISTANCE": "2.3",
			"GEOMETRIES": "wxgGi_ixRYKqB_@UEMCw@OMCOEo@Qk@WGEwDgC"
		},
		{
			"BUS_SEQUENCE": 6,
			"START_BUS_STOP": "HILLBROOKS",
			"END_BUS_STOP": "OPP HILLVIEW HTS",
			"START_BUS_STOP_NUM": "43251",
			"START_BUS_STOP_LATLNG": "1.3585953441179206, 103.76319656643707",
			"END_BUS_STOP_NUM": "43261",
			"END_BUS_STOP_LATLNG": "1.3614550000210992, 103.76436750000352",
			"DISTANCE": "2.6",
			"GEOMETRIES": "yihGqgixRmAy@MGUKs@]wBe@GCIAgAUeB]KCeASSC"
		},
		{
			"BUS_SEQUENCE": 7,
			"START_BUS_STOP": "OPP HILLVIEW HTS",
			"END_BUS_STOP": "OPP GLENDALE PK CONDO",
			"START_BUS_STOP_NUM": "43261",
			"START_BUS_STOP_LATLNG": "1.3614550000210992, 103.76436750000352",
			"END_BUS_STOP_NUM": "43151",
			"END_BUS_STOP_LATLNG": "1.363206112219884, 103.76470805448176",
			"DISTANCE": "3",
			"GEOMETRIES": "}{hGynixRyBc@KAI@I?MBG@G?GAECEGIGIGGCMCuBUe@Ec@E"
		},
		{
			"BUS_SEQUENCE": 8,
			"START_BUS_STOP": "OPP GLENDALE PK CONDO",
			"END_BUS_STOP": "MINDEF CP",
			"START_BUS_STOP_NUM": "43151",
			"START_BUS_STOP_LATLNG": "1.363206112219884, 103.76470805448176",
			"END_BUS_STOP_NUM": "43719",
			"END_BUS_STOP_LATLNG": "1.3690397222502615, 103.76123388888556",
			"DISTANCE": "3.3",
			"GEOMETRIES": "siiG_rixRGAkBQ_BQYAE?q@DQF]XSl@q@rDk@`DMd@Uh@a@f@k@Z_AXwDf@iAVk@Xg@b@S`@Er@D`@WY]O[EC?"
		},
		{
			"BUS_SEQUENCE": 9,
			"START_BUS_STOP": "MINDEF CP",
			"END_BUS_STOP": "MIN OF DEFENCE",
			"START_BUS_STOP_NUM": "43719",
			"START_BUS_STOP_LATLNG": "1.3690397222502615, 103.76123388888556",
			"END_BUS_STOP_NUM": "43111",
			"END_BUS_STOP_LATLNG": "1.3722997215462591, 103.76298146518725",
			"DISTANCE": "4.2",
			"GEOMETRIES": "mkjGgzhxRc@Ba@F[Nk@`@m@Xa@Hs@FYCMCIKEYCWIkEIoAKk@AEU}Aa@WYMWEaB\\uAP"
		},
		{
			"BUS_SEQUENCE": 10,
			"START_BUS_STOP": "MIN OF DEFENCE",
			"END_BUS_STOP": "OPP THE LINEAR",
			"START_BUS_STOP_NUM": "43111",
			"START_BUS_STOP_LATLNG": "1.3722997215462591, 103.76298146518725",
			"END_BUS_STOP_NUM": "44011",
			"END_BUS_STOP_LATLNG": "1.3744860669386525, 103.76257120089848",
			"DISTANCE": "4.9",
			"GEOMETRIES": "_`kGkfixRmEj@wBXmBP"
		},
		{
			"BUS_SEQUENCE": 11,
			"START_BUS_STOP": "OPP THE LINEAR",
			"END_BUS_STOP": "BT PANJANG STN EXIT B",
			"START_BUS_STOP_NUM": "44011",
			"START_BUS_STOP_LATLNG": "1.3744860669386525, 103.76257120089848",
			"END_BUS_STOP_NUM": "44021",
			"END_BUS_STOP_LATLNG": "1.3782072270285077, 103.76172178111385",
			"DISTANCE": "5.1",
			"GEOMETRIES": "smkGscixR}Eb@y@HM@{@HoA^eCV}@JcAPs@Z"
		},
		{
			"BUS_SEQUENCE": 12,
			"START_BUS_STOP": "BT PANJANG STN EXIT B",
			"END_BUS_STOP": "BT PANJANG STN/BLK 604",
			"START_BUS_STOP_NUM": "44021",
			"START_BUS_STOP_LATLNG": "1.3782072270285077, 103.76172178111385",
			"END_BUS_STOP_NUM": "44251",
			"END_BUS_STOP_LATLNG": "1.3803007672226417, 103.76231669235113",
			"DISTANCE": "5.5",
			"GEOMETRIES": "aelGg~hxRqD|AyAp@M]MSq@aBk@kB"
		},
		{
			"BUS_SEQUENCE": 13,
			"START_BUS_STOP": "BT PANJANG STN/BLK 604",
			"END_BUS_STOP": "BLK 180",
			"START_BUS_STOP_NUM": "44251",
			"START_BUS_STOP_LATLNG": "1.3803007672226417, 103.76231669235113",
			"END_BUS_STOP_NUM": "44739",
			"END_BUS_STOP_LATLNG": "1.378765499999363, 103.76459849996493",
			"DISTANCE": "5.8",
			"GEOMETRIES": "gqlGwaixR{@iCe@}@MS^Q\\QbEyAt@[ZMNGLGf@S"
		},
		{
			"BUS_SEQUENCE": 14,
			"START_BUS_STOP": "BLK 180",
			"END_BUS_STOP": "OPP BT PANJANG STN",
			"START_BUS_STOP_NUM": "44739",
			"START_BUS_STOP_LATLNG": "1.378765499999363, 103.76459849996493",
			"END_BUS_STOP_NUM": "44859",
			"END_BUS_STOP_LATLNG": "1.3776375380462833, 103.76321805626449",
			"DISTANCE": "6.2",
			"GEOMETRIES": "}glG_oixRLGpAg@LEFZNbABJBLJl@Fb@F\\Lr@DX"
		},
		{
			"BUS_SEQUENCE": 15,
			"START_BUS_STOP": "OPP BT PANJANG STN",
			"END_BUS_STOP": "THE LINEAR",
			"START_BUS_STOP_NUM": "44859",
			"START_BUS_STOP_LATLNG": "1.3776375380462833, 103.76321805626449",
			"END_BUS_STOP_NUM": "44019",
			"END_BUS_STOP_LATLNG": "1.3765109552815744, 103.7625299525816",
			"DISTANCE": "6.4",
			"GEOMETRIES": "_blG}fixRLv@DPDXVb@VVRLdBMr@@"
		},
		{
			"BUS_SEQUENCE": 16,
			"START_BUS_STOP": "THE LINEAR",
			"END_BUS_STOP": "BEF HAZEL PK TERR",
			"START_BUS_STOP_NUM": "44019",
			"START_BUS_STOP_LATLNG": "1.3765109552815744, 103.7625299525816",
			"END_BUS_STOP_NUM": "43119",
			"END_BUS_STOP_LATLNG": "1.3733783099577603, 103.76300821940877",
			"DISTANCE": "6.6",
			"GEOMETRIES": "gzkG{aixRp@@z@ILAx@I|Ec@lBQvBY"
		},
		{
			"BUS_SEQUENCE": 17,
			"START_BUS_STOP": "BEF HAZEL PK TERR",
			"END_BUS_STOP": "BLK 319",
			"START_BUS_STOP_NUM": "43119",
			"START_BUS_STOP_LATLNG": "1.3733783099577603, 103.76300821940877",
			"END_BUS_STOP_NUM": "43721",
			"END_BUS_STOP_LATLNG": "1.3707630252676795, 103.7626491371365",
			"DISTANCE": "6.9",
			"GEOMETRIES": "mfkG_eixRlEk@tAQfDs@L`AT|A@D"
		},
		{
			"BUS_SEQUENCE": 18,
			"START_BUS_STOP": "BLK 319",
			"END_BUS_STOP": "MINDEF CP",
			"START_BUS_STOP_NUM": "43721",
			"START_BUS_STOP_LATLNG": "1.3707630252676795, 103.7626491371365",
			"END_BUS_STOP_NUM": "43719",
			"END_BUS_STOP_LATLNG": "1.3690397222502615, 103.76123388888556",
			"DISTANCE": "7.3",
			"GEOMETRIES": "{vjGkcixRJj@HnAHjEBVDXHJLBXBr@G`@Il@Yj@a@ZO`@Gb@C"
		},
		{
			"BUS_SEQUENCE": 19,
			"START_BUS_STOP": "MINDEF CP",
			"END_BUS_STOP": "BEF GLENDALE PK CONDO",
			"START_BUS_STOP_NUM": "43719",
			"START_BUS_STOP_LATLNG": "1.3690397222502615, 103.76123388888556",
			"END_BUS_STOP_NUM": "43159",
			"END_BUS_STOP_LATLNG": "1.364803053496262, 103.76520000043658",
			"DISTANCE": "7.8",
			"GEOMETRIES": "mkjGgzhxRB?ZD\\NVXEa@Ds@Ra@f@c@j@YhAWvDg@~@Yj@[`@g@Ti@Le@j@aD"
		},
		{
			"BUS_SEQUENCE": 20,
			"START_BUS_STOP": "BEF GLENDALE PK CONDO",
			"END_BUS_STOP": "HILLINGTON GREEN CONDO",
			"START_BUS_STOP_NUM": "43159",
			"START_BUS_STOP_LATLNG": "1.364803053496262, 103.76520000043658",
			"END_BUS_STOP_NUM": "43268",
			"END_BUS_STOP_LATLNG": "1.3603693544236248, 103.76427530511685",
			"DISTANCE": "8.6",
			"GEOMETRIES": "aqiGgsixRX@~APjBPF@b@Dd@DtBTP?JAHAHCFCD?D?D@D@BBDDFHJHDDDBxBb@RBdARJBdB\\"
		},
		{
			"BUS_SEQUENCE": 21,
			"START_BUS_STOP": "HILLINGTON GREEN CONDO",
			"END_BUS_STOP": "OPP HILLBROOKS",
			"START_BUS_STOP_NUM": "43268",
			"START_BUS_STOP_LATLNG": "1.3603693544236248, 103.76427530511685",
			"END_BUS_STOP_NUM": "43259",
			"END_BUS_STOP_LATLNG": "1.3575727779781208, 103.76266305599303",
			"DISTANCE": "9",
			"GEOMETRIES": "quhG_mixRfATH@FBvBd@r@\\TJLFlAx@vDfC"
		},
		{
			"BUS_SEQUENCE": 22,
			"START_BUS_STOP": "OPP HILLBROOKS",
			"END_BUS_STOP": "HILLVIEW APTS",
			"START_BUS_STOP_NUM": "43259",
			"START_BUS_STOP_LATLNG": "1.3575727779781208, 103.76266305599303",
			"END_BUS_STOP_NUM": "43249",
			"END_BUS_STOP_LATLNG": "1.355650523078183, 103.76204709426312",
			"DISTANCE": "9.4",
			"GEOMETRIES": "adhGicixRFDj@Vn@PNDLBv@NLBTDpB^XJPF"
		},
		{
			"BUS_SEQUENCE": 23,
			"START_BUS_STOP": "HILLVIEW APTS",
			"END_BUS_STOP": "THE PETALS CONDO",
			"START_BUS_STOP_NUM": "43249",
			"START_BUS_STOP_LATLNG": "1.355650523078183, 103.76204709426312",
			"END_BUS_STOP_NUM": "43239",
			"END_BUS_STOP_LATLNG": "1.35308576389352, 103.76002837789773",
			"DISTANCE": "9.6",
			"GEOMETRIES": "exgGa_ixRXLv@b@n@f@n@r@FJ@BNRn@bALTj@j@^XXLJFPHJBHDJBl@Nh@FB?"
		},
		{
			"BUS_SEQUENCE": 24,
			"START_BUS_STOP": "THE PETALS CONDO",
			"END_BUS_STOP": "BLK 272",
			"START_BUS_STOP_NUM": "43239",
			"START_BUS_STOP_LATLNG": "1.35308576389352, 103.76002837789773",
			"END_BUS_STOP_NUM": "43161",
			"END_BUS_STOP_LATLNG": "1.3488319069907149, 103.75766163401369",
			"DISTANCE": "10",
			"GEOMETRIES": "yggGirhxRP?R@N?X?~BKVCZCNEPC|@UfDsAf@Mn@OLCZGNCF`AXzDR~CHfAHj@Tj@??TXl@j@"
		},
		{
			"BUS_SEQUENCE": 25,
			"START_BUS_STOP": "BLK 272",
			"END_BUS_STOP": "BLK 229",
			"START_BUS_STOP_NUM": "43161",
			"START_BUS_STOP_LATLNG": "1.3488319069907149, 103.75766163401369",
			"END_BUS_STOP_NUM": "43171",
			"END_BUS_STOP_LATLNG": "1.3485964447318295, 103.75460496382077",
			"DISTANCE": "10.8",
			"GEOMETRIES": "wmfGychxRnAhAzCnCn@j@WPURIF}@bAs@dACFWf@Sf@Ot@"
		},
		{
			"BUS_SEQUENCE": 26,
			"START_BUS_STOP": "BLK 229",
			"END_BUS_STOP": "BT BATOK INT",
			"START_BUS_STOP_NUM": "43171",
			"START_BUS_STOP_LATLNG": "1.3485964447318295, 103.75460496382077",
			"END_BUS_STOP_NUM": "43009",
			"END_BUS_STOP_LATLNG": "1.3499935430612586, 103.75106190953444",
			"DISTANCE": "11.2",
			"GEOMETRIES": "elfGmqgxRGVWt@Wt@a@~AcAxBMVMVELsAvBe@t@MRn@d@XP[d@"
		}
	]
}