{
	"BUS_DIRECTION_ONE": [
		{
			"BUS_SEQUENCE": 1,
			"START_BUS_STOP": "TAMPINES INT",
			"END_BUS_STOP": "BLK 401",
			"START_BUS_STOP_NUM": "75009",
			"START_BUS_STOP_LATLNG": "1.35407552367477, 103.943390984739",
			"END_BUS_STOP_NUM": "76191",
			"END_BUS_STOP_LATLNG": "1.3569438864901, 103.944774454267",
			"DISTANCE": "0",
			"GEOMETRIES": "ingGkjlyRqAE[Eg@e@]Jk@n@a@a@Oc@Cg@?_CqF??[?mB"
		},
		{
			"BUS_SEQUENCE": 2,
			"START_BUS_STOP": "BLK 401",
			"END_BUS_STOP": "BLK 423",
			"START_BUS_STOP_NUM": "76191",
			"START_BUS_STOP_LATLNG": "1.3569438864901, 103.944774454267",
			"END_BUS_STOP_NUM": "76201",
			"END_BUS_STOP_LATLNG": "1.35687499368341, 103.947967422067",
			"DISTANCE": "0.5",
			"GEOMETRIES": "q~gGyulyR@uB?qC?EA_@C]?C@sF?{@"
		},
		{
			"BUS_SEQUENCE": 3,
			"START_BUS_STOP": "BLK 423",
			"END_BUS_STOP": "BLK 449",
			"START_BUS_STOP_NUM": "76201",
			"START_BUS_STOP_LATLNG": "1.35687499368341, 103.947967422067",
			"END_BUS_STOP_NUM": "76211",
			"END_BUS_STOP_LATLNG": "1.35675619021017, 103.950933587329",
			"DISTANCE": "0.8",
			"GEOMETRIES": "s~gGyimyR@aJB_ABe@BWLkB@?"
		},
		{
			"BUS_SEQUENCE": 4,
			"START_BUS_STOP": "BLK 449",
			"END_BUS_STOP": "TAMPINES EAST STN EXIT A",
			"START_BUS_STOP_NUM": "76211",
			"START_BUS_STOP_LATLNG": "1.35675619021017, 103.950933587329",
			"END_BUS_STOP_NUM": "76221",
			"END_BUS_STOP_LATLNG": "1.3563896244901, 103.95390226734",
			"DISTANCE": "1.1",
			"GEOMETRIES": "u}gGe|myRDq@??PuBB[@WZkEB}A??@oA"
		},
		{
			"BUS_SEQUENCE": 5,
			"START_BUS_STOP": "TAMPINES EAST STN EXIT A",
			"END_BUS_STOP": "TAMPINES JC/OPP BLK 390",
			"START_BUS_STOP_NUM": "76221",
			"START_BUS_STOP_LATLNG": "1.3563896244901, 103.95390226734",
			"END_BUS_STOP_NUM": "76231",
			"END_BUS_STOP_LATLNG": "1.35666908955685, 103.95736200627",
			"DISTANCE": "1.4",
			"GEOMETRIES": "u{gG{nnyR??@y@@}C?{@?e@?[@iAGkCE]G]Wy@S_@"
		},
		{
			"BUS_SEQUENCE": 6,
			"START_BUS_STOP": "TAMPINES JC/OPP BLK 390",
			"END_BUS_STOP": "BLK 497D",
			"START_BUS_STOP_NUM": "76231",
			"START_BUS_STOP_LATLNG": "1.35666908955685, 103.95736200627",
			"END_BUS_STOP_NUM": "76241",
			"END_BUS_STOP_LATLNG": "1.35838664366355, 103.959146786595",
			"DISTANCE": "1.8",
			"GEOMETRIES": "q}gG}doyRGGWe@aCgCe@]m@k@kBkBCC"
		},
		{
			"BUS_SEQUENCE": 7,
			"START_BUS_STOP": "BLK 497D",
			"END_BUS_STOP": "BLK 149A",
			"START_BUS_STOP_NUM": "76241",
			"START_BUS_STOP_LATLNG": "1.35838664366355, 103.959146786595",
			"END_BUS_STOP_NUM": "98011",
			"END_BUS_STOP_LATLNG": "1.36221388889515, 103.962916000026",
			"DISTANCE": "2.1",
			"GEOMETRIES": "whhGmpoyRUUyEwE_B_Bi@g@g@i@sBuB{@_A]_@m@k@oAkA"
		},
		{
			"BUS_SEQUENCE": 8,
			"START_BUS_STOP": "BLK 149A",
			"END_BUS_STOP": "BLK 275",
			"START_BUS_STOP_NUM": "98011",
			"START_BUS_STOP_LATLNG": "1.36221388889515, 103.962916000026",
			"END_BUS_STOP_NUM": "98021",
			"END_BUS_STOP_LATLNG": "1.36473730490409, 103.965376756595",
			"DISTANCE": "2.7",
			"GEOMETRIES": "e`iG{gpyRs@q@}CyCm@m@SWe@]eBiBy@y@Y["
		},
		{
			"BUS_SEQUENCE": 9,
			"START_BUS_STOP": "BLK 275",
			"END_BUS_STOP": "AFT PASIR RIS DR 3",
			"START_BUS_STOP_NUM": "98021",
			"START_BUS_STOP_LATLNG": "1.36473730490409, 103.965376756595",
			"END_BUS_STOP_NUM": "98031",
			"END_BUS_STOP_LATLNG": "1.36722636029551, 103.968017872402",
			"DISTANCE": "3.1",
			"GEOMETRIES": "yoiGkwpyRqCqCw@{@WSUWYY_B_BmCmC??"
		},
		{
			"BUS_SEQUENCE": 10,
			"START_BUS_STOP": "AFT PASIR RIS DR 3",
			"END_BUS_STOP": "OPP LOYANG VALLEY",
			"START_BUS_STOP_NUM": "98031",
			"START_BUS_STOP_LATLNG": "1.36722636029551, 103.968017872402",
			"END_BUS_STOP_NUM": "98041",
			"END_BUS_STOP_LATLNG": "1.36905889178012, 103.96968330433",
			"DISTANCE": "3.5",
			"GEOMETRIES": "y_jGmgqyRy@y@AAaHaH"
		},
		{
			"BUS_SEQUENCE": 11,
			"START_BUS_STOP": "OPP LOYANG VALLEY",
			"END_BUS_STOP": "LOYANG IND EST",
			"START_BUS_STOP_NUM": "98041",
			"START_BUS_STOP_LATLNG": "1.36905889178012, 103.96968330433",
			"END_BUS_STOP_NUM": "98231",
			"END_BUS_STOP_LATLNG": "1.37118600522884, 103.971841335306",
			"DISTANCE": "3.8",
			"GEOMETRIES": "wjjGkrqyR_A}@qAqA_B_BWWc@c@_C_C"
		},
		{
			"BUS_SEQUENCE": 12,
			"START_BUS_STOP": "LOYANG IND EST",
			"END_BUS_STOP": "BEF LOYANG WAY",
			"START_BUS_STOP_NUM": "98231",
			"START_BUS_STOP_LATLNG": "1.37118600522884, 103.971841335306",
			"END_BUS_STOP_NUM": "98051",
			"END_BUS_STOP_LATLNG": "1.37300166698251, 103.973713332992",
			"DISTANCE": "4.1",
			"GEOMETRIES": "exjGw_ryRgAeAa@c@u@s@e@g@iDiD"
		},
		{
			"BUS_SEQUENCE": 13,
			"START_BUS_STOP": "BEF LOYANG WAY",
			"END_BUS_STOP": "OPP ENGINE TEST FACILITY",
			"START_BUS_STOP_NUM": "98051",
			"START_BUS_STOP_LATLNG": "1.37300166698251, 103.973713332992",
			"END_BUS_STOP_NUM": "98061",
			"END_BUS_STOP_LATLNG": "1.37652810391203, 103.977166226331",
			"DISTANCE": "4.4",
			"GEOMETRIES": "uckGgkryRuAuAs@s@u@u@[Y]_@e@g@aDmCgCiCkBmBKK"
		},
		{
			"BUS_SEQUENCE": 14,
			"START_BUS_STOP": "OPP ENGINE TEST FACILITY",
			"END_BUS_STOP": "LOYANG WAY/SOXAL",
			"START_BUS_STOP_NUM": "98061",
			"START_BUS_STOP_LATLNG": "1.37652810391203, 103.977166226331",
			"END_BUS_STOP_NUM": "98071",
			"END_BUS_STOP_LATLNG": "1.37965443818622, 103.978389302491",
			"DISTANCE": "5",
			"GEOMETRIES": "wykG{`syRoBqBoA{@{Ak@cBYo@Ao@CcDH"
		},
		{
			"BUS_SEQUENCE": 15,
			"START_BUS_STOP": "LOYANG WAY/SOXAL",
			"END_BUS_STOP": "BEF SCH OF COMMANDO",
			"START_BUS_STOP_NUM": "98071",
			"START_BUS_STOP_LATLNG": "1.37965443818622, 103.978389302491",
			"END_BUS_STOP_NUM": "99011",
			"END_BUS_STOP_LATLNG": "1.38328110134472, 103.978121688304",
			"DISTANCE": "5.4",
			"GEOMETRIES": "{mlGkhsyRuUd@"
		},
		{
			"BUS_SEQUENCE": 16,
			"START_BUS_STOP": "BEF SCH OF COMMANDO",
			"END_BUS_STOP": "BEF CRANWELL RD",
			"START_BUS_STOP_NUM": "99011",
			"START_BUS_STOP_LATLNG": "1.38328110134472, 103.978121688304",
			"END_BUS_STOP_NUM": "99021",
			"END_BUS_STOP_LATLNG": "1.38667053181061, 103.979169124241",
			"DISTANCE": "5.8",
			"GEOMETRIES": "qdmGegsyRqADiBBy@?cAG}@MeAWeAa@w@e@s@k@e@g@"
		},
		{
			"BUS_SEQUENCE": 17,
			"START_BUS_STOP": "BEF CRANWELL RD",
			"END_BUS_STOP": "OPP MARANATHA B-P CH",
			"START_BUS_STOP_NUM": "99021",
			"START_BUS_STOP_LATLNG": "1.38667053181061, 103.979169124241",
			"END_BUS_STOP_NUM": "99031",
			"END_BUS_STOP_LATLNG": "1.38790615442763, 103.981778078878",
			"DISTANCE": "6.2",
			"GEOMETRIES": "gymGemsyRII]g@GKe@_AOYMSGY_@aBg@iBe@sB"
		},
		{
			"BUS_SEQUENCE": 18,
			"START_BUS_STOP": "OPP MARANATHA B-P CH",
			"END_BUS_STOP": "AFT CHANGI GOLF COURSE",
			"START_BUS_STOP_NUM": "99031",
			"START_BUS_STOP_LATLNG": "1.38790615442763, 103.981778078878",
			"END_BUS_STOP_NUM": "99041",
			"END_BUS_STOP_LATLNG": "1.38779999993686, 103.985473333347",
			"DISTANCE": "6.5",
			"GEOMETRIES": "q`nGk}syRI_@Ka@KcAAG?WAWn@{O"
		},
		{
			"BUS_SEQUENCE": 19,
			"START_BUS_STOP": "AFT CHANGI GOLF COURSE",
			"END_BUS_STOP": "BEF S'PORE AVIATION AC",
			"START_BUS_STOP_NUM": "99041",
			"START_BUS_STOP_LATLNG": "1.38779999993686, 103.985473333347",
			"END_BUS_STOP_NUM": "99181",
			"END_BUS_STOP_LATLNG": "1.38775412603923, 103.988503099751",
			"DISTANCE": "6.9",
			"GEOMETRIES": "g`nGettyR@UBc@\\qEDmB?qBE[M{@Oa@"
		},
		{
			"BUS_SEQUENCE": 20,
			"START_BUS_STOP": "BEF S'PORE AVIATION AC",
			"END_BUS_STOP": "CHANGI BEACH CP 2",
			"START_BUS_STOP_NUM": "99181",
			"START_BUS_STOP_LATLNG": "1.38775412603923, 103.988503099751",
			"END_BUS_STOP_NUM": "99171",
			"END_BUS_STOP_LATLNG": "1.39112750002185, 103.991021388921",
			"DISTANCE": "7.2",
			"GEOMETRIES": "a`nGkguyRQe@O_@Uo@MMaAy@[Sk@c@iA]mBa@oFm@c@AMHK@IADe@Hi@B_@Fa@"
		},
		{
			"BUS_SEQUENCE": 21,
			"START_BUS_STOP": "CHANGI BEACH CP 2",
			"END_BUS_STOP": "BEF CHANGI BEACH CP 3",
			"START_BUS_STOP_NUM": "99171",
			"START_BUS_STOP_LATLNG": "1.39112750002185, 103.991021388921",
			"END_BUS_STOP_NUM": "99161",
			"END_BUS_STOP_LATLNG": "1.39026180023806, 103.992956641345",
			"DISTANCE": "7.8",
			"GEOMETRIES": "eunGyvuyRBW^qANa@XOVu@h@qAHS\\aA"
		},
		{
			"BUS_SEQUENCE": 22,
			"START_BUS_STOP": "BEF CHANGI BEACH CP 3",
			"END_BUS_STOP": "CHANGI BEACH CP 4",
			"START_BUS_STOP_NUM": "99161",
			"START_BUS_STOP_LATLNG": "1.39026180023806, 103.992956641345",
			"END_BUS_STOP_NUM": "95071",
			"END_BUS_STOP_LATLNG": "1.38994660051217, 103.995121976696",
			"DISTANCE": "8",
			"GEOMETRIES": "monGsbvyRDIP{@HwAT{ED_A"
		},
		{
			"BUS_SEQUENCE": 23,
			"START_BUS_STOP": "CHANGI BEACH CP 4",
			"END_BUS_STOP": "CHANGI BEACH CP 5",
			"START_BUS_STOP_NUM": "95071",
			"START_BUS_STOP_LATLNG": "1.38994660051217, 103.995121976696",
			"END_BUS_STOP_NUM": "95081",
			"END_BUS_STOP_LATLNG": "1.38959028129733, 103.997616939502",
			"DISTANCE": "8.3",
			"GEOMETRIES": "omnGmpvyRDs@JqBBo@NiDT}AFO"
		},
		{
			"BUS_SEQUENCE": 24,
			"START_BUS_STOP": "CHANGI BEACH CP 5",
			"END_BUS_STOP": "SAF FERRY TER",
			"START_BUS_STOP_NUM": "95081",
			"START_BUS_STOP_LATLNG": "1.38959028129733, 103.997616939502",
			"END_BUS_STOP_NUM": "95091",
			"END_BUS_STOP_LATLNG": "1.38721361114033, 103.9997136111",
			"DISTANCE": "8.6",
			"GEOMETRIES": "kknG{_wyRRs@j@cAj@s@f@]fBaArAs@dCuA"
		},
		{
			"BUS_SEQUENCE": 25,
			"START_BUS_STOP": "SAF FERRY TER",
			"END_BUS_STOP": "POLICE PASS OFF",
			"START_BUS_STOP_NUM": "95091",
			"START_BUS_STOP_LATLNG": "1.38721361114033, 103.9997136111",
			"END_BUS_STOP_NUM": "95131",
			"END_BUS_STOP_LATLNG": "1.38525245892983, 103.999834389936",
			"DISTANCE": "9",
			"GEOMETRIES": "u|mGqlwyRrAu@d@UXOROJt@N\\LHR@h@Mf@MRCT@RH"
		},
		{
			"BUS_SEQUENCE": 26,
			"START_BUS_STOP": "POLICE PASS OFF",
			"END_BUS_STOP": "AFT CARGO BLDG D",
			"START_BUS_STOP_NUM": "95131",
			"START_BUS_STOP_LATLNG": "1.38525245892983, 103.999834389936",
			"END_BUS_STOP_NUM": "95141",
			"END_BUS_STOP_LATLNG": "1.38138618483813, 103.99819135665",
			"DISTANCE": "9.2",
			"GEOMETRIES": "_qmGqmwyR??z@\\`AZzExAtChAjBt@fBf@z@X"
		},
		{
			"BUS_SEQUENCE": 27,
			"START_BUS_STOP": "AFT CARGO BLDG D",
			"END_BUS_STOP": "SIA HANGAR",
			"START_BUS_STOP_NUM": "95141",
			"START_BUS_STOP_LATLNG": "1.38138618483813, 103.99819135665",
			"END_BUS_STOP_NUM": "95061",
			"END_BUS_STOP_LATLNG": "1.37755167138896, 103.99653899373",
			"DISTANCE": "9.7",
			"GEOMETRIES": "_ylG{bwyRh@PfJxCzHbCp@T"
		},
		{
			"BUS_SEQUENCE": 28,
			"START_BUS_STOP": "SIA HANGAR",
			"END_BUS_STOP": "3RD CARGO AGENTS",
			"START_BUS_STOP_NUM": "95061",
			"START_BUS_STOP_LATLNG": "1.37755167138896, 103.99653899373",
			"END_BUS_STOP_NUM": "95051",
			"END_BUS_STOP_LATLNG": "1.37528324353604, 103.996195793126",
			"DISTANCE": "10.1",
			"GEOMETRIES": "_alGuxvyRfCv@dG~A^ETQRe@La@"
		},
		{
			"BUS_SEQUENCE": 29,
			"START_BUS_STOP": "3RD CARGO AGENTS",
			"END_BUS_STOP": "CIAS CARGO TERS",
			"START_BUS_STOP_NUM": "95051",
			"START_BUS_STOP_LATLNG": "1.37528324353604, 103.996195793126",
			"END_BUS_STOP_NUM": "95041",
			"END_BUS_STOP_LATLNG": "1.37265452174649, 103.995700415969",
			"DISTANCE": "10.5",
			"GEOMETRIES": "yqkG}vvyRHW^kALOVGh@J~C`AZRR^VX^TlBp@"
		},
		{
			"BUS_SEQUENCE": 30,
			"START_BUS_STOP": "CIAS CARGO TERS",
			"END_BUS_STOP": "AIRFREIGHT TER BLDG",
			"START_BUS_STOP_NUM": "95041",
			"START_BUS_STOP_LATLNG": "1.37265452174649, 103.995700415969",
			"END_BUS_STOP_NUM": "95039",
			"END_BUS_STOP_LATLNG": "1.37218943783154, 103.994578790332",
			"DISTANCE": "10.9",
			"GEOMETRIES": "ibkGusvyRjC|@w@lC"
		},
		{
			"BUS_SEQUENCE": 31,
			"START_BUS_STOP": "AIRFREIGHT TER BLDG",
			"END_BUS_STOP": "SATS CARGO TER",
			"START_BUS_STOP_NUM": "95039",
			"START_BUS_STOP_LATLNG": "1.37218943783154, 103.994578790332",
			"END_BUS_STOP_NUM": "95049",
			"END_BUS_STOP_LATLNG": "1.37359444402021, 103.994434167028",
			"DISTANCE": "11.1",
			"GEOMETRIES": "u_kGimvyRi@fBM@QEwDoA"
		},
		{
			"BUS_SEQUENCE": 32,
			"START_BUS_STOP": "SATS CARGO TER",
			"END_BUS_STOP": "OPP SIA HANGAR",
			"START_BUS_STOP_NUM": "95049",
			"START_BUS_STOP_LATLNG": "1.37359444402021, 103.994434167028",
			"END_BUS_STOP_NUM": "95069",
			"END_BUS_STOP_LATLNG": "1.37789848118317, 103.996431600406",
			"DISTANCE": "11.3",
			"GEOMETRIES": "wgkGulvyRoBo@_IcCwBs@SIa@g@aAm@gCw@q@U"
		},
		{
			"BUS_SEQUENCE": 33,
			"START_BUS_STOP": "OPP SIA HANGAR",
			"END_BUS_STOP": "BEF CARGO BLDG D",
			"START_BUS_STOP_NUM": "95069",
			"START_BUS_STOP_LATLNG": "1.37789848118317, 103.996431600406",
			"END_BUS_STOP_NUM": "95149",
			"END_BUS_STOP_LATLNG": "1.38128155042147, 103.997856827753",
			"DISTANCE": "11.9",
			"GEOMETRIES": "qblGkyvyR{HcCgJyC"
		},
		{
			"BUS_SEQUENCE": 34,
			"START_BUS_STOP": "BEF CARGO BLDG D",
			"END_BUS_STOP": "POLICE PASS OFF",
			"START_BUS_STOP_NUM": "95149",
			"START_BUS_STOP_LATLNG": "1.38128155042147, 103.997856827753",
			"END_BUS_STOP_NUM": "95139",
			"END_BUS_STOP_LATLNG": "1.38557240860116, 103.998997875399",
			"DISTANCE": "12.2",
			"GEOMETRIES": "uwlGibwyRi@Q{@YgBg@kBu@uCiA{EyA_@Hi@?ODIHMb@KPKFM?MCKC??"
		},
		{
			"BUS_SEQUENCE": 35,
			"START_BUS_STOP": "POLICE PASS OFF",
			"END_BUS_STOP": "OPP SAF FERRY TER",
			"START_BUS_STOP_NUM": "95139",
			"START_BUS_STOP_LATLNG": "1.38557240860116, 103.998997875399",
			"END_BUS_STOP_NUM": "95099",
			"END_BUS_STOP_LATLNG": "1.38815449129359, 103.998786082579",
			"DISTANCE": "12.7",
			"GEOMETRIES": "srmGgiwyR{Ac@YIOMWiAUQYE_@AsAt@eCtAsAr@"
		},
		{
			"BUS_SEQUENCE": 36,
			"START_BUS_STOP": "OPP SAF FERRY TER",
			"END_BUS_STOP": "OPP CHANGI BEACH CP 5",
			"START_BUS_STOP_NUM": "95099",
			"START_BUS_STOP_LATLNG": "1.38815449129359, 103.998786082579",
			"END_BUS_STOP_NUM": "95089",
			"END_BUS_STOP_LATLNG": "1.38962166669625, 103.995931111089",
			"DISTANCE": "13.1",
			"GEOMETRIES": "ocnGghwyRgB`Ag@\\k@r@k@bASr@GNU|AOhDCn@"
		},
		{
			"BUS_SEQUENCE": 37,
			"START_BUS_STOP": "OPP CHANGI BEACH CP 5",
			"END_BUS_STOP": "OPP CHANGI BEACH CP 4",
			"START_BUS_STOP_NUM": "95089",
			"START_BUS_STOP_LATLNG": "1.38962166669625, 103.995931111089",
			"END_BUS_STOP_NUM": "95079",
			"END_BUS_STOP_LATLNG": "1.39019416668503, 103.992520277795",
			"DISTANCE": "13.5",
			"GEOMETRIES": "}lnGsuvyRKpBEr@E~@UzEIvAQz@EH]`A"
		},
		{
			"BUS_SEQUENCE": 38,
			"START_BUS_STOP": "OPP CHANGI BEACH CP 4",
			"END_BUS_STOP": "S'PORE AVIATION AC",
			"START_BUS_STOP_NUM": "95079",
			"START_BUS_STOP_LATLNG": "1.39019416668503, 103.992520277795",
			"END_BUS_STOP_NUM": "99189",
			"END_BUS_STOP_LATLNG": "1.3884141666958, 103.989716388853",
			"DISTANCE": "13.9",
			"GEOMETRIES": "kpnGq`vyRIRi@pAWt@CbAF|@Nr@\\r@d@f@l@`@fA^lB`@hA\\j@b@"
		},
		{
			"BUS_SEQUENCE": 39,
			"START_BUS_STOP": "S'PORE AVIATION AC",
			"END_BUS_STOP": "CHANGI GOLF COURSE",
			"START_BUS_STOP_NUM": "99189",
			"START_BUS_STOP_LATLNG": "1.3884141666958, 103.989716388853",
			"END_BUS_STOP_NUM": "99049",
			"END_BUS_STOP_LATLNG": "1.38749994542049, 103.985733640268",
			"DISTANCE": "14.4",
			"GEOMETRIES": "eenG}muyRZR`Ax@LLTn@N^Pd@N`@Lz@DZ?pBElB[hEAF"
		},
		{
			"BUS_SEQUENCE": 40,
			"START_BUS_STOP": "CHANGI GOLF COURSE",
			"END_BUS_STOP": "ST. GEORGE CHAPEL",
			"START_BUS_STOP_NUM": "99049",
			"START_BUS_STOP_LATLNG": "1.38749994542049, 103.985733640268",
			"END_BUS_STOP_NUM": "99039",
			"END_BUS_STOP_LATLNG": "1.38768581439487, 103.982021310734",
			"DISTANCE": "14.8",
			"GEOMETRIES": "a`nG_vtyRCb@ATo@zO@V?V@FJbAJ`@"
		},
		{
			"BUS_SEQUENCE": 41,
			"START_BUS_STOP": "ST. GEORGE CHAPEL",
			"END_BUS_STOP": "AFT CRANWELL RD",
			"START_BUS_STOP_NUM": "99039",
			"START_BUS_STOP_LATLNG": "1.38768581439487, 103.982021310734",
			"END_BUS_STOP_NUM": "99029",
			"END_BUS_STOP_LATLNG": "1.38664086819653, 103.979593062032",
			"DISTANCE": "15.2",
			"GEOMETRIES": "{`nGk~syRH^d@rBf@hB^`BFXLRNXd@~@FJ"
		},
		{
			"BUS_SEQUENCE": 42,
			"START_BUS_STOP": "AFT CRANWELL RD",
			"END_BUS_STOP": "AFT SCH OF COMMANDO",
			"START_BUS_STOP_NUM": "99029",
			"START_BUS_STOP_LATLNG": "1.38664086819653, 103.979593062032",
			"END_BUS_STOP_NUM": "99019",
			"END_BUS_STOP_LATLNG": "1.3837089764569, 103.978448607683",
			"DISTANCE": "15.5",
			"GEOMETRIES": "ozmGwnsyR@@Zd@HHd@f@r@j@v@d@dA`@dAV|@LbAFx@?hBC"
		},
		{
			"BUS_SEQUENCE": 43,
			"START_BUS_STOP": "AFT SCH OF COMMANDO",
			"END_BUS_STOP": "OPP LOYANG WAY/SOXAL",
			"START_BUS_STOP_NUM": "99019",
			"START_BUS_STOP_LATLNG": "1.3837089764569, 103.978448607683",
			"END_BUS_STOP_NUM": "98079",
			"END_BUS_STOP_LATLNG": "1.37859016739254, 103.978700697195",
			"DISTANCE": "15.9",
			"GEOMETRIES": "cgmG_gsyRpAEtUe@bDIn@B"
		},
		{
			"BUS_SEQUENCE": 44,
			"START_BUS_STOP": "OPP LOYANG WAY/SOXAL",
			"END_BUS_STOP": "AFT ENGINE TEST FACILITY",
			"START_BUS_STOP_NUM": "98079",
			"START_BUS_STOP_LATLNG": "1.37859016739254, 103.978700697195",
			"END_BUS_STOP_NUM": "98069",
			"END_BUS_STOP_LATLNG": "1.3757102208247, 103.976778734029",
			"DISTANCE": "16.5",
			"GEOMETRIES": "gglGqhsyRn@@bBXzAj@nAz@nBpBJJjBlB"
		},
		{
			"BUS_SEQUENCE": 45,
			"START_BUS_STOP": "AFT ENGINE TEST FACILITY",
			"END_BUS_STOP": "AFT LOYANG WAY",
			"START_BUS_STOP_NUM": "98069",
			"START_BUS_STOP_LATLNG": "1.3757102208247, 103.976778734029",
			"END_BUS_STOP_NUM": "98059",
			"END_BUS_STOP_LATLNG": "1.37320003118402, 103.974371946937",
			"DISTANCE": "16.9",
			"GEOMETRIES": "_vkGa}ryRfChC`DlCd@f@\\^ZXt@t@r@r@"
		},
		{
			"BUS_SEQUENCE": 46,
			"START_BUS_STOP": "AFT LOYANG WAY",
			"END_BUS_STOP": "OPP LOYANG IND EST",
			"START_BUS_STOP_NUM": "98059",
			"START_BUS_STOP_LATLNG": "1.37320003118402, 103.974371946937",
			"END_BUS_STOP_NUM": "98239",
			"END_BUS_STOP_LATLNG": "1.37149806503652, 103.972588595313",
			"DISTANCE": "17.3",
			"GEOMETRIES": "kfkG}mryRtAtAhDhDd@f@t@r@"
		},
		{
			"BUS_SEQUENCE": 47,
			"START_BUS_STOP": "OPP LOYANG IND EST",
			"END_BUS_STOP": "LOYANG VALLEY",
			"START_BUS_STOP_NUM": "98239",
			"START_BUS_STOP_LATLNG": "1.37149806503652, 103.972588595313",
			"END_BUS_STOP_NUM": "98049",
			"END_BUS_STOP_LATLNG": "1.36955111611083, 103.970640548143",
			"DISTANCE": "17.6",
			"GEOMETRIES": "o{jGacryR`@b@fAdA~B~Bb@b@VV~A~A"
		},
		{
			"BUS_SEQUENCE": 48,
			"START_BUS_STOP": "LOYANG VALLEY",
			"END_BUS_STOP": "BEF NEW LOYANG LK",
			"START_BUS_STOP_NUM": "98049",
			"START_BUS_STOP_LATLNG": "1.36955111611083, 103.970640548143",
			"END_BUS_STOP_NUM": "98039",
			"END_BUS_STOP_LATLNG": "1.3673740332815, 103.968471605643",
			"DISTANCE": "17.9",
			"GEOMETRIES": "iojG{vqyRpApA~@|@`H`H"
		},
		{
			"BUS_SEQUENCE": 49,
			"START_BUS_STOP": "BEF NEW LOYANG LK",
			"END_BUS_STOP": "OPP BLK 275",
			"START_BUS_STOP_NUM": "98039",
			"START_BUS_STOP_LATLNG": "1.3673740332815, 103.968471605643",
			"END_BUS_STOP_NUM": "98029",
			"END_BUS_STOP_LATLNG": "1.36438833297951, 103.965456388982",
			"DISTANCE": "18.3",
			"GEOMETRIES": "uajGiiqyR@@x@x@??lClC~A~AXXTVVRv@z@pCpCXZ"
		},
		{
			"BUS_SEQUENCE": 50,
			"START_BUS_STOP": "OPP BLK 275",
			"END_BUS_STOP": "OPP BLK 149A",
			"START_BUS_STOP_NUM": "98029",
			"START_BUS_STOP_LATLNG": "1.36438833297951, 103.965456388982",
			"END_BUS_STOP_NUM": "98019",
			"END_BUS_STOP_LATLNG": "1.3622609999684, 103.963386999985",
			"DISTANCE": "18.8",
			"GEOMETRIES": "_oiGovpyRx@x@dBhBd@\\RVl@l@|CxC"
		},
		{
			"BUS_SEQUENCE": 51,
			"START_BUS_STOP": "OPP BLK 149A",
			"END_BUS_STOP": "BLK 370",
			"START_BUS_STOP_NUM": "98019",
			"START_BUS_STOP_LATLNG": "1.3622609999684, 103.963386999985",
			"END_BUS_STOP_NUM": "76249",
			"END_BUS_STOP_LATLNG": "1.35828311735626, 103.959447586431",
			"DISTANCE": "19.2",
			"GEOMETRIES": "yaiGmipyRr@p@nAjAl@j@\\^z@~@rBtBf@h@h@f@~A~AxEvE"
		},
		{
			"BUS_SEQUENCE": 52,
			"START_BUS_STOP": "BLK 370",
			"END_BUS_STOP": "BLK 390/OPP TAMPINES JC",
			"START_BUS_STOP_NUM": "76249",
			"START_BUS_STOP_LATLNG": "1.35828311735626, 103.959447586431",
			"END_BUS_STOP_NUM": "76239",
			"END_BUS_STOP_LATLNG": "1.3564927293972, 103.957548264813",
			"DISTANCE": "19.8",
			"GEOMETRIES": "mihGcqoyRTTnBnBl@j@d@\\`CfCVd@"
		},
		{
			"BUS_SEQUENCE": 53,
			"START_BUS_STOP": "BLK 390/OPP TAMPINES JC",
			"END_BUS_STOP": "OPP TAMPINES EAST STN",
			"START_BUS_STOP_NUM": "76239",
			"START_BUS_STOP_LATLNG": "1.3564927293972, 103.957548264813",
			"END_BUS_STOP_NUM": "76229",
			"END_BUS_STOP_LATLNG": "1.35613608043852, 103.953495285897",
			"DISTANCE": "20.1",
			"GEOMETRIES": "y}gGeeoyRFFR^Vx@F\\D\\FjCAhA?Z?d@?z@A|CAx@??AnA"
		},
		{
			"BUS_SEQUENCE": 54,
			"START_BUS_STOP": "OPP TAMPINES EAST STN",
			"END_BUS_STOP": "BLK 230E",
			"START_BUS_STOP_NUM": "76229",
			"START_BUS_STOP_LATLNG": "1.35613608043852, 103.953495285897",
			"END_BUS_STOP_NUM": "76219",
			"END_BUS_STOP_LATLNG": "1.35644168689504, 103.951144185665",
			"DISTANCE": "20.5",
			"GEOMETRIES": "w{gGklnyR??C|A[jEAVCZQtB??"
		},
		{
			"BUS_SEQUENCE": 55,
			"START_BUS_STOP": "BLK 230E",
			"END_BUS_STOP": "BLK 233",
			"START_BUS_STOP_NUM": "76219",
			"START_BUS_STOP_LATLNG": "1.35644168689504, 103.951144185665",
			"END_BUS_STOP_NUM": "76209",
			"END_BUS_STOP_LATLNG": "1.35660332787929, 103.947669131857",
			"DISTANCE": "20.8",
			"GEOMETRIES": "o}gGw}myREp@A?MjBCVCd@C~@A`J?z@"
		},
		{
			"BUS_SEQUENCE": 56,
			"START_BUS_STOP": "BLK 233",
			"END_BUS_STOP": "BLK 503",
			"START_BUS_STOP_NUM": "76209",
			"START_BUS_STOP_LATLNG": "1.35660332787929, 103.947669131857",
			"END_BUS_STOP_NUM": "76199",
			"END_BUS_STOP_LATLNG": "1.35660016333768, 103.945354284321",
			"DISTANCE": "21.2",
			"GEOMETRIES": "s~gG}gmyRArF?BB\\@^?D?pC"
		},
		{
			"BUS_SEQUENCE": 57,
			"START_BUS_STOP": "BLK 503",
			"END_BUS_STOP": "TAMPINES INT",
			"START_BUS_STOP_NUM": "76199",
			"START_BUS_STOP_LATLNG": "1.35660016333768, 103.945354284321",
			"END_BUS_STOP_NUM": "75009",
			"END_BUS_STOP_LATLNG": "1.35407552367477, 103.943390984739",
			"DISTANCE": "21.5",
			"GEOMETRIES": "o~gGoylyRAtB?lB?ZpF?RCL?NFHNp@rB^QZSXE"
		}
	]
}