{
	"BUS_DIRECTION_ONE": [
		{
			"BUS_SEQUENCE": 1,
			"START_BUS_STOP": "BEDOK INTERCHANGE",
			"END_BUS_STOP": "OPP BEDOK CTRL PO",
			"START_BUS_STOP_NUM": "84009",
			"START_BUS_STOP_LATLNG": "1.32453874317344, 103.929038185158",
			"END_BUS_STOP_NUM": "84359",
			"END_BUS_STOP_LATLNG": "1.32788656713277, 103.933959616403",
			"DISTANCE": "0",
			"GEOMETRIES": "{taG_riyRcDn@My@OcAe@qA_@u@SGUAm@RwAf@s@mBy@{B]mA[sAYmBI_AKuBAaB?iAAI"
		},
		{
			"BUS_SEQUENCE": 2,
			"START_BUS_STOP": "OPP BEDOK CTRL PO",
			"END_BUS_STOP": "BLK 403",
			"START_BUS_STOP_NUM": "84359",
			"START_BUS_STOP_LATLNG": "1.32788656713277, 103.933959616403",
			"END_BUS_STOP_NUM": "84211",
			"END_BUS_STOP_LATLNG": "1.33004744658174, 103.934439697812",
			"DISTANCE": "0.9",
			"GEOMETRIES": "oibGirjyRGiBOcB_@FkD^}@JSB??A?G@E@??A?sAN_@DOB??A?"
		},
		{
			"BUS_SEQUENCE": 3,
			"START_BUS_STOP": "BLK 403",
			"END_BUS_STOP": "BLK 506",
			"START_BUS_STOP_NUM": "84211",
			"START_BUS_STOP_LATLNG": "1.33004744658174, 103.934439697812",
			"END_BUS_STOP_NUM": "84521",
			"END_BUS_STOP_LATLNG": "1.33230500002897, 103.933938055565",
			"DISTANCE": "1.2",
			"GEOMETRIES": "}wbGavjyRA?_AJE@E?YDsCZe@FWBwAPE?C@WBQB"
		},
		{
			"BUS_SEQUENCE": 4,
			"START_BUS_STOP": "BLK 506",
			"END_BUS_STOP": "BEDOK RESVR STN EXIT A",
			"START_BUS_STOP_NUM": "84521",
			"START_BUS_STOP_LATLNG": "1.33230500002897, 103.933938055565",
			"END_BUS_STOP_NUM": "84201",
			"END_BUS_STOP_LATLNG": "1.33660054449421, 103.933094011562",
			"DISTANCE": "1.5",
			"GEOMETRIES": "cfcGisjyRA?e@F]D}JfAg@FuAPM@M@cBRi@FoB\\"
		},
		{
			"BUS_SEQUENCE": 5,
			"START_BUS_STOP": "BEDOK RESVR STN EXIT A",
			"END_BUS_STOP": "WATERFRONT KEY",
			"START_BUS_STOP_NUM": "84201",
			"START_BUS_STOP_LATLNG": "1.33660054449421, 103.933094011562",
			"END_BUS_STOP_NUM": "84609",
			"END_BUS_STOP_LATLNG": "1.33791138898959, 103.931308055988",
			"DISTANCE": "2",
			"GEOMETRIES": "_adG{mjyRe@Ha@DwBTgALBZD`@NrAAl@En@Mn@Kd@AD"
		},
		{
			"BUS_SEQUENCE": 6,
			"START_BUS_STOP": "WATERFRONT KEY",
			"END_BUS_STOP": "AFT WATERFRONT WAVES",
			"START_BUS_STOP_NUM": "84609",
			"START_BUS_STOP_LATLNG": "1.33791138898959, 103.931308055988",
			"END_BUS_STOP_NUM": "84639",
			"END_BUS_STOP_LATLNG": "1.33857139776249, 103.92937717203",
			"DISTANCE": "2.3",
			"GEOMETRIES": "qidG{ajyROh@????GVERGTg@rBELk@zBEP???@A@"
		},
		{
			"BUS_SEQUENCE": 7,
			"START_BUS_STOP": "AFT WATERFRONT WAVES",
			"END_BUS_STOP": "WATERFRONT ISLE",
			"START_BUS_STOP_NUM": "84639",
			"START_BUS_STOP_LATLNG": "1.33857139776249, 103.92937717203",
			"END_BUS_STOP_NUM": "84619",
			"END_BUS_STOP_LATLNG": "1.33896501379939, 103.927466942758",
			"DISTANCE": "2.6",
			"GEOMETRIES": "ymdG{uiyR?Bu@vCOl@Mr@Ad@?@?JA^Dr@@B??"
		},
		{
			"BUS_SEQUENCE": 8,
			"START_BUS_STOP": "WATERFRONT ISLE",
			"END_BUS_STOP": "BLK 716",
			"START_BUS_STOP_NUM": "84619",
			"START_BUS_STOP_LATLNG": "1.33896501379939, 103.927466942758",
			"END_BUS_STOP_NUM": "84629",
			"END_BUS_STOP_LATLNG": "1.33815749250804, 103.925378727207",
			"DISTANCE": "2.8",
			"GEOMETRIES": "ipdGqiiyR?BLl@Tn@|@hCL\\Lf@HVLl@Jb@?F"
		},
		{
			"BUS_SEQUENCE": 9,
			"START_BUS_STOP": "BLK 716",
			"END_BUS_STOP": "BLK 713",
			"START_BUS_STOP_NUM": "84629",
			"START_BUS_STOP_LATLNG": "1.33815749250804, 103.925378727207",
			"END_BUS_STOP_NUM": "84479",
			"END_BUS_STOP_LATLNG": "1.33742106440195, 103.922531604786",
			"DISTANCE": "3.1",
			"GEOMETRIES": "gkdGm|hyRPpAVtB@LVlB@FBF@FDPRfAFTXhAN^@D"
		},
		{
			"BUS_SEQUENCE": 10,
			"START_BUS_STOP": "BLK 713",
			"END_BUS_STOP": "BLK 703",
			"START_BUS_STOP_NUM": "84479",
			"START_BUS_STOP_LATLNG": "1.33742106440195, 103.922531604786",
			"END_BUS_STOP_NUM": "84469",
			"END_BUS_STOP_LATLNG": "1.3375152915469, 103.919728346923",
			"DISTANCE": "3.4",
			"GEOMETRIES": "mfdGqjhyRLZd@v@?BDDTb@Nh@HbACj@Kj@IRc@nAm@pAMREF"
		},
		{
			"BUS_SEQUENCE": 11,
			"START_BUS_STOP": "BLK 703",
			"END_BUS_STOP": "AFT BEDOK IND PK C",
			"START_BUS_STOP_NUM": "84469",
			"START_BUS_STOP_LATLNG": "1.3375152915469, 103.919728346923",
			"END_BUS_STOP_NUM": "84481",
			"END_BUS_STOP_LATLNG": "1.33753167256034, 103.915328717434",
			"DISTANCE": "3.8",
			"GEOMETRIES": "cgdGwygyR??OT{@fAGFORQXUt@Gt@@LDh@@HDP@H@?BNBN@@?@@F@FFZB`@b@jF@D@HHb@j@pC?B"
		},
		{
			"BUS_SEQUENCE": 12,
			"START_BUS_STOP": "AFT BEDOK IND PK C",
			"END_BUS_STOP": "BLK 629",
			"START_BUS_STOP_NUM": "84481",
			"START_BUS_STOP_LATLNG": "1.33753167256034, 103.915328717434",
			"END_BUS_STOP_NUM": "84491",
			"END_BUS_STOP_LATLNG": "1.33463946695939, 103.914139400656",
			"DISTANCE": "4.4",
			"GEOMETRIES": "kgdGq}fyR@BNt@fCxGFRbC_ANGlAe@`@MVAl@???P?D@tADL???"
		},
		{
			"BUS_SEQUENCE": 13,
			"START_BUS_STOP": "BLK 629",
			"END_BUS_STOP": "CHRIST CH",
			"START_BUS_STOP_NUM": "84491",
			"START_BUS_STOP_LATLNG": "1.33463946695939, 103.914139400656",
			"END_BUS_STOP_NUM": "84501",
			"END_BUS_STOP_LATLNG": "1.33319499998844, 103.91598944401",
			"DISTANCE": "4.9",
			"GEOMETRIES": "ctcG_vfyRB?pALVB\\oCNcA@IHi@TkBJSHEVAd@H"
		},
		{
			"BUS_SEQUENCE": 14,
			"START_BUS_STOP": "CHRIST CH",
			"END_BUS_STOP": "BLK 608",
			"START_BUS_STOP_NUM": "84501",
			"START_BUS_STOP_LATLNG": "1.33319499998844, 103.91598944401",
			"END_BUS_STOP_NUM": "84511",
			"END_BUS_STOP_LATLNG": "1.33206972200071, 103.913294167023",
			"DISTANCE": "5.2",
			"GEOMETRIES": "qkcGsagyRLBf@HT@\\DTHRRd@nALZPb@t@rBFd@Ib@Ol@ABa@xA"
		},
		{
			"BUS_SEQUENCE": 15,
			"START_BUS_STOP": "BLK 608",
			"END_BUS_STOP": "BLK 140",
			"START_BUS_STOP_NUM": "84511",
			"START_BUS_STOP_LATLNG": "1.33206972200071, 103.913294167023",
			"END_BUS_STOP_NUM": "84499",
			"END_BUS_STOP_LATLNG": "1.33520779235718, 103.914015806026",
			"DISTANCE": "5.6",
			"GEOMETRIES": "wdcGeqfyR??GTWX{@\\M]k@y@]_@g@]sAk@mASWCqAMC???M?uAE"
		},
		{
			"BUS_SEQUENCE": 16,
			"START_BUS_STOP": "BLK 140",
			"END_BUS_STOP": "AFT BEDOK IND PK C",
			"START_BUS_STOP_NUM": "84499",
			"START_BUS_STOP_LATLNG": "1.33520779235718, 103.914015806026",
			"END_BUS_STOP_NUM": "84489",
			"END_BUS_STOP_LATLNG": "1.33804722197723, 103.916188332969",
			"DISTANCE": "6",
			"GEOMETRIES": "gwcGevfyREAQ???m@?W@a@LmAd@OFcC~@GSgCyGOu@AC?Ck@qCIc@"
		},
		{
			"BUS_SEQUENCE": 17,
			"START_BUS_STOP": "AFT BEDOK IND PK C",
			"END_BUS_STOP": "OPP BLK 701",
			"START_BUS_STOP_NUM": "84489",
			"START_BUS_STOP_LATLNG": "1.33804722197723, 103.916188332969",
			"END_BUS_STOP_NUM": "84461",
			"END_BUS_STOP_LATLNG": "1.33807138901241, 103.919390277981",
			"DISTANCE": "6.6",
			"GEOMETRIES": "aidGkcgyRAIAEc@kFCa@G[AGAG?AAACOCOA?AIEQAIEi@AMFu@Tu@PYNSFG"
		},
		{
			"BUS_SEQUENCE": 18,
			"START_BUS_STOP": "OPP BLK 701",
			"END_BUS_STOP": "BLK 745",
			"START_BUS_STOP_NUM": "84461",
			"START_BUS_STOP_LATLNG": "1.33807138901241, 103.919390277981",
			"END_BUS_STOP_NUM": "84471",
			"END_BUS_STOP_LATLNG": "1.3373330466218, 103.9219974516",
			"DISTANCE": "7",
			"GEOMETRIES": "oidGyvgyRz@gANU??DGLSl@qAb@oAHSJk@Bk@IcAOi@Uc@EE"
		},
		{
			"BUS_SEQUENCE": 19,
			"START_BUS_STOP": "BLK 745",
			"END_BUS_STOP": "OPP BLK 716",
			"START_BUS_STOP_NUM": "84471",
			"START_BUS_STOP_LATLNG": "1.3373330466218, 103.9219974516",
			"END_BUS_STOP_NUM": "84621",
			"END_BUS_STOP_LATLNG": "1.33831497804809, 103.92492045856",
			"DISTANCE": "7.4",
			"GEOMETRIES": "yddGyghyR?Ce@w@M[AEO_@YiAGUSgAEQAGCGAGWmBAMWuB"
		},
		{
			"BUS_SEQUENCE": 20,
			"START_BUS_STOP": "OPP BLK 716",
			"END_BUS_STOP": "OPP WATERFRONT ISLE",
			"START_BUS_STOP_NUM": "84621",
			"START_BUS_STOP_LATLNG": "1.33831497804809, 103.92492045856",
			"END_BUS_STOP_NUM": "84611",
			"END_BUS_STOP_LATLNG": "1.33922469822607, 103.92795482354",
			"DISTANCE": "7.8",
			"GEOMETRIES": "ujdG{yhyRQqA?GKc@Mm@IWMg@M]}@iCUo@Mm@?C??ACEs@@_@?K"
		},
		{
			"BUS_SEQUENCE": 21,
			"START_BUS_STOP": "OPP WATERFRONT ISLE",
			"END_BUS_STOP": "OPP WATERFRONT WAVES",
			"START_BUS_STOP_NUM": "84611",
			"START_BUS_STOP_LATLNG": "1.33922469822607, 103.92795482354",
			"END_BUS_STOP_NUM": "84631",
			"END_BUS_STOP_LATLNG": "1.33879275233871, 103.929482459692",
			"DISTANCE": "8.2",
			"GEOMETRIES": "opdGuliyR?A@e@Ls@Nm@t@wC?C@A?A??"
		},
		{
			"BUS_SEQUENCE": 22,
			"START_BUS_STOP": "OPP WATERFRONT WAVES",
			"END_BUS_STOP": "OPP WATERFRONT KEY",
			"START_BUS_STOP_NUM": "84631",
			"START_BUS_STOP_LATLNG": "1.33879275233871, 103.929482459692",
			"END_BUS_STOP_NUM": "84601",
			"END_BUS_STOP_LATLNG": "1.33820137485609, 103.931169666653",
			"DISTANCE": "8.4",
			"GEOMETRIES": "wmdG_viyRDQj@{BDMf@sBFUDSFW??"
		},
		{
			"BUS_SEQUENCE": 23,
			"START_BUS_STOP": "OPP WATERFRONT KEY",
			"END_BUS_STOP": "BEDOK RESVR STN EXIT B",
			"START_BUS_STOP_NUM": "84601",
			"START_BUS_STOP_LATLNG": "1.33820137485609, 103.931169666653",
			"END_BUS_STOP_NUM": "84209",
			"END_BUS_STOP_LATLNG": "1.33702513693776, 103.933335893061",
			"DISTANCE": "8.6",
			"GEOMETRIES": "ajdGq`jyR??Ni@@EJe@Lo@Do@@m@OsAEa@C[fAMvBU"
		},
		{
			"BUS_SEQUENCE": 24,
			"START_BUS_STOP": "BEDOK RESVR STN EXIT B",
			"END_BUS_STOP": "BLK 109",
			"START_BUS_STOP_NUM": "84209",
			"START_BUS_STOP_LATLNG": "1.33702513693776, 103.933335893061",
			"END_BUS_STOP_NUM": "84529",
			"END_BUS_STOP_LATLNG": "1.33213305553955, 103.934313055552",
			"DISTANCE": "8.9",
			"GEOMETRIES": "gcdGkmjyR`@Ed@InB]h@GbBSLALAtAQf@G|JgA\\Ed@G@?PCVCBA"
		},
		{
			"BUS_SEQUENCE": 25,
			"START_BUS_STOP": "BLK 109",
			"END_BUS_STOP": "BET BLKS 139/140",
			"START_BUS_STOP_NUM": "84529",
			"START_BUS_STOP_LATLNG": "1.33213305553955, 103.934313055552",
			"END_BUS_STOP_NUM": "84219",
			"END_BUS_STOP_LATLNG": "1.32940888887166, 103.934813055573",
			"DISTANCE": "9.4",
			"GEOMETRIES": "udcGssjyRD?vAQVCd@GrC[XED?DA~@K@?@???NC^ErAO@???"
		},
		{
			"BUS_SEQUENCE": 26,
			"START_BUS_STOP": "BET BLKS 139/140",
			"END_BUS_STOP": "BEDOK CTRL PO",
			"START_BUS_STOP_NUM": "84219",
			"START_BUS_STOP_LATLNG": "1.32940888887166, 103.934813055573",
			"END_BUS_STOP_NUM": "84351",
			"END_BUS_STOP_LATLNG": "1.32766562447954, 103.934096751529",
			"DISTANCE": "9.7",
			"GEOMETRIES": "usbG{vjyRDAFA@???RC|@KjD_@^GNbBDpA"
		},
		{
			"BUS_SEQUENCE": 27,
			"START_BUS_STOP": "BEDOK CTRL PO",
			"END_BUS_STOP": "BEDOK INTERCHANGE",
			"START_BUS_STOP_NUM": "84351",
			"START_BUS_STOP_LATLNG": "1.32766562447954, 103.934096751529",
			"END_BUS_STOP_NUM": "84009",
			"END_BUS_STOP_LATLNG": "1.32453874317344, 103.929038185158",
			"DISTANCE": "10",
			"GEOMETRIES": "qibGasjyRB`@?hA@`BJtBH~@XlBZrA\\lAx@zBr@lBvAg@??l@ST@RF^t@`Ei@"
		}
	]
}