{
	"BUS_DIRECTION_ONE": [
		{
			"BUS_SEQUENCE": 1,
			"START_BUS_STOP": "ANG MO KIO INT",
			"END_BUS_STOP": "AFT ANG MO KIO STN EXIT A",
			"START_BUS_STOP_NUM": "54009",
			"START_BUS_STOP_LATLNG": "1.3696876991333904, 103.84856716193268",
			"END_BUS_STOP_NUM": "54261",
			"END_BUS_STOP_LATLNG": "1.3694545475093025, 103.8508140314999",
			"DISTANCE": "0.4",
			"GEOMETRIES": [
				[
					103.8485,
					1.36983
				],
				[
					103.84886,
					1.36991
				],
				[
					103.84914,
					1.37007
				],
				[
					103.84947,
					1.36947
				],
				[
					103.84954,
					1.36935
				],
				[
					103.84963,
					1.36919
				],
				[
					103.84964,
					1.36917
				],
				[
					103.84972,
					1.36902
				],
				[
					103.8498,
					1.36904
				],
				[
					103.8508,
					1.3693
				]
			],
			"roadName": "ANG MO KIO INT"
		},
		{
			"BUS_SEQUENCE": 2,
			"START_BUS_STOP": "AFT ANG MO KIO STN EXIT A",
			"END_BUS_STOP": "BLK 586",
			"START_BUS_STOP_NUM": "54261",
			"START_BUS_STOP_LATLNG": "1.3694545475093025, 103.8508140314999",
			"END_BUS_STOP_NUM": "54271",
			"END_BUS_STOP_LATLNG": "1.369963267810561, 103.85356664655986",
			"DISTANCE": "0.4",
			"GEOMETRIES": [
				[
					103.8508,
					1.3693
				],
				[
					103.85083,
					1.36931
				],
				[
					103.85108,
					1.36938
				],
				[
					103.85217,
					1.36966
				],
				[
					103.8527,
					1.3698
				],
				[
					103.85322,
					1.36986
				],
				[
					103.85353,
					1.36986
				],
				[
					103.85357,
					1.36986
				]
			],
			"roadName": "AFT ANG MO KIO STN EXIT A"
		},
		{
			"BUS_SEQUENCE": 3,
			"START_BUS_STOP": "BLK 586",
			"END_BUS_STOP": "BLK 570",
			"START_BUS_STOP_NUM": "54271",
			"START_BUS_STOP_LATLNG": "1.369963267810561, 103.85356664655986",
			"END_BUS_STOP_NUM": "54281",
			"END_BUS_STOP_LATLNG": "1.3694902568174034, 103.85601277845505",
			"DISTANCE": "0.7",
			"GEOMETRIES": [
				[
					103.85357,
					1.36986
				],
				[
					103.85374,
					1.36986
				],
				[
					103.85406,
					1.36983
				],
				[
					103.85409,
					1.36982
				],
				[
					103.85543,
					1.36947
				],
				[
					103.85597,
					1.36932
				]
			],
			"roadName": "BLK 586"
		},
		{
			"BUS_SEQUENCE": 4,
			"START_BUS_STOP": "BLK 570",
			"END_BUS_STOP": "BLK 465",
			"START_BUS_STOP_NUM": "54281",
			"START_BUS_STOP_LATLNG": "1.3694902568174034, 103.85601277845505",
			"END_BUS_STOP_NUM": "54389",
			"END_BUS_STOP_LATLNG": "1.3663897361478605, 103.85660537812753",
			"DISTANCE": "1",
			"GEOMETRIES": [
				[
					103.85597,
					1.36932
				],
				[
					103.85619,
					1.36926
				],
				[
					103.85646,
					1.36919
				],
				[
					103.85659,
					1.36916
				],
				[
					103.85673,
					1.36913
				],
				[
					103.85683,
					1.36911
				],
				[
					103.85683,
					1.36903
				],
				[
					103.85683,
					1.36882
				],
				[
					103.85683,
					1.36824
				],
				[
					103.8568,
					1.36783
				],
				[
					103.85673,
					1.36731
				],
				[
					103.85665,
					1.36696
				],
				[
					103.85649,
					1.36643
				]
			],
			"roadName": "BLK 570"
		},
		{
			"BUS_SEQUENCE": 5,
			"START_BUS_STOP": "BLK 465",
			"END_BUS_STOP": "BLK 475",
			"START_BUS_STOP_NUM": "54389",
			"START_BUS_STOP_LATLNG": "1.3663897361478605, 103.85660537812753",
			"END_BUS_STOP_NUM": "54379",
			"END_BUS_STOP_LATLNG": "1.3628899890435273, 103.85594804936484",
			"DISTANCE": "1.5",
			"GEOMETRIES": [
				[
					103.85649,
					1.36643
				],
				[
					103.8562,
					1.3657
				],
				[
					103.85609,
					1.36541
				],
				[
					103.85598,
					1.36504
				],
				[
					103.85586,
					1.36444
				],
				[
					103.85583,
					1.36398
				],
				[
					103.85583,
					1.36387
				],
				[
					103.85583,
					1.36304
				],
				[
					103.85582,
					1.36289
				]
			],
			"roadName": "BLK 465"
		},
		{
			"BUS_SEQUENCE": 6,
			"START_BUS_STOP": "BLK 475",
			"END_BUS_STOP": "OPP TOWNSVILLE PR SCH",
			"START_BUS_STOP_NUM": "54379",
			"START_BUS_STOP_LATLNG": "1.3628899890435273, 103.85594804936484",
			"END_BUS_STOP_NUM": "54609",
			"END_BUS_STOP_LATLNG": "1.3593577779887025, 103.85529250000319",
			"DISTANCE": "1.9",
			"GEOMETRIES": [
				[
					103.85582,
					1.36289
				],
				[
					103.85582,
					1.36286
				],
				[
					103.85582,
					1.36238
				],
				[
					103.85582,
					1.36238
				],
				[
					103.85582,
					1.36238
				],
				[
					103.85582,
					1.3619
				],
				[
					103.85582,
					1.36136
				],
				[
					103.85582,
					1.36089
				],
				[
					103.85579,
					1.36066
				],
				[
					103.85578,
					1.36058
				],
				[
					103.8557,
					1.36027
				],
				[
					103.85557,
					1.35994
				],
				[
					103.85544,
					1.3597
				],
				[
					103.85526,
					1.35945
				],
				[
					103.85523,
					1.35942
				],
				[
					103.85523,
					1.35942
				]
			],
			"roadName": "BLK 475"
		},
		{
			"BUS_SEQUENCE": 7,
			"START_BUS_STOP": "OPP TOWNSVILLE PR SCH",
			"END_BUS_STOP": "OPP BLK 4025",
			"START_BUS_STOP_NUM": "54609",
			"START_BUS_STOP_LATLNG": "1.3593577779887025, 103.85529250000319",
			"END_BUS_STOP_NUM": "54369",
			"END_BUS_STOP_LATLNG": "1.3587463889880187, 103.85588277797046",
			"DISTANCE": "2.3",
			"GEOMETRIES": [
				[
					103.85523,
					1.35942
				],
				[
					103.85504,
					1.35922
				],
				[
					103.85486,
					1.35906
				],
				[
					103.85514,
					1.35852
				],
				[
					103.8552,
					1.3584
				],
				[
					103.85551,
					1.35779
				],
				[
					103.8557,
					1.35794
				],
				[
					103.85572,
					1.35801
				],
				[
					103.85591,
					1.35853
				],
				[
					103.85597,
					1.35871
				]
			],
			"roadName": "OPP TOWNSVILLE PR SCH"
		},
		{
			"BUS_SEQUENCE": 8,
			"START_BUS_STOP": "OPP BLK 4025",
			"END_BUS_STOP": "BLK 409 MKT/FC",
			"START_BUS_STOP_NUM": "54369",
			"START_BUS_STOP_LATLNG": "1.3587463889880187, 103.85588277797046",
			"END_BUS_STOP_NUM": "54371",
			"END_BUS_STOP_LATLNG": "1.3623830628996754, 103.85568284134347",
			"DISTANCE": "2.6",
			"GEOMETRIES": [
				[
					103.85597,
					1.35871
				],
				[
					103.85599,
					1.35875
				],
				[
					103.85614,
					1.35916
				],
				[
					103.85633,
					1.35966
				],
				[
					103.85557,
					1.35994
				],
				[
					103.8557,
					1.36027
				],
				[
					103.85578,
					1.36058
				],
				[
					103.85579,
					1.36066
				],
				[
					103.85582,
					1.36089
				],
				[
					103.85582,
					1.36136
				],
				[
					103.85582,
					1.3619
				],
				[
					103.85582,
					1.36238
				],
				[
					103.85582,
					1.36238
				]
			],
			"roadName": "OPP BLK 4025"
		},
		{
			"BUS_SEQUENCE": 9,
			"START_BUS_STOP": "BLK 409 MKT/FC",
			"END_BUS_STOP": "BLK 443",
			"START_BUS_STOP_NUM": "54371",
			"START_BUS_STOP_LATLNG": "1.3623830628996754, 103.85568284134347",
			"END_BUS_STOP_NUM": "54381",
			"END_BUS_STOP_LATLNG": "1.3657416739058963, 103.85608617430735",
			"DISTANCE": "3",
			"GEOMETRIES": [
				[
					103.85582,
					1.36238
				],
				[
					103.85582,
					1.36243
				],
				[
					103.85582,
					1.36289
				],
				[
					103.85583,
					1.36304
				],
				[
					103.85583,
					1.36387
				],
				[
					103.85583,
					1.36398
				],
				[
					103.85586,
					1.36444
				],
				[
					103.85598,
					1.36504
				],
				[
					103.85609,
					1.36541
				],
				[
					103.8562,
					1.3657
				]
			],
			"roadName": "BLK 409A"
		},
		{
			"BUS_SEQUENCE": 10,
			"START_BUS_STOP": "BLK 443",
			"END_BUS_STOP": "BLK 452",
			"START_BUS_STOP_NUM": "54381",
			"START_BUS_STOP_LATLNG": "1.3657416739058963, 103.85608617430735",
			"END_BUS_STOP_NUM": "54289",
			"END_BUS_STOP_LATLNG": "1.3691482420650523, 103.85598817378518",
			"DISTANCE": "3.4",
			"GEOMETRIES": [
				[
					103.8562,
					1.3657
				],
				[
					103.85649,
					1.36643
				],
				[
					103.85665,
					1.36696
				],
				[
					103.85673,
					1.36731
				],
				[
					103.8568,
					1.36783
				],
				[
					103.85683,
					1.36824
				],
				[
					103.85683,
					1.36882
				],
				[
					103.85683,
					1.36903
				],
				[
					103.85683,
					1.36911
				],
				[
					103.85673,
					1.36913
				],
				[
					103.85659,
					1.36916
				],
				[
					103.85646,
					1.36919
				],
				[
					103.85621,
					1.36926
				],
				[
					103.85619,
					1.36926
				]
			],
			"roadName": "BLK 443"
		},
		{
			"BUS_SEQUENCE": 11,
			"START_BUS_STOP": "BLK 452",
			"END_BUS_STOP": "BLK 427",
			"START_BUS_STOP_NUM": "54289",
			"START_BUS_STOP_LATLNG": "1.3691482420650523, 103.85598817378518",
			"END_BUS_STOP_NUM": "54279",
			"END_BUS_STOP_LATLNG": "1.3696891903342865, 103.85404760550173",
			"DISTANCE": "3.9",
			"GEOMETRIES": [
				[
					103.85619,
					1.36926
				],
				[
					103.85597,
					1.36932
				],
				[
					103.85543,
					1.36947
				],
				[
					103.85409,
					1.36982
				],
				[
					103.85406,
					1.36983
				]
			],
			"roadName": "BLK 452"
		},
		{
			"BUS_SEQUENCE": 12,
			"START_BUS_STOP": "BLK 427",
			"END_BUS_STOP": "OPP ANG MO KIO STN",
			"START_BUS_STOP_NUM": "54279",
			"START_BUS_STOP_LATLNG": "1.3696891903342865, 103.85404760550173",
			"END_BUS_STOP_NUM": "54269",
			"END_BUS_STOP_LATLNG": "1.3692963209038258, 103.8511100127193",
			"DISTANCE": "4.2",
			"GEOMETRIES": [
				[
					103.85406,
					1.36983
				],
				[
					103.85402,
					1.36983
				],
				[
					103.85374,
					1.36986
				],
				[
					103.85357,
					1.36986
				],
				[
					103.85322,
					1.36986
				],
				[
					103.8527,
					1.3698
				],
				[
					103.85217,
					1.36966
				],
				[
					103.85108,
					1.36938
				]
			],
			"roadName": "BLK 427"
		},
		{
			"BUS_SEQUENCE": 13,
			"START_BUS_STOP": "OPP ANG MO KIO STN",
			"END_BUS_STOP": "ANG MO KIO INT",
			"START_BUS_STOP_NUM": "54269",
			"START_BUS_STOP_LATLNG": "1.3692963209038258, 103.8511100127193",
			"END_BUS_STOP_NUM": "54009",
			"END_BUS_STOP_LATLNG": "1.3696876991333904, 103.84856716193268",
			"DISTANCE": "4.5",
			"GEOMETRIES": [
				[
					103.85108,
					1.36938
				],
				[
					103.85104,
					1.36937
				],
				[
					103.84972,
					1.36902
				],
				[
					103.84954,
					1.36935
				],
				[
					103.84914,
					1.37007
				],
				[
					103.84886,
					1.36991
				],
				[
					103.8485,
					1.36983
				]
			],
			"roadName": "OPP ANG MO KIO STN"
		}
	],
	"BUS_DIRECTION_TWO": null
}