{
	"BUS_DIRECTION_ONE": [
		{
			"BUS_SEQUENCE": 1,
			"START_BUS_STOP": "ANG MO KIO INT",
			"END_BUS_STOP": "AFT ANG MO KIO STN EXIT A",
			"START_BUS_STOP_NUM": "54009",
			"START_BUS_STOP_LATLNG": "1.36968769913339, 103.848567161933",
			"END_BUS_STOP_NUM": "54261",
			"END_BUS_STOP_LATLNG": "1.3694545475093, 103.8508140315",
			"DISTANCE": "0.4",
			"GEOMETRIES": "mpjGc|yxROgA_@w@vBaAVM^QBA\\OCOs@gE"
		},
		{
			"BUS_SEQUENCE": 2,
			"START_BUS_STOP": "AFT ANG MO KIO STN EXIT A",
			"END_BUS_STOP": "BLK 586",
			"START_BUS_STOP_NUM": "54261",
			"START_BUS_STOP_LATLNG": "1.3694545475093, 103.8508140315",
			"END_BUS_STOP_NUM": "54271",
			"END_BUS_STOP_LATLNG": "1.36996326781056, 103.85356664656",
			"DISTANCE": "0.4",
			"GEOMETRIES": "cmjGojzxRAEMq@w@yE[iBKgB?}@?G"
		},
		{
			"BUS_SEQUENCE": 3,
			"START_BUS_STOP": "BLK 586",
			"END_BUS_STOP": "BLK 570",
			"START_BUS_STOP_NUM": "54271",
			"START_BUS_STOP_LATLNG": "1.36996326781056, 103.85356664656",
			"END_BUS_STOP_NUM": "54281",
			"END_BUS_STOP_LATLNG": "1.3694902568174, 103.856012778455",
			"DISTANCE": "0.7",
			"GEOMETRIES": "spjGy{zxR?a@D_A@EdAkG\\kB"
		},
		{
			"BUS_SEQUENCE": 4,
			"START_BUS_STOP": "BLK 570",
			"END_BUS_STOP": "BLK 465",
			"START_BUS_STOP_NUM": "54281",
			"START_BUS_STOP_LATLNG": "1.3694902568174, 103.856012778455",
			"END_BUS_STOP_NUM": "54389",
			"END_BUS_STOP_LATLNG": "1.36638973614786, 103.856605378128",
			"DISTANCE": "1",
			"GEOMETRIES": "gmjGyj{xRJk@Lu@DYD[BSN?h@?rB?pADfBLdANhB^"
		},
		{
			"BUS_SEQUENCE": 5,
			"START_BUS_STOP": "BLK 465",
			"END_BUS_STOP": "BLK 475",
			"START_BUS_STOP_NUM": "54389",
			"START_BUS_STOP_LATLNG": "1.36638973614786, 103.856605378128",
			"END_BUS_STOP_NUM": "54379",
			"END_BUS_STOP_LATLNG": "1.36288998904353, 103.855948049365",
			"DISTANCE": "1.5",
			"GEOMETRIES": "e{iGan{xRpCx@x@ThATvBVzADT?dD?\\@"
		},
		{
			"BUS_SEQUENCE": 6,
			"START_BUS_STOP": "BLK 475",
			"END_BUS_STOP": "OPP TOWNSVILLE PR SCH",
			"START_BUS_STOP_NUM": "54379",
			"START_BUS_STOP_LATLNG": "1.36288998904353, 103.855948049365",
			"END_BUS_STOP_NUM": "54609",
			"END_BUS_STOP_LATLNG": "1.3593577779887, 103.855292500003",
			"DISTANCE": "1.9",
			"GEOMETRIES": "aeiG{i{xRD?~A?????~A?jB?|A?l@DN@|@N`AXn@Xp@b@DD??"
		},
		{
			"BUS_SEQUENCE": 7,
			"START_BUS_STOP": "OPP TOWNSVILLE PR SCH",
			"END_BUS_STOP": "OPP BLK 4025",
			"START_BUS_STOP_NUM": "54609",
			"START_BUS_STOP_LATLNG": "1.3593577779887, 103.855292500003",
			"END_BUS_STOP_NUM": "54369",
			"END_BUS_STOP_LATLNG": "1.35874638898802, 103.85588277797",
			"DISTANCE": "2.3",
			"GEOMETRIES": "kohGef{xRf@d@^b@jBw@VKxB}@]e@MCgBe@c@K"
		},
		{
			"BUS_SEQUENCE": 8,
			"START_BUS_STOP": "OPP BLK 4025",
			"END_BUS_STOP": "BLK 409A",
			"START_BUS_STOP_NUM": "54369",
			"START_BUS_STOP_LATLNG": "1.35874638898802, 103.85588277797",
			"END_BUS_STOP_NUM": "54371",
			"END_BUS_STOP_LATLNG": "1.36238306289968, 103.855682841343",
			"DISTANCE": "2.6",
			"GEOMETRIES": "}jhGyj{xRGCqA]cBe@w@vCaAY}@OOAm@E}A?kB?_B???"
		},
		{
			"BUS_SEQUENCE": 9,
			"START_BUS_STOP": "BLK 409A",
			"END_BUS_STOP": "BLK 443",
			"START_BUS_STOP_NUM": "54371",
			"START_BUS_STOP_LATLNG": "1.36238306289968, 103.855682841343",
			"END_BUS_STOP_NUM": "54381",
			"END_BUS_STOP_LATLNG": "1.3657416739059, 103.856086174307",
			"DISTANCE": "3",
			"GEOMETRIES": "{aiG{i{xRI?{A?]AeD?U?{AEwBWiAUy@U"
		},
		{
			"BUS_SEQUENCE": 10,
			"START_BUS_STOP": "BLK 443",
			"END_BUS_STOP": "BLK 452",
			"START_BUS_STOP_NUM": "54381",
			"START_BUS_STOP_LATLNG": "1.3657416739059, 103.856086174307",
			"END_BUS_STOP_NUM": "54289",
			"END_BUS_STOP_LATLNG": "1.36919821072422, 103.855912506898",
			"DISTANCE": "3.4",
			"GEOMETRIES": "sviGgl{xRqCy@iB_@eAOgBMqAEsB?i@?O?CREZEXMp@?B"
		},
		{
			"BUS_SEQUENCE": 11,
			"START_BUS_STOP": "BLK 452",
			"END_BUS_STOP": "BLK 427",
			"START_BUS_STOP_NUM": "54289",
			"START_BUS_STOP_LATLNG": "1.36919821072422, 103.855912506898",
			"END_BUS_STOP_NUM": "54279",
			"END_BUS_STOP_LATLNG": "1.36968919033429, 103.854047605502",
			"DISTANCE": "3.9",
			"GEOMETRIES": "{ljGel{xRKj@]jBeAjGAD"
		},
		{
			"BUS_SEQUENCE": 12,
			"START_BUS_STOP": "BLK 427",
			"END_BUS_STOP": "OPP ANG MO KIO STN",
			"START_BUS_STOP_NUM": "54279",
			"START_BUS_STOP_LATLNG": "1.36968919033429, 103.854047605502",
			"END_BUS_STOP_NUM": "54269",
			"END_BUS_STOP_LATLNG": "1.36929632090383, 103.851110012719",
			"DISTANCE": "4.2",
			"GEOMETRIES": "mpjG{~zxR?FEv@?`@?dAJfBZhBv@xE"
		},
		{
			"BUS_SEQUENCE": 13,
			"START_BUS_STOP": "OPP ANG MO KIO STN",
			"END_BUS_STOP": "ANG MO KIO INT",
			"START_BUS_STOP_NUM": "54269",
			"START_BUS_STOP_LATLNG": "1.36929632090383, 103.851110012719",
			"END_BUS_STOP_NUM": "54009",
			"END_BUS_STOP_LATLNG": "1.36968769913339, 103.848567161933",
			"DISTANCE": "4.5",
			"GEOMETRIES": "smjGglzxR@FdAfGaAb@oCnA^v@NfA"
		}
	]
}