{
	"BUS_DIRECTION_ONE": [
		{
			"BUS_SEQUENCE": 1,
			"START_BUS_STOP": "ANG MO KIO INT",
			"END_BUS_STOP": "AFT ANG MO KIO STN EXIT A",
			"START_BUS_STOP_NUM": "54009",
			"START_BUS_STOP_LATLNG": "1.3696876991333904, 103.84856716193268",
			"END_BUS_STOP_NUM": "54261",
			"END_BUS_STOP_LATLNG": "1.3694545475093025, 103.8508140314999",
			"DISTANCE": "0.4",
			"GEOMETRIES": "mpjGc|yxROgA_@w@vBaAVM^QBA\\OCOs@gE"
		},
		{
			"BUS_SEQUENCE": 2,
			"START_BUS_STOP": "AFT ANG MO KIO STN EXIT A",
			"END_BUS_STOP": "BLK 586",
			"START_BUS_STOP_NUM": "54261",
			"START_BUS_STOP_LATLNG": "1.3694545475093025, 103.8508140314999",
			"END_BUS_STOP_NUM": "54271",
			"END_BUS_STOP_LATLNG": "1.369963267810561, 103.85356664655986",
			"DISTANCE": "0.4",
			"GEOMETRIES": "cmjGojzxRAEMq@w@yE[iBKgB?}@?G"
		},
		{
			"BUS_SEQUENCE": 3,
			"START_BUS_STOP": "BLK 586",
			"END_BUS_STOP": "BLK 570",
			"START_BUS_STOP_NUM": "54271",
			"START_BUS_STOP_LATLNG": "1.369963267810561, 103.85356664655986",
			"END_BUS_STOP_NUM": "54281",
			"END_BUS_STOP_LATLNG": "1.3694902568174034, 103.85601277845505",
			"DISTANCE": "0.7",
			"GEOMETRIES": "spjGy{zxR?a@D_A@EdAkG\\kB"
		},
		{
			"BUS_SEQUENCE": 4,
			"START_BUS_STOP": "BLK 570",
			"END_BUS_STOP": "BLK 465",
			"START_BUS_STOP_NUM": "54281",
			"START_BUS_STOP_LATLNG": "1.3694902568174034, 103.85601277845505",
			"END_BUS_STOP_NUM": "54389",
			"END_BUS_STOP_LATLNG": "1.3663897361478605, 103.85660537812753",
			"DISTANCE": "1",
			"GEOMETRIES": "gmjGyj{xRJk@Lu@DYD[BSN?h@?rB?pADfBLdANhB^"
		},
		{
			"BUS_SEQUENCE": 5,
			"START_BUS_STOP": "BLK 465",
			"END_BUS_STOP": "BLK 475",
			"START_BUS_STOP_NUM": "54389",
			"START_BUS_STOP_LATLNG": "1.3663897361478605, 103.85660537812753",
			"END_BUS_STOP_NUM": "54379",
			"END_BUS_STOP_LATLNG": "1.3628899890435273, 103.85594804936484",
			"DISTANCE": "1.5",
			"GEOMETRIES": "e{iGan{xRpCx@x@ThATvBVzADT?dD?\\@"
		},
		{
			"BUS_SEQUENCE": 6,
			"START_BUS_STOP": "BLK 475",
			"END_BUS_STOP": "OPP TOWNSVILLE PR SCH",
			"START_BUS_STOP_NUM": "54379",
			"START_BUS_STOP_LATLNG": "1.3628899890435273, 103.85594804936484",
			"END_BUS_STOP_NUM": "54609",
			"END_BUS_STOP_LATLNG": "1.359294998827719, 103.85520694653509",
			"DISTANCE": "1.9",
			"GEOMETRIES": "aeiG{i{xRD?~A?????~A?jB?|A?l@DN@|@N`AXn@Xp@b@DD??"
		},
		{
			"BUS_SEQUENCE": 7,
			"START_BUS_STOP": "OPP TOWNSVILLE PR SCH",
			"END_BUS_STOP": "OPP BLK 4025",
			"START_BUS_STOP_NUM": "54609",
			"START_BUS_STOP_LATLNG": "1.359294998827719, 103.85520694653509",
			"END_BUS_STOP_NUM": "54369",
			"END_BUS_STOP_LATLNG": "1.3587463889880187, 103.85588277797046",
			"DISTANCE": "2.3",
			"GEOMETRIES": "kohGef{xRf@d@^b@jBw@VKxB}@]e@MCgBe@c@K"
		},
		{
			"BUS_SEQUENCE": 8,
			"START_BUS_STOP": "OPP BLK 4025",
			"END_BUS_STOP": "BLK 409 MKT/FC",
			"START_BUS_STOP_NUM": "54369",
			"START_BUS_STOP_LATLNG": "1.3587463889880187, 103.85588277797046",
			"END_BUS_STOP_NUM": "54371",
			"END_BUS_STOP_LATLNG": "1.3623830628996754, 103.85568284134347",
			"DISTANCE": "2.6",
			"GEOMETRIES": "}jhGyj{xRGCqA]cBe@w@vCaAY}@OOAm@E}A?kB?_B???"
		},
		{
			"BUS_SEQUENCE": 9,
			"START_BUS_STOP": "BLK 409 MKT/FC",
			"END_BUS_STOP": "BLK 443",
			"START_BUS_STOP_NUM": "54371",
			"START_BUS_STOP_LATLNG": "1.3623830628996754, 103.85568284134347",
			"END_BUS_STOP_NUM": "54381",
			"END_BUS_STOP_LATLNG": "1.3657416739058963, 103.85608617430735",
			"DISTANCE": "3",
			"GEOMETRIES": "{aiG{i{xRI?{A?]AeD?U?{AEwBWiAUy@U"
		},
		{
			"BUS_SEQUENCE": 10,
			"START_BUS_STOP": "BLK 443",
			"END_BUS_STOP": "BLK 452",
			"START_BUS_STOP_NUM": "54381",
			"START_BUS_STOP_LATLNG": "1.3657416739058963, 103.85608617430735",
			"END_BUS_STOP_NUM": "54289",
			"END_BUS_STOP_LATLNG": "1.3691482420650523, 103.85598817378518",
			"DISTANCE": "3.4",
			"GEOMETRIES": "sviGgl{xRqCy@iB_@eAOgBMqAEsB?i@?O?CREZEXMp@?B"
		},
		{
			"BUS_SEQUENCE": 11,
			"START_BUS_STOP": "BLK 452",
			"END_BUS_STOP": "BLK 427",
			"START_BUS_STOP_NUM": "54289",
			"START_BUS_STOP_LATLNG": "1.3691482420650523, 103.85598817378518",
			"END_BUS_STOP_NUM": "54279",
			"END_BUS_STOP_LATLNG": "1.3696891903342865, 103.85404760550173",
			"DISTANCE": "3.9",
			"GEOMETRIES": "{ljGel{xRKj@]jBeAjGAD"
		},
		{
			"BUS_SEQUENCE": 12,
			"START_BUS_STOP": "BLK 427",
			"END_BUS_STOP": "OPP ANG MO KIO STN",
			"START_BUS_STOP_NUM": "54279",
			"START_BUS_STOP_LATLNG": "1.3696891903342865, 103.85404760550173",
			"END_BUS_STOP_NUM": "54269",
			"END_BUS_STOP_LATLNG": "1.3692963209038258, 103.8511100127193",
			"DISTANCE": "4.2",
			"GEOMETRIES": "mpjG{~zxR?FEv@?`@?dAJfBZhBv@xE"
		},
		{
			"BUS_SEQUENCE": 13,
			"START_BUS_STOP": "OPP ANG MO KIO STN",
			"END_BUS_STOP": "ANG MO KIO INT",
			"START_BUS_STOP_NUM": "54269",
			"START_BUS_STOP_LATLNG": "1.3692963209038258, 103.8511100127193",
			"END_BUS_STOP_NUM": "54009",
			"END_BUS_STOP_LATLNG": "1.3696876991333904, 103.84856716193268",
			"DISTANCE": "4.5",
			"GEOMETRIES": "smjGglzxR@FdAfGaAb@oCnA^v@NfA"
		}
	]
}