{
	"BUS_DIRECTION_ONE": [
		{
			"BUS_SEQUENCE": 1,
			"START_BUS_STOP": "OPP ANG MO KIO STN",
			"END_BUS_STOP": "BLK 324",
			"START_BUS_STOP_NUM": "54269",
			"START_BUS_STOP_LATLNG": "1.36929632090383, 103.851110012719",
			"END_BUS_STOP_NUM": "54248",
			"END_BUS_STOP_LATLNG": "1.36875490594243, 103.846610069673",
			"DISTANCE": "0",
			"GEOMETRIES": "smjGilzxRbA`GBNHd@Hh@PpAHrBAVAr@WzECd@?D"
		},
		{
			"BUS_SEQUENCE": 2,
			"START_BUS_STOP": "BLK 324",
			"END_BUS_STOP": "BLK 209",
			"START_BUS_STOP_NUM": "54248",
			"START_BUS_STOP_LATLNG": "1.36875490594243, 103.846610069673",
			"END_BUS_STOP_NUM": "54239",
			"END_BUS_STOP_LATLNG": "1.369186093503, 103.843320155763",
			"DISTANCE": "0.4",
			"GEOMETRIES": "{jjGmpyxR??UtDC\\C^AVG|@UpDATAPMlB"
		},
		{
			"BUS_SEQUENCE": 3,
			"START_BUS_STOP": "BLK 209",
			"END_BUS_STOP": "ANG MO KIO PR SCH",
			"START_BUS_STOP_NUM": "54239",
			"START_BUS_STOP_LATLNG": "1.369186093503, 103.843320155763",
			"END_BUS_STOP_NUM": "54229",
			"END_BUS_STOP_LATLNG": "1.36960577947339, 103.839932748275",
			"DISTANCE": "0.8",
			"GEOMETRIES": "kmjG{{xxRMlBAPAPi@pIAPARQzC"
		},
		{
			"BUS_SEQUENCE": 4,
			"START_BUS_STOP": "ANG MO KIO PR SCH",
			"END_BUS_STOP": "BLK 258",
			"START_BUS_STOP_NUM": "54229",
			"START_BUS_STOP_LATLNG": "1.36960577947339, 103.839932748275",
			"END_BUS_STOP_NUM": "54181",
			"END_BUS_STOP_LATLNG": "1.37053305192374, 103.836534956028",
			"DISTANCE": "1.2",
			"GEOMETRIES": "}ojGufxxRA@IzAEj@Cz@?L?NBdALfA`@|A^t@LTMHuBfAu@Vs@L"
		},
		{
			"BUS_SEQUENCE": 5,
			"START_BUS_STOP": "BLK 258",
			"END_BUS_STOP": "BLK 170",
			"START_BUS_STOP_NUM": "54181",
			"START_BUS_STOP_LATLNG": "1.37053305192374, 103.836534956028",
			"END_BUS_STOP_NUM": "54191",
			"END_BUS_STOP_LATLNG": "1.37447193336668, 103.837564047762",
			"DISTANCE": "1.7",
			"GEOMETRIES": "_ujGarwxRa@Hi@BS@a@@g@CcAK??OEOCkFoAu@QUG}A_@gA]YQ"
		},
		{
			"BUS_SEQUENCE": 6,
			"START_BUS_STOP": "BLK 170",
			"END_BUS_STOP": "AFT BLK 648",
			"START_BUS_STOP_NUM": "54191",
			"START_BUS_STOP_LATLNG": "1.37447193336668, 103.837564047762",
			"END_BUS_STOP_NUM": "54201",
			"END_BUS_STOP_LATLNG": "1.37608498575075, 103.839276142393",
			"DISTANCE": "2.1",
			"GEOMETRIES": "emkGcxwxRMI][GIYc@y@oAGIGKc@s@UYOQ][a@Ua@M"
		},
		{
			"BUS_SEQUENCE": 7,
			"START_BUS_STOP": "AFT BLK 648",
			"END_BUS_STOP": "BLK 612",
			"START_BUS_STOP_NUM": "54201",
			"START_BUS_STOP_LATLNG": "1.37608498575075, 103.839276142393",
			"END_BUS_STOP_NUM": "55131",
			"END_BUS_STOP_LATLNG": "1.37986282047018, 103.839659702541",
			"DISTANCE": "2.4",
			"GEOMETRIES": "iwkG}bxxRCCm@KkCWOAOAoD]o@G]EmAG}BAuAJ"
		},
		{
			"BUS_SEQUENCE": 8,
			"START_BUS_STOP": "BLK 612",
			"END_BUS_STOP": "OPP BLK 622",
			"START_BUS_STOP_NUM": "55131",
			"START_BUS_STOP_LATLNG": "1.37986282047018, 103.839659702541",
			"END_BUS_STOP_NUM": "55141",
			"END_BUS_STOP_LATLNG": "1.38151305598601, 103.839020555968",
			"DISTANCE": "2.7",
			"GEOMETRIES": "golGsexxRg@DQ@_Cj@{@^IDoAn@"
		},
		{
			"BUS_SEQUENCE": 9,
			"START_BUS_STOP": "OPP BLK 622",
			"END_BUS_STOP": "ANG MO KIO CMTY HOSP",
			"START_BUS_STOP_NUM": "55141",
			"START_BUS_STOP_LATLNG": "1.38151305598601, 103.839020555968",
			"END_BUS_STOP_NUM": "55151",
			"END_BUS_STOP_LATLNG": "1.3833944010563, 103.840331247922",
			"DISTANCE": "3",
			"GEOMETRIES": "wylGiaxxRaCpAMF}AyCmA_Cc@_A"
		},
		{
			"BUS_SEQUENCE": 10,
			"START_BUS_STOP": "ANG MO KIO CMTY HOSP",
			"END_BUS_STOP": "AMK POLICE DIV HQ",
			"START_BUS_STOP_NUM": "55151",
			"START_BUS_STOP_LATLNG": "1.3833944010563, 103.840331247922",
			"END_BUS_STOP_NUM": "55301",
			"END_BUS_STOP_LATLNG": "1.38425166698696, 103.84445666701",
			"DISTANCE": "3.4",
			"GEOMETRIES": "wdmGiixxRo@{AYcAEYKy@AKMkBU}Dc@iG"
		}
	]
}