{
	"BUS_DIRECTION_ONE": [
		{
			"BUS_SEQUENCE": 1,
			"START_BUS_STOP": "ANG MO KIO INT",
			"END_BUS_STOP": "BLK 324",
			"START_BUS_STOP_NUM": "54009",
			"START_BUS_STOP_LATLNG": "1.3696876991333904, 103.84856716193268",
			"END_BUS_STOP_NUM": "54248",
			"END_BUS_STOP_LATLNG": "1.368754905942425, 103.84661006967288",
			"DISTANCE": "0.7",
			"GEOMETRIES": "mpjGc|yxROgA_@w@vBaAXEF?T@^LDBNNPpAHrBCjAWzECZ"
		},
		{
			"BUS_SEQUENCE": 2,
			"START_BUS_STOP": "BLK 324",
			"END_BUS_STOP": "BLK 209",
			"START_BUS_STOP_NUM": "54248",
			"START_BUS_STOP_LATLNG": "1.368754905942425, 103.84661006967288",
			"END_BUS_STOP_NUM": "54239",
			"END_BUS_STOP_LATLNG": "1.3691860935030005, 103.84332015576307",
			"DISTANCE": "0.7",
			"GEOMETRIES": "{jjG}pyxR?J?BKzAIxACVAX??AJAH??Cf@Cb@WfEO~B"
		},
		{
			"BUS_SEQUENCE": 3,
			"START_BUS_STOP": "BLK 209",
			"END_BUS_STOP": "ANG MO KIO PR SCH",
			"START_BUS_STOP_NUM": "54239",
			"START_BUS_STOP_LATLNG": "1.3691860935030005, 103.84332015576307",
			"END_BUS_STOP_NUM": "54229",
			"END_BUS_STOP_LATLNG": "1.3696057794733916, 103.83993274827546",
			"DISTANCE": "1.1",
			"GEOMETRIES": "kmjG{{xxR??O~BSzCYxESnD"
		},
		{
			"BUS_SEQUENCE": 4,
			"START_BUS_STOP": "ANG MO KIO PR SCH",
			"END_BUS_STOP": "MAYFLOWER STN EXIT 6",
			"START_BUS_STOP_NUM": "54229",
			"START_BUS_STOP_LATLNG": "1.3696057794733916, 103.83993274827546",
			"END_BUS_STOP_NUM": "54181",
			"END_BUS_STOP_LATLNG": "1.370533051923735, 103.83653495602839",
			"DISTANCE": "1.5",
			"GEOMETRIES": "}ojGufxxRABGfAG|@ChABtALfA`@|Al@jAcCpAu@V[FWD"
		},
		{
			"BUS_SEQUENCE": 5,
			"START_BUS_STOP": "MAYFLOWER STN EXIT 6",
			"END_BUS_STOP": "MAYFLOWER STN EXIT 2",
			"START_BUS_STOP_NUM": "54181",
			"START_BUS_STOP_LATLNG": "1.370533051923735, 103.83653495602839",
			"END_BUS_STOP_NUM": "54191",
			"END_BUS_STOP_LATLNG": "1.374471933366678, 103.83756404776227",
			"DISTANCE": "2",
			"GEOMETRIES": "_ujGarwxRKBUD}@Da@@g@CcAKOEgImB}A_@_@MA?"
		},
		{
			"BUS_SEQUENCE": 6,
			"START_BUS_STOP": "MAYFLOWER STN EXIT 2",
			"END_BUS_STOP": "OPP BLK 155",
			"START_BUS_STOP_NUM": "54191",
			"START_BUS_STOP_LATLNG": "1.374471933366678, 103.83756404776227",
			"END_BUS_STOP_NUM": "54201",
			"END_BUS_STOP_LATLNG": "1.3760849857507524, 103.83927614239283",
			"DISTANCE": "2.4",
			"GEOMETRIES": "ekkGawwxRe@OMIYQ][?Aa@k@aAyAk@_Ae@k@EEWUa@Ua@M"
		},
		{
			"BUS_SEQUENCE": 7,
			"START_BUS_STOP": "OPP BLK 155",
			"END_BUS_STOP": "BLK 643",
			"START_BUS_STOP_NUM": "54201",
			"START_BUS_STOP_LATLNG": "1.3760849857507524, 103.83927614239283",
			"END_BUS_STOP_NUM": "54451",
			"END_BUS_STOP_LATLNG": "1.3772350180851711, 103.84059645206447",
			"DISTANCE": "2.7",
			"GEOMETRIES": "iwkG}bxxRCCE?g@KOAkCWAoE"
		},
		{
			"BUS_SEQUENCE": 8,
			"START_BUS_STOP": "BLK 643",
			"END_BUS_STOP": "BLK 649",
			"START_BUS_STOP_NUM": "54451",
			"START_BUS_STOP_LATLNG": "1.3772350180851711, 103.84059645206447",
			"END_BUS_STOP_NUM": "54461",
			"END_BUS_STOP_LATLNG": "1.3774799714634707, 103.84339938777069",
			"DISTANCE": "2.9",
			"GEOMETRIES": "y}kGwjxxR?A?G?_ACm@k@gL?O"
		},
		{
			"BUS_SEQUENCE": 9,
			"START_BUS_STOP": "BLK 649",
			"END_BUS_STOP": "OPP ANDERSON JC",
			"START_BUS_STOP_NUM": "54461",
			"START_BUS_STOP_LATLNG": "1.3774799714634707, 103.84339938777069",
			"END_BUS_STOP_NUM": "55201",
			"END_BUS_STOP_LATLNG": "1.3785911396682133, 103.84437772681191",
			"DISTANCE": "3.3",
			"GEOMETRIES": "i_lGg|xxRAKAkDQ]OOUKGAQCiDR"
		},
		{
			"BUS_SEQUENCE": 10,
			"START_BUS_STOP": "OPP ANDERSON JC",
			"END_BUS_STOP": "BLK 645",
			"START_BUS_STOP_NUM": "55201",
			"START_BUS_STOP_LATLNG": "1.3785911396682133, 103.84437772681191",
			"END_BUS_STOP_NUM": "55199",
			"END_BUS_STOP_LATLNG": "1.3795247679562952, 103.8426631996752",
			"DISTANCE": "3.5",
			"GEOMETRIES": "iglGkcyxRE@_FZVnGFhA"
		},
		{
			"BUS_SEQUENCE": 11,
			"START_BUS_STOP": "BLK 645",
			"END_BUS_STOP": "OPP YIO CHU KANG CC",
			"START_BUS_STOP_NUM": "55199",
			"START_BUS_STOP_LATLNG": "1.3795247679562952, 103.8426631996752",
			"END_BUS_STOP_NUM": "55169",
			"END_BUS_STOP_LATLNG": "1.381236392260925, 103.84100233602071",
			"DISTANCE": "3.8",
			"GEOMETRIES": "omlGswxxR?HHbBCTIRQLsClA_Bp@s@XKD"
		},
		{
			"BUS_SEQUENCE": 12,
			"START_BUS_STOP": "OPP YIO CHU KANG CC",
			"END_BUS_STOP": "AFT LENTOR STN EXIT 4",
			"START_BUS_STOP_NUM": "55169",
			"START_BUS_STOP_LATLNG": "1.381236392260925, 103.84100233602071",
			"END_BUS_STOP_NUM": "55019",
			"END_BUS_STOP_LATLNG": "1.382347301466737, 103.83618372073768",
			"DISTANCE": "4.1",
			"GEOMETRIES": "ywlGmmxxRaBp@gAd@_@PoDxAjDxGuBtAcCdBGh@?@AF?d@Db@@DF\\|EdD??"
		},
		{
			"BUS_SEQUENCE": 13,
			"START_BUS_STOP": "AFT LENTOR STN EXIT 4",
			"END_BUS_STOP": "BLK 604",
			"START_BUS_STOP_NUM": "55019",
			"START_BUS_STOP_LATLNG": "1.382347301466737, 103.83618372073768",
			"END_BUS_STOP_NUM": "55129",
			"END_BUS_STOP_LATLNG": "1.379442375043442, 103.83548154159587",
			"DISTANCE": "4.9",
			"GEOMETRIES": "}~lGknwxR??zApA|@hAlAvB`@JXHh@DXBbEmC^W"
		},
		{
			"BUS_SEQUENCE": 14,
			"START_BUS_STOP": "BLK 604",
			"END_BUS_STOP": "BLK 617",
			"START_BUS_STOP_NUM": "55129",
			"START_BUS_STOP_LATLNG": "1.379442375043442, 103.83548154159587",
			"END_BUS_STOP_NUM": "55119",
			"END_BUS_STOP_LATLNG": "1.377285307312092, 103.8378470631113",
			"DISTANCE": "5.3",
			"GEOMETRIES": "qllG}iwxRDE|GoE`Ay@r@aA^{@XmA@S"
		},
		{
			"BUS_SEQUENCE": 15,
			"START_BUS_STOP": "BLK 617",
			"END_BUS_STOP": "BET BLKS 152/155",
			"START_BUS_STOP_NUM": "55119",
			"START_BUS_STOP_LATLNG": "1.377285307312092, 103.8378470631113",
			"END_BUS_STOP_NUM": "54209",
			"END_BUS_STOP_LATLNG": "1.376381197355451, 103.83952322759049",
			"DISTANCE": "5.7",
			"GEOMETRIES": "{}kGmywxR?CBu@?_HjCV"
		},
		{
			"BUS_SEQUENCE": 16,
			"START_BUS_STOP": "BET BLKS 152/155",
			"END_BUS_STOP": "BEF MAYFLOWER STN EXIT 3",
			"START_BUS_STOP_NUM": "54209",
			"START_BUS_STOP_LATLNG": "1.376381197355451, 103.83952322759049",
			"END_BUS_STOP_NUM": "54199",
			"END_BUS_STOP_LATLNG": "1.3743000000096748, 103.83767277798233",
			"DISTANCE": "6",
			"GEOMETRIES": "kykGocxxRB?J@l@JBB`@L`@TVTDDd@j@j@~@`AxA`@j@?@\\ZXP??"
		},
		{
			"BUS_SEQUENCE": 17,
			"START_BUS_STOP": "BEF MAYFLOWER STN EXIT 3",
			"END_BUS_STOP": "MAYFLOWER STN EXIT 5",
			"START_BUS_STOP_NUM": "54199",
			"START_BUS_STOP_LATLNG": "1.3743000000096748, 103.83767277798233",
			"END_BUS_STOP_NUM": "54189",
			"END_BUS_STOP_LATLNG": "1.3704696629116109, 103.83679073259785",
			"DISTANCE": "6.3",
			"GEOMETRIES": "ylkG{wwxRLHd@N`@L|A^fIlBNDbAJf@B`@A|@E`@ITE@?"
		},
		{
			"BUS_SEQUENCE": 18,
			"START_BUS_STOP": "MAYFLOWER STN EXIT 5",
			"END_BUS_STOP": "OPP ANG MO KIO PR SCH",
			"START_BUS_STOP_NUM": "54189",
			"START_BUS_STOP_LATLNG": "1.3704696629116109, 103.83679073259785",
			"END_BUS_STOP_NUM": "54221",
			"END_BUS_STOP_LATLNG": "1.36995608006054, 103.83959341119167",
			"DISTANCE": "6.8",
			"GEOMETRIES": "gtjGgrwxRZGt@WbCqAm@kAa@}AMgACuABiAF}@"
		},
		{
			"BUS_SEQUENCE": 19,
			"START_BUS_STOP": "OPP ANG MO KIO PR SCH",
			"END_BUS_STOP": "BLK 129",
			"START_BUS_STOP_NUM": "54221",
			"START_BUS_STOP_LATLNG": "1.36995608006054, 103.83959341119167",
			"END_BUS_STOP_NUM": "54231",
			"END_BUS_STOP_LATLNG": "1.3696601246391764, 103.84193909880943",
			"DISTANCE": "7.2",
			"GEOMETRIES": "gpjGidxxR?AHiARoDXuE?C"
		},
		{
			"BUS_SEQUENCE": 20,
			"START_BUS_STOP": "BLK 129",
			"END_BUS_STOP": "BLK 700B",
			"START_BUS_STOP_NUM": "54231",
			"START_BUS_STOP_LATLNG": "1.3696601246391764, 103.84193909880943",
			"END_BUS_STOP_NUM": "54241",
			"END_BUS_STOP_LATLNG": "1.3691351864327423, 103.84618005827467",
			"DISTANCE": "7.5",
			"GEOMETRIES": "onjG_sxxRR{CN_CN_CVgEBc@Bg@??@I@K??@YBWHwA?A"
		},
		{
			"BUS_SEQUENCE": 21,
			"START_BUS_STOP": "BLK 700B",
			"END_BUS_STOP": "ANG MO KIO INT",
			"START_BUS_STOP_NUM": "54241",
			"START_BUS_STOP_LATLNG": "1.3691351864327423, 103.84618005827467",
			"END_BUS_STOP_NUM": "54009",
			"END_BUS_STOP_LATLNG": "1.3696876991333904, 103.84856716193268",
			"DISTANCE": "8",
			"GEOMETRIES": "gkjGqmyxRNgCV{EBkAIsBQqAOOEC_@MUAG?YDwB`A^v@NfA"
		}
	]
}