{
	"BUS_DIRECTION_ONE": [
		{
			"BUS_SEQUENCE": 1,
			"START_BUS_STOP": "MARINA CTR TER",
			"END_BUS_STOP": "AFT S'PORE FLYER",
			"START_BUS_STOP_NUM": "02099",
			"START_BUS_STOP_LATLNG": "1.29147264805943, 103.861485583808",
			"END_BUS_STOP_NUM": "02101",
			"END_BUS_STOP_LATLNG": "1.28938483786533, 103.861831481163",
			"DISTANCE": "10",
			"GEOMETRIES": "qe{Fgm|xRBa@?SDmB@MJ{@Pk@TSZCh@JpD`AZPNRJh@CjA"
		},
		{
			"BUS_SEQUENCE": 2,
			"START_BUS_STOP": "AFT S'PORE FLYER",
			"END_BUS_STOP": "THE FLOAT @ MARINA BAY",
			"START_BUS_STOP_NUM": "02101",
			"START_BUS_STOP_LATLNG": "1.28938483786533, 103.861831481163",
			"END_BUS_STOP_NUM": "02051",
			"END_BUS_STOP_LATLNG": "1.2895030556082, 103.859033888993",
			"DISTANCE": "0.4",
			"GEOMETRIES": "ezzFoo|xRA`@AH?HAXEjBO|FA^EtA"
		},
		{
			"BUS_SEQUENCE": 3,
			"START_BUS_STOP": "THE FLOAT @ MARINA BAY",
			"END_BUS_STOP": "THE ESPLANADE",
			"START_BUS_STOP_NUM": "02051",
			"START_BUS_STOP_LATLNG": "1.2895030556082, 103.859033888993",
			"END_BUS_STOP_NUM": "02061",
			"END_BUS_STOP_LATLNG": "1.2899638888957, 103.856403888863",
			"DISTANCE": "0.8",
			"GEOMETRIES": "i{zF_~{xRAf@Cn@EpBExAGrBCRq@xA"
		},
		{
			"BUS_SEQUENCE": 4,
			"START_BUS_STOP": "THE ESPLANADE",
			"END_BUS_STOP": "CITY HALL STN EXIT B",
			"START_BUS_STOP_NUM": "02061",
			"START_BUS_STOP_LATLNG": "1.2899638888957, 103.856403888863",
			"END_BUS_STOP_NUM": "04167",
			"END_BUS_STOP_LATLNG": "1.29250006522444, 103.851453154686",
			"DISTANCE": "1.1",
			"GEOMETRIES": "y}zFym{xRA@wBfCqBdCa@^s@r@OTSLeCdCi@jAg@dAuBtDK\\pBbAzAx@"
		},
		{
			"BUS_SEQUENCE": 5,
			"START_BUS_STOP": "CITY HALL STN EXIT B",
			"END_BUS_STOP": "OPP THE TREASURY",
			"START_BUS_STOP_NUM": "04167",
			"START_BUS_STOP_LATLNG": "1.29250006522444, 103.851453154686",
			"END_BUS_STOP_NUM": "04249",
			"END_BUS_STOP_LATLNG": "1.29043039362749, 103.850262165082",
			"DISTANCE": "2.1",
			"GEOMETRIES": "km{FgnzxRTJx@`@dAj@|E|B^RFD"
		},
		{
			"BUS_SEQUENCE": 6,
			"START_BUS_STOP": "OPP THE TREASURY",
			"END_BUS_STOP": "BOAT QUAY",
			"START_BUS_STOP_NUM": "04249",
			"START_BUS_STOP_LATLNG": "1.29043039362749, 103.850262165082",
			"END_BUS_STOP_NUM": "05029",
			"END_BUS_STOP_LATLNG": "1.28712283362119, 103.848197808225",
			"DISTANCE": "2.4",
			"GEOMETRIES": "o`{FufzxRx@d@pBhAd@VjB~@pAv@j@VXLPJfAf@jAj@"
		},
		{
			"BUS_SEQUENCE": 7,
			"START_BUS_STOP": "BOAT QUAY",
			"END_BUS_STOP": "CLARKE QUAY STN EXIT E",
			"START_BUS_STOP_NUM": "05029",
			"START_BUS_STOP_LATLNG": "1.28712283362119, 103.848197808225",
			"END_BUS_STOP_NUM": "04222",
			"END_BUS_STOP_LATLNG": "1.28898962180798, 103.847089763656",
			"DISTANCE": "2.8",
			"GEOMETRIES": "slzFozyxRBBb@ReDbH~BhB[`@cDkCmByASO"
		},
		{
			"BUS_SEQUENCE": 8,
			"START_BUS_STOP": "CLARKE QUAY STN EXIT E",
			"END_BUS_STOP": "CLARKE QUAY",
			"START_BUS_STOP_NUM": "04222",
			"START_BUS_STOP_LATLNG": "1.28898962180798, 103.847089763656",
			"END_BUS_STOP_NUM": "04211",
			"END_BUS_STOP_LATLNG": "1.29043611099357, 103.847124443981",
			"DISTANCE": "3.4",
			"GEOMETRIES": "svzF}syxRECuB_BiAy@[EQBOP{@tBMR"
		},
		{
			"BUS_SEQUENCE": 9,
			"START_BUS_STOP": "CLARKE QUAY",
			"END_BUS_STOP": "BEF FORT CANNING STN",
			"START_BUS_STOP_NUM": "04211",
			"START_BUS_STOP_LATLNG": "1.29043611099357, 103.847124443981",
			"END_BUS_STOP_NUM": "04331",
			"END_BUS_STOP_LATLNG": "1.29183939433256, 103.845037324621",
			"DISTANCE": "3.7",
			"GEOMETRIES": "aa{FatyxREHoBhDu@nAq@fA{@pA"
		},
		{
			"BUS_SEQUENCE": 10,
			"START_BUS_STOP": "BEF FORT CANNING STN",
			"END_BUS_STOP": "UE SQ/BEF MOHD SULTAN RD",
			"START_BUS_STOP_NUM": "04331",
			"START_BUS_STOP_LATLNG": "1.29183939433256, 103.845037324621",
			"END_BUS_STOP_NUM": "13109",
			"END_BUS_STOP_LATLNG": "1.29350944398488, 103.842724167027",
			"DISTANCE": "4",
			"GEOMETRIES": "{i{FcgyxR??uAvBw@`ASVKNS\\QXS^KROX_@r@[n@EJ"
		},
		{
			"BUS_SEQUENCE": 11,
			"START_BUS_STOP": "UE SQ/BEF MOHD SULTAN RD",
			"END_BUS_STOP": "AFT UNITY ST",
			"START_BUS_STOP_NUM": "13109",
			"START_BUS_STOP_LATLNG": "1.29350944398488, 103.842724167027",
			"END_BUS_STOP_NUM": "13211",
			"END_BUS_STOP_LATLNG": "1.29241699362676, 103.841095990069",
			"DISTANCE": "4.3",
			"GEOMETRIES": "at{FkxxxR[l@ABoAjAtHhETR@?BB"
		},
		{
			"BUS_SEQUENCE": 12,
			"START_BUS_STOP": "AFT UNITY ST",
			"END_BUS_STOP": "HOTEL MIRAMAR",
			"START_BUS_STOP_NUM": "13211",
			"START_BUS_STOP_LATLNG": "1.29241699362676, 103.841095990069",
			"END_BUS_STOP_NUM": "06151",
			"END_BUS_STOP_LATLNG": "1.28870976841461, 103.837372769692",
			"DISTANCE": "4.6",
			"GEOMETRIES": "}l{FkmxxRfAt@|@jAbA~Az@bBXpARl@DNTH|@XdDdAbD|@GvA"
		},
		{
			"BUS_SEQUENCE": 13,
			"START_BUS_STOP": "HOTEL MIRAMAR",
			"END_BUS_STOP": "HOLIDAY INN ATRIUM",
			"START_BUS_STOP_NUM": "06151",
			"START_BUS_STOP_LATLNG": "1.28870976841461, 103.837372769692",
			"END_BUS_STOP_NUM": "06141",
			"END_BUS_STOP_LATLNG": "1.28963300933975, 103.833812419218",
			"DISTANCE": "5.2",
			"GEOMETRIES": "mvzFuvwxR?DGbACXc@nDKx@m@tCgA~E"
		},
		{
			"BUS_SEQUENCE": 14,
			"START_BUS_STOP": "HOLIDAY INN ATRIUM",
			"END_BUS_STOP": "THE BOYS' BRIGADE HQ",
			"START_BUS_STOP_NUM": "06141",
			"START_BUS_STOP_LATLNG": "1.28963300933975, 103.833812419218",
			"END_BUS_STOP_NUM": "06131",
			"END_BUS_STOP_LATLNG": "1.29152472200833, 103.832227500015",
			"DISTANCE": "5.7",
			"GEOMETRIES": "_|zFq`wxRCH]~Ao@TwBx@u@f@qA|@UPEB"
		},
		{
			"BUS_SEQUENCE": 15,
			"START_BUS_STOP": "THE BOYS' BRIGADE HQ",
			"END_BUS_STOP": "OPP GREAT WORLD CITY",
			"START_BUS_STOP_NUM": "06131",
			"START_BUS_STOP_LATLNG": "1.29152472200833, 103.832227500015",
			"END_BUS_STOP_NUM": "13121",
			"END_BUS_STOP_LATLNG": "1.29409221679274, 103.83083776408",
			"DISTANCE": "6",
			"GEOMETRIES": "mg{F{vvxRsC~BaBz@cAVyCr@e@N"
		},
		{
			"BUS_SEQUENCE": 16,
			"START_BUS_STOP": "OPP GREAT WORLD CITY",
			"END_BUS_STOP": "AFT ZION FULL GOSPEL CH",
			"START_BUS_STOP_NUM": "13121",
			"START_BUS_STOP_LATLNG": "1.29409221679274, 103.83083776408",
			"END_BUS_STOP_NUM": "13141",
			"END_BUS_STOP_LATLNG": "1.29763682834545, 103.829979863479",
			"DISTANCE": "6.3",
			"GEOMETRIES": "gw{FcnvxRMBy@X_F|A{Jj@[?"
		},
		{
			"BUS_SEQUENCE": 17,
			"START_BUS_STOP": "AFT ZION FULL GOSPEL CH",
			"END_BUS_STOP": "BEF ORCHARD BLVD",
			"START_BUS_STOP_NUM": "13141",
			"START_BUS_STOP_LATLNG": "1.29763682834545, 103.829979863479",
			"END_BUS_STOP_NUM": "13191",
			"END_BUS_STOP_LATLNG": "1.30246399302722, 103.829782452963",
			"DISTANCE": "6.7",
			"GEOMETRIES": "gm|F{hvxRwDJuA@q@CYJWHcA^iEpA{AGaBg@}CwA"
		},
		{
			"BUS_SEQUENCE": 18,
			"START_BUS_STOP": "BEF ORCHARD BLVD",
			"END_BUS_STOP": "ORCHARD STN/LUCKY PLAZA",
			"START_BUS_STOP_NUM": "13191",
			"START_BUS_STOP_LATLNG": "1.30246399302722, 103.829782452963",
			"END_BUS_STOP_NUM": "09048",
			"END_BUS_STOP_LATLNG": "1.30386684425114, 103.834130700514",
			"DISTANCE": "7.3",
			"GEOMETRIES": "cl}FqhvxRA?}@c@m@WyBcAEA]OuAw@]WyByBP_@b@}@dEoJ"
		},
		{
			"BUS_SEQUENCE": 19,
			"START_BUS_STOP": "ORCHARD STN/LUCKY PLAZA",
			"END_BUS_STOP": "OPP SOMERSET STN",
			"START_BUS_STOP_NUM": "09048",
			"START_BUS_STOP_LATLNG": "1.30386684425114, 103.834130700514",
			"END_BUS_STOP_NUM": "09038",
			"END_BUS_STOP_LATLNG": "1.30154262450563, 103.838524818423",
			"DISTANCE": "8",
			"GEOMETRIES": "at}F{awxRBE?Ab@y@~CeHHMFKHMn@sAb@cA`A_C~AoE"
		},
		{
			"BUS_SEQUENCE": 20,
			"START_BUS_STOP": "OPP SOMERSET STN",
			"END_BUS_STOP": "CONCORDE HOTEL S'PORE",
			"START_BUS_STOP_NUM": "09038",
			"START_BUS_STOP_LATLNG": "1.30154262450563, 103.838524818423",
			"END_BUS_STOP_NUM": "08138",
			"END_BUS_STOP_LATLNG": "1.3004785730821, 103.841847006076",
			"DISTANCE": "8.6",
			"GEOMETRIES": "ge}Fs}wxR@EN_@FU`@eBn@mCh@gC^eBd@{B"
		},
		{
			"BUS_SEQUENCE": 21,
			"START_BUS_STOP": "CONCORDE HOTEL S'PORE",
			"END_BUS_STOP": "DHOBY GHAUT STN",
			"START_BUS_STOP_NUM": "08138",
			"START_BUS_STOP_LATLNG": "1.3004785730821, 103.841847006076",
			"END_BUS_STOP_NUM": "08057",
			"END_BUS_STOP_LATLNG": "1.29930997279734, 103.845290214297",
			"DISTANCE": "9",
			"GEOMETRIES": "k~|FmrxxR@EBKbAwEb@mBH_@BGl@qCNq@DG\\{ABI"
		},
		{
			"BUS_SEQUENCE": 22,
			"START_BUS_STOP": "DHOBY GHAUT STN",
			"END_BUS_STOP": "SCH OF THE ARTS",
			"START_BUS_STOP_NUM": "08057",
			"START_BUS_STOP_LATLNG": "1.29930997279734, 103.845290214297",
			"END_BUS_STOP_NUM": "08079",
			"END_BUS_STOP_LATLNG": "1.29921444445586, 103.84910329218",
			"DISTANCE": "9.4",
			"GEOMETRIES": "iw|F_hyxR^cBpAyFE_BGeCJu@Pq@iB}AAA"
		},
		{
			"BUS_SEQUENCE": 23,
			"START_BUS_STOP": "SCH OF THE ARTS",
			"END_BUS_STOP": "PEACE CTR",
			"START_BUS_STOP_NUM": "08079",
			"START_BUS_STOP_LATLNG": "1.29921444445586, 103.84910329218",
			"END_BUS_STOP_NUM": "07011",
			"END_BUS_STOP_LATLNG": "1.30099699058522, 103.849810187431",
			"DISTANCE": "9.9",
			"GEOMETRIES": "sv|Fk`zxRo@i@o@WoGkA??"
		},
		{
			"BUS_SEQUENCE": 24,
			"START_BUS_STOP": "PEACE CTR",
			"END_BUS_STOP": "SELEGIE CTR",
			"START_BUS_STOP_NUM": "07011",
			"START_BUS_STOP_LATLNG": "1.30099699058522, 103.849810187431",
			"END_BUS_STOP_NUM": "07021",
			"END_BUS_STOP_LATLNG": "1.30372354572677, 103.850036756529",
			"DISTANCE": "10.1",
			"GEOMETRIES": "cb}FydzxRs@M]Eo@AaAIqEAIAK?iAGi@G"
		},
		{
			"BUS_SEQUENCE": 25,
			"START_BUS_STOP": "SELEGIE CTR",
			"END_BUS_STOP": "OPP ROCHOR STN",
			"START_BUS_STOP_NUM": "07021",
			"START_BUS_STOP_LATLNG": "1.30372354572677, 103.850036756529",
			"END_BUS_STOP_NUM": "07539",
			"END_BUS_STOP_LATLNG": "1.30461300741211, 103.852000972095",
			"DISTANCE": "10.5",
			"GEOMETRIES": "cs}FmfzxRG?]Ii@KWO[QiAq@iAi@`@a@n@eBVs@JY"
		},
		{
			"BUS_SEQUENCE": 26,
			"START_BUS_STOP": "OPP ROCHOR STN",
			"END_BUS_STOP": "CH OF OUR LADY OF LOURDES",
			"START_BUS_STOP_NUM": "07539",
			"START_BUS_STOP_LATLNG": "1.30461300741211, 103.852000972095",
			"END_BUS_STOP_NUM": "07589",
			"END_BUS_STOP_LATLNG": "1.30320609782822, 103.855499999834",
			"DISTANCE": "10.8",
			"GEOMETRIES": "ex}FwqzxRXu@b@iALu@Po@Ra@Vk@`@g@p@aAVi@Tk@Hk@UgA@aALO@A"
		},
		{
			"BUS_SEQUENCE": 27,
			"START_BUS_STOP": "CH OF OUR LADY OF LOURDES",
			"END_BUS_STOP": "GOLDEN LANDMARK",
			"START_BUS_STOP_NUM": "07589",
			"START_BUS_STOP_LATLNG": "1.30320609782822, 103.855499999834",
			"END_BUS_STOP_NUM": "01559",
			"END_BUS_STOP_LATLNG": "1.30168731070563, 103.857529239616",
			"DISTANCE": "11.2",
			"GEOMETRIES": "so}Fsg{xR~AkBFMfCsDdA_B??"
		},
		{
			"BUS_SEQUENCE": 28,
			"START_BUS_STOP": "GOLDEN LANDMARK",
			"END_BUS_STOP": "OPP DUO RESIDENCES",
			"START_BUS_STOP_NUM": "01559",
			"START_BUS_STOP_LATLNG": "1.30168731070563, 103.857529239616",
			"END_BUS_STOP_NUM": "01549",
			"END_BUS_STOP_LATLNG": "1.30069868861162, 103.858731204671",
			"DISTANCE": "11.5",
			"GEOMETRIES": "}e}Fat{xR`AyAfB}BVU"
		},
		{
			"BUS_SEQUENCE": 29,
			"START_BUS_STOP": "OPP DUO RESIDENCES",
			"END_BUS_STOP": "EUNOS STN",
			"START_BUS_STOP_NUM": "01549",
			"START_BUS_STOP_LATLNG": "1.30069868861162, 103.858731204671",
			"END_BUS_STOP_NUM": "83101",
			"END_BUS_STOP_LATLNG": "1.32066709057479, 103.904898366833",
			"DISTANCE": "11.7",
			"GEOMETRIES": "{_}Fo{{xR@AdDyCtCqBvAcABClAaAj@]|@g@v@Ov@I`EQ`BIhBk@DAbAi@h@g@V_@\\q@DMNc@HeA?aA?AKkBC_@c@}H_BgO]_Dy@eI[uDIsBAcFG_QSwP_@_T_@{ULqKD_DNeIDkC@aIU{Cg@mDqA}EmBwGgBoGcBeGiI_[eAeEACwDsQwAaFa@mAa@y@_@a@YQc@MuAQqCQeCBo@OuAPkBb@QFQHQFoClA_FvB}Aj@_@R]PQJQFy@VQFe@Lo@PiAPcALm@Dy@Ju@N_Bf@qExAeA\\iCx@_@LwDlA_@LUJg@RMDaBb@aCr@k@P}C|@_@De@Fi@FUDkITYAGAe@A_@CcDUC?"
		},
		{
			"BUS_SEQUENCE": 33,
			"START_BUS_STOP": "EUNOS STN",
			"END_BUS_STOP": "BLK 17",
			"START_BUS_STOP_NUM": "83101",
			"START_BUS_STOP_LATLNG": "1.32066709057479, 103.904898366833",
			"END_BUS_STOP_NUM": "83111",
			"END_BUS_STOP_LATLNG": "1.32346854012914, 103.905273113229",
			"DISTANCE": "20.2",
			"GEOMETRIES": "}|`G_~dyRu@E_@CsBKc@Ae@CoCOmCSA?"
		},
		{
			"BUS_SEQUENCE": 34,
			"START_BUS_STOP": "BLK 17",
			"END_BUS_STOP": "BLK 322",
			"START_BUS_STOP_NUM": "83111",
			"START_BUS_STOP_LATLNG": "1.32346854012914, 103.905273113229",
			"END_BUS_STOP_NUM": "72011",
			"END_BUS_STOP_LATLNG": "1.32816499999482, 103.905483610977",
			"DISTANCE": "20.5",
			"GEOMETRIES": "qnaG_`eyRaAIo@EaAGmAIy@E_AIE?k@EgBKg@Ew@Ga@?a@@A?s@?_BRI@s@LYHMD"
		},
		{
			"BUS_SEQUENCE": 35,
			"START_BUS_STOP": "BLK 322",
			"END_BUS_STOP": "BLK 646",
			"START_BUS_STOP_NUM": "72011",
			"START_BUS_STOP_LATLNG": "1.32816499999482, 103.905483610977",
			"END_BUS_STOP_NUM": "72021",
			"END_BUS_STOP_LATLNG": "1.33096531210116, 103.906321866086",
			"DISTANCE": "21",
			"GEOMETRIES": "glbG{`eyRUF{@ZiBbA_Ar@MHIK??EGQSOQgBwBw@aAg@s@CCOY"
		},
		{
			"BUS_SEQUENCE": 36,
			"START_BUS_STOP": "BLK 646",
			"END_BUS_STOP": "BLK 122",
			"START_BUS_STOP_NUM": "72021",
			"START_BUS_STOP_LATLNG": "1.33096531210116, 103.906321866086",
			"END_BUS_STOP_NUM": "72061",
			"END_BUS_STOP_LATLNG": "1.33177922756641, 103.909839391704",
			"DISTANCE": "21.4",
			"GEOMETRIES": "_}bG{eeyRSYeA}Bc@aAWs@Oy@CUE_@?{ALyBF}A"
		},
		{
			"BUS_SEQUENCE": 37,
			"START_BUS_STOP": "BLK 122",
			"END_BUS_STOP": "BLK 133",
			"START_BUS_STOP_NUM": "72061",
			"START_BUS_STOP_LATLNG": "1.33177922756641, 103.909839391704",
			"END_BUS_STOP_NUM": "72071",
			"END_BUS_STOP_LATLNG": "1.33219165087886, 103.911841104592",
			"DISTANCE": "21.9",
			"GEOMETRIES": "yacGm{eyR?ADeAAe@Aa@MoA]{AEIg@uA"
		},
		{
			"BUS_SEQUENCE": 38,
			"START_BUS_STOP": "BLK 133",
			"END_BUS_STOP": "BLK 140",
			"START_BUS_STOP_NUM": "72071",
			"START_BUS_STOP_LATLNG": "1.33219165087886, 103.911841104592",
			"END_BUS_STOP_NUM": "84499",
			"END_BUS_STOP_LATLNG": "1.33520779235718, 103.914015806026",
			"DISTANCE": "22.1",
			"GEOMETRIES": "qdcGihfyR??m@aBs@kBM]k@y@]_@g@]sAk@mASiBQgBE"
		},
		{
			"BUS_SEQUENCE": 39,
			"START_BUS_STOP": "BLK 140",
			"END_BUS_STOP": "AFT BEDOK IND PK C",
			"START_BUS_STOP_NUM": "84499",
			"START_BUS_STOP_LATLNG": "1.33520779235718, 103.914015806026",
			"END_BUS_STOP_NUM": "84489",
			"END_BUS_STOP_LATLNG": "1.33804722197723, 103.916188332969",
			"DISTANCE": "22.6",
			"GEOMETRIES": "gwcGevfyREAQ?m@?W@a@L}Al@cC~@oCmH}@oEIc@"
		},
		{
			"BUS_SEQUENCE": 40,
			"START_BUS_STOP": "AFT BEDOK IND PK C",
			"END_BUS_STOP": "OPP BLK 701",
			"START_BUS_STOP_NUM": "84489",
			"START_BUS_STOP_LATLNG": "1.33804722197723, 103.916188332969",
			"END_BUS_STOP_NUM": "84461",
			"END_BUS_STOP_LATLNG": "1.33807138901241, 103.919390277981",
			"DISTANCE": "23.2",
			"GEOMETRIES": "aidGkcgyRAIAEc@kFCa@Km@AACOCOA?G[AIEi@AMFu@Tu@PYNSFG"
		},
		{
			"BUS_SEQUENCE": 41,
			"START_BUS_STOP": "OPP BLK 701",
			"END_BUS_STOP": "BLK 745",
			"START_BUS_STOP_NUM": "84461",
			"START_BUS_STOP_LATLNG": "1.33807138901241, 103.919390277981",
			"END_BUS_STOP_NUM": "84471",
			"END_BUS_STOP_LATLNG": "1.3373330466218, 103.9219974516",
			"DISTANCE": "23.6",
			"GEOMETRIES": "oidGyvgyRz@gAb@q@l@qAl@cBJk@Bk@IcAOi@Uc@EE"
		},
		{
			"BUS_SEQUENCE": 42,
			"START_BUS_STOP": "BLK 745",
			"END_BUS_STOP": "OPP BLK 716",
			"START_BUS_STOP_NUM": "84471",
			"START_BUS_STOP_LATLNG": "1.3373330466218, 103.9219974516",
			"END_BUS_STOP_NUM": "84621",
			"END_BUS_STOP_LATLNG": "1.33831497804809, 103.92492045856",
			"DISTANCE": "24",
			"GEOMETRIES": "yddGyghyRe@{@_@aAYiAGU[aBCGYuB[cC??"
		},
		{
			"BUS_SEQUENCE": 43,
			"START_BUS_STOP": "OPP BLK 716",
			"END_BUS_STOP": "OPP WATERFRONT ISLE",
			"START_BUS_STOP_NUM": "84621",
			"START_BUS_STOP_LATLNG": "1.33831497804809, 103.92492045856",
			"END_BUS_STOP_NUM": "84611",
			"END_BUS_STOP_LATLNG": "1.33922469822607, 103.92795482354",
			"DISTANCE": "24.4",
			"GEOMETRIES": "wjdG{yhyR_@kCSw@Mg@kAgDUo@Mm@G{@@k@"
		},
		{
			"BUS_SEQUENCE": 44,
			"START_BUS_STOP": "OPP WATERFRONT ISLE",
			"END_BUS_STOP": "OPP WATERFRONT WAVES",
			"START_BUS_STOP_NUM": "84611",
			"START_BUS_STOP_LATLNG": "1.33922469822607, 103.92795482354",
			"END_BUS_STOP_NUM": "84631",
			"END_BUS_STOP_LATLNG": "1.33879275233871, 103.929482459692",
			"DISTANCE": "24.8",
			"GEOMETRIES": "opdGuliyR?A@e@Ls@Nm@v@}C?A"
		},
		{
			"BUS_SEQUENCE": 45,
			"START_BUS_STOP": "OPP WATERFRONT WAVES",
			"END_BUS_STOP": "OPP WATERFRONT KEY",
			"START_BUS_STOP_NUM": "84631",
			"START_BUS_STOP_LATLNG": "1.33879275233871, 103.929482459692",
			"END_BUS_STOP_NUM": "84601",
			"END_BUS_STOP_LATLNG": "1.33820137485609, 103.931169666653",
			"DISTANCE": "25",
			"GEOMETRIES": "wmdG_viyRfBeHLk@??"
		},
		{
			"BUS_SEQUENCE": 46,
			"START_BUS_STOP": "OPP WATERFRONT KEY",
			"END_BUS_STOP": "OPP THE CLEARWATER CONDO",
			"START_BUS_STOP_NUM": "84601",
			"START_BUS_STOP_LATLNG": "1.33820137485609, 103.931169666653",
			"END_BUS_STOP_NUM": "75341",
			"END_BUS_STOP_LATLNG": "1.33832204097068, 103.933861255669",
			"DISTANCE": "25.2",
			"GEOMETRIES": "ajdGq`jyR\\uALo@Do@@m@[yC]cCMi@"
		},
		{
			"BUS_SEQUENCE": 47,
			"START_BUS_STOP": "OPP THE CLEARWATER CONDO",
			"END_BUS_STOP": "OPP BEDOK REFORM TRG CTR",
			"START_BUS_STOP_NUM": "75341",
			"START_BUS_STOP_LATLNG": "1.33832204097068, 103.933861255669",
			"END_BUS_STOP_NUM": "75061",
			"END_BUS_STOP_LATLNG": "1.34162763061432, 103.936953772894",
			"DISTANCE": "25.6",
			"GEOMETRIES": "ujdG}qjyRCMAE[w@GMIQKQEIMQKOw@_AQQgDaD{AmA}@e@"
		},
		{
			"BUS_SEQUENCE": 48,
			"START_BUS_STOP": "OPP BEDOK REFORM TRG CTR",
			"END_BUS_STOP": "TEMASEK POLY EAST G",
			"START_BUS_STOP_NUM": "75061",
			"START_BUS_STOP_LATLNG": "1.34162763061432, 103.936953772894",
			"END_BUS_STOP_NUM": "75229",
			"END_BUS_STOP_LATLNG": "1.34499782605889, 103.936766089388",
			"DISTANCE": "26",
			"GEOMETRIES": "azdGobkyRKGe@WuOsGuAa@mAMQAe@ASA?bBQ`Ay@lC"
		},
		{
			"BUS_SEQUENCE": 49,
			"START_BUS_STOP": "TEMASEK POLY EAST G",
			"END_BUS_STOP": "TEMASEK POLY",
			"START_BUS_STOP_NUM": "75229",
			"START_BUS_STOP_LATLNG": "1.34499782605889, 103.936766089388",
			"END_BUS_STOP_NUM": "75239",
			"END_BUS_STOP_LATLNG": "1.34682160338629, 103.932407616606",
			"DISTANCE": "26.8",
			"GEOMETRIES": "eveGedkyRg@~Ai@`Bo@rByEnO"
		},
		{
			"BUS_SEQUENCE": 50,
			"START_BUS_STOP": "TEMASEK POLY",
			"END_BUS_STOP": "TEMASEK POLY WEST G",
			"START_BUS_STOP_NUM": "75239",
			"START_BUS_STOP_LATLNG": "1.34682160338629, 103.932407616606",
			"END_BUS_STOP_NUM": "75249",
			"END_BUS_STOP_LATLNG": "1.34791499671757, 103.93017010145",
			"DISTANCE": "27.3",
			"GEOMETRIES": "aafG_jjyRcCnHa@z@_AtB"
		},
		{
			"BUS_SEQUENCE": 51,
			"START_BUS_STOP": "TEMASEK POLY WEST G",
			"END_BUS_STOP": "OPP SPRINGFIELD SEC SCH",
			"START_BUS_STOP_NUM": "75249",
			"START_BUS_STOP_LATLNG": "1.34791499671757, 103.93017010145",
			"END_BUS_STOP_NUM": "75031",
			"END_BUS_STOP_LATLNG": "1.35080696753697, 103.929462432849",
			"DISTANCE": "27.7",
			"GEOMETRIES": "ghfG}ziyRCDsDdIgCeAi@UwDcB"
		},
		{
			"BUS_SEQUENCE": 52,
			"START_BUS_STOP": "OPP SPRINGFIELD SEC SCH",
			"END_BUS_STOP": "OPP BLK 871A",
			"START_BUS_STOP_NUM": "75031",
			"START_BUS_STOP_LATLNG": "1.35080696753697, 103.929462432849",
			"END_BUS_STOP_NUM": "75151",
			"END_BUS_STOP_LATLNG": "1.35451781224143, 103.931452062367",
			"DISTANCE": "28.1",
			"GEOMETRIES": "iyfGqviyREAeEkBoCkAgEkBaEiB"
		},
		{
			"BUS_SEQUENCE": 53,
			"START_BUS_STOP": "OPP BLK 871A",
			"END_BUS_STOP": "BLK 730",
			"START_BUS_STOP_NUM": "75151",
			"START_BUS_STOP_LATLNG": "1.35451781224143, 103.931452062367",
			"END_BUS_STOP_NUM": "75141",
			"END_BUS_STOP_LATLNG": "1.35625000000112, 103.93377888891",
			"DISTANCE": "28.6",
			"GEOMETRIES": "opgGacjyRAAiLeF`BoE"
		},
		{
			"BUS_SEQUENCE": 54,
			"START_BUS_STOP": "BLK 730",
			"END_BUS_STOP": "BET BLKS 701/702",
			"START_BUS_STOP_NUM": "75141",
			"START_BUS_STOP_LATLNG": "1.35625000000112, 103.93377888891",
			"END_BUS_STOP_NUM": "75131",
			"END_BUS_STOP_LATLNG": "1.35594818346107, 103.937096460278",
			"DISTANCE": "29",
			"GEOMETRIES": "yzgGypjyR??n@eBLq@DgA?kHAuC"
		},
		{
			"BUS_SEQUENCE": 55,
			"START_BUS_STOP": "BET BLKS 701/702",
			"END_BUS_STOP": "OPP DARUL GHUFRAN MQUE",
			"START_BUS_STOP_NUM": "75131",
			"START_BUS_STOP_LATLNG": "1.35594818346107, 103.937096460278",
			"END_BUS_STOP_NUM": "75121",
			"END_BUS_STOP_LATLNG": "1.35593392058986, 103.939032554603",
			"DISTANCE": "29.4",
			"GEOMETRIES": "wxgG{ekyR??A{D@gD?O?M"
		},
		{
			"BUS_SEQUENCE": 56,
			"START_BUS_STOP": "OPP DARUL GHUFRAN MQUE",
			"END_BUS_STOP": "OPP OUR TAMPINES HUB",
			"START_BUS_STOP_NUM": "75121",
			"START_BUS_STOP_LATLNG": "1.35593392058986, 103.939032554603",
			"END_BUS_STOP_NUM": "76059",
			"END_BUS_STOP_LATLNG": "1.35294260004142, 103.941646789586",
			"DISTANCE": "29.7",
			"GEOMETRIES": "wxgG}qkyR@kF?E@YHg@La@N]\\c@ZYfAi@d@K`CKr@@hC@d@@"
		},
		{
			"BUS_SEQUENCE": 57,
			"START_BUS_STOP": "OPP OUR TAMPINES HUB",
			"END_BUS_STOP": "UOB TAMPINES CTR",
			"START_BUS_STOP_NUM": "76059",
			"START_BUS_STOP_LATLNG": "1.35294260004142, 103.941646789586",
			"END_BUS_STOP_NUM": "76131",
			"END_BUS_STOP_LATLNG": "1.35184112001279, 103.942541336941",
			"DISTANCE": "30.2",
			"GEOMETRIES": "_ggGkalyRpDBbAA"
		},
		{
			"BUS_SEQUENCE": 58,
			"START_BUS_STOP": "UOB TAMPINES CTR",
			"END_BUS_STOP": "TAMPINES STN/INT",
			"START_BUS_STOP_NUM": "76131",
			"START_BUS_STOP_LATLNG": "1.35184112001279, 103.942541336941",
			"END_BUS_STOP_NUM": "76141",
			"END_BUS_STOP_LATLNG": "1.35366689109025, 103.946090604516",
			"DISTANCE": "30.5",
			"GEOMETRIES": "i_gG{glyR?qA?U?U?OAgDEaAOw@_@kAe@y@c@i@sA_Aq@_@q@Sk@IYC"
		},
		{
			"BUS_SEQUENCE": 59,
			"START_BUS_STOP": "TAMPINES STN/INT",
			"END_BUS_STOP": "BLK 417",
			"START_BUS_STOP_NUM": "76141",
			"START_BUS_STOP_LATLNG": "1.35366689109025, 103.946090604516",
			"END_BUS_STOP_NUM": "76399",
			"END_BUS_STOP_LATLNG": "1.3586225675181, 103.947233370056",
			"DISTANCE": "30.9",
			"GEOMETRIES": "ikgG}~lyRA?u@G{A@kDAgHAa@BI?cFAe@OSOOSISCY?qA?K"
		},
		{
			"BUS_SEQUENCE": 60,
			"START_BUS_STOP": "BLK 417",
			"END_BUS_STOP": "BLK 496F",
			"START_BUS_STOP_NUM": "76399",
			"START_BUS_STOP_LATLNG": "1.3586225675181, 103.947233370056",
			"END_BUS_STOP_NUM": "76369",
			"END_BUS_STOP_LATLNG": "1.36025642698418, 103.950222730658",
			"DISTANCE": "31.5",
			"GEOMETRIES": "yihGeemyR?eBGe@IUe@wAA]AG?cCgE?O_Ba@oAEEGK"
		},
		{
			"BUS_SEQUENCE": 61,
			"START_BUS_STOP": "BLK 496F",
			"END_BUS_STOP": "BLK 493B",
			"START_BUS_STOP_NUM": "76369",
			"START_BUS_STOP_LATLNG": "1.36025642698418, 103.950222730658",
			"END_BUS_STOP_NUM": "76359",
			"END_BUS_STOP_LATLNG": "1.36209168075863, 103.952178751969",
			"DISTANCE": "32",
			"GEOMETRIES": "}shGkxmyRGKa@e@sBsB}A{AqAoAc@m@"
		},
		{
			"BUS_SEQUENCE": 62,
			"START_BUS_STOP": "BLK 493B",
			"END_BUS_STOP": "BLK 491C",
			"START_BUS_STOP_NUM": "76359",
			"START_BUS_STOP_LATLNG": "1.36209168075863, 103.952178751969",
			"END_BUS_STOP_NUM": "76279",
			"END_BUS_STOP_LATLNG": "1.3618856073242, 103.955045800303",
			"DISTANCE": "32.3",
			"GEOMETRIES": "o_iGkdnyRa@aAEUGUEo@?i@Dq@FWDWRi@f@w@xA}AsAsA"
		},
		{
			"BUS_SEQUENCE": 63,
			"START_BUS_STOP": "BLK 491C",
			"END_BUS_STOP": "OPP BLK 489A",
			"START_BUS_STOP_NUM": "76279",
			"START_BUS_STOP_LATLNG": "1.3618856073242, 103.955045800303",
			"END_BUS_STOP_NUM": "76269",
			"END_BUS_STOP_LATLNG": "1.36187820405808, 103.957398186279",
			"DISTANCE": "32.7",
			"GEOMETRIES": "o~hGivnyRAAk@k@cCcCMWAa@FUNSxCyCRQ"
		},
		{
			"BUS_SEQUENCE": 64,
			"START_BUS_STOP": "OPP BLK 489A",
			"END_BUS_STOP": "OPP BLK 487B",
			"START_BUS_STOP_NUM": "76269",
			"START_BUS_STOP_LATLNG": "1.36187820405808, 103.957398186279",
			"END_BUS_STOP_NUM": "76259",
			"END_BUS_STOP_LATLNG": "1.35967015846114, 103.958424463738",
			"DISTANCE": "33",
			"GEOMETRIES": "k~hGkdoyRbAcA~@aA`C_CPKj@E^Jb@d@XV"
		},
		{
			"BUS_SEQUENCE": 65,
			"START_BUS_STOP": "OPP BLK 487B",
			"END_BUS_STOP": "EAST SPRING SEC SCH",
			"START_BUS_STOP_NUM": "76259",
			"START_BUS_STOP_LATLNG": "1.35967015846114, 103.958424463738",
			"END_BUS_STOP_NUM": "76469",
			"END_BUS_STOP_LATLNG": "1.35630339357193, 103.959850481638",
			"DISTANCE": "33.3",
			"GEOMETRIES": "iqhGyjoyR@@zBxBb@Pj@Fn@IXQvCqClCmClAkAf@g@BC"
		},
		{
			"BUS_SEQUENCE": 66,
			"START_BUS_STOP": "EAST SPRING SEC SCH",
			"END_BUS_STOP": "BLK 331",
			"START_BUS_STOP_NUM": "76469",
			"START_BUS_STOP_LATLNG": "1.35630339357193, 103.959850481638",
			"END_BUS_STOP_NUM": "76429",
			"END_BUS_STOP_LATLNG": "1.35369222069272, 103.959589004547",
			"DISTANCE": "33.9",
			"GEOMETRIES": "q{gGwsoyRxCyCZS\\MZADAvF??|@?hD?@"
		},
		{
			"BUS_SEQUENCE": 67,
			"START_BUS_STOP": "BLK 331",
			"END_BUS_STOP": "BLK 307A",
			"START_BUS_STOP_NUM": "76429",
			"START_BUS_STOP_LATLNG": "1.35369222069272, 103.959589004547",
			"END_BUS_STOP_NUM": "76419",
			"END_BUS_STOP_LATLNG": "1.35366243500212, 103.95648530342",
			"DISTANCE": "34.2",
			"GEOMETRIES": "clgGmroyR?b@?hB?hA?xB?xG"
		},
		{
			"BUS_SEQUENCE": 68,
			"START_BUS_STOP": "BLK 307A",
			"END_BUS_STOP": "BLK 302",
			"START_BUS_STOP_NUM": "76419",
			"START_BUS_STOP_LATLNG": "1.35366243500212, 103.95648530342",
			"END_BUS_STOP_NUM": "76109",
			"END_BUS_STOP_LATLNG": "1.35296639979416, 103.955118452547",
			"DISTANCE": "34.6",
			"GEOMETRIES": "clgGa_oyR?@?tA?nAJZDLNZRRXT`AVB@"
		},
		{
			"BUS_SEQUENCE": 69,
			"START_BUS_STOP": "BLK 302",
			"END_BUS_STOP": "BLK 285",
			"START_BUS_STOP_NUM": "76109",
			"START_BUS_STOP_LATLNG": "1.35296639979416, 103.955118452547",
			"END_BUS_STOP_NUM": "76099",
			"END_BUS_STOP_LATLNG": "1.35026359502623, 103.952491721874",
			"DISTANCE": "34.8",
			"GEOMETRIES": "mggGounyRZJRH^N@?VLPHTLXNJFLJ^Xn@`@hB|An@v@R\\\\t@b@bB"
		},
		{
			"BUS_SEQUENCE": 70,
			"START_BUS_STOP": "BLK 285",
			"END_BUS_STOP": "THE HOLY TRINITY CH",
			"START_BUS_STOP_NUM": "76099",
			"START_BUS_STOP_LATLNG": "1.35026359502623, 103.952491721874",
			"END_BUS_STOP_NUM": "76089",
			"END_BUS_STOP_LATLNG": "1.34916805553714, 103.949233888899",
			"DISTANCE": "35.3",
			"GEOMETRIES": "gwfGuenyR?@^rApAjF|ApGPt@"
		},
		{
			"BUS_SEQUENCE": 71,
			"START_BUS_STOP": "THE HOLY TRINITY CH",
			"END_BUS_STOP": "BLK 101",
			"START_BUS_STOP_NUM": "76089",
			"START_BUS_STOP_LATLNG": "1.34916805553714, 103.949233888899",
			"END_BUS_STOP_NUM": "76079",
			"END_BUS_STOP_LATLNG": "1.34794388891649, 103.945635000001",
			"DISTANCE": "35.8",
			"GEOMETRIES": "epfGkqmyR?@`@~AVdApDhOL\\?@"
		},
		{
			"BUS_SEQUENCE": 72,
			"START_BUS_STOP": "BLK 101",
			"END_BUS_STOP": "BLK 938",
			"START_BUS_STOP_NUM": "76079",
			"START_BUS_STOP_LATLNG": "1.34794388891649, 103.945635000001",
			"END_BUS_STOP_NUM": "76061",
			"END_BUS_STOP_LATLNG": "1.3482019444416, 103.941898055523",
			"DISTANCE": "36.3",
			"GEOMETRIES": "khfGyzlyRt@zBt@|AbAdBbAzALv@@F@b@CPOb@KNA@m@v@m@TeATgBX"
		},
		{
			"BUS_SEQUENCE": 73,
			"START_BUS_STOP": "BLK 938",
			"END_BUS_STOP": "BLK 945",
			"START_BUS_STOP_NUM": "76061",
			"START_BUS_STOP_LATLNG": "1.3482019444416, 103.941898055523",
			"END_BUS_STOP_NUM": "76111",
			"END_BUS_STOP_LATLNG": "1.35157455446947, 103.940233877326",
			"DISTANCE": "36.9",
			"GEOMETRIES": "qifGsdlyRG@uHjA??UBeCRyCBYJWVQf@@zC?R"
		},
		{
			"BUS_SEQUENCE": 74,
			"START_BUS_STOP": "BLK 945",
			"END_BUS_STOP": "OPP ST. HILDA'S SEC SCH",
			"START_BUS_STOP_NUM": "76111",
			"START_BUS_STOP_LATLNG": "1.35157455446947, 103.940233877326",
			"END_BUS_STOP_NUM": "76121",
			"END_BUS_STOP_LATLNG": "1.35003333718868, 103.93817517169",
			"DISTANCE": "37.4",
			"GEOMETRIES": "g_gGmykyR?lB?TB`@Lj@Tt@`@r@j@h@d@Zp@Xx@NZD^FLA"
		},
		{
			"BUS_SEQUENCE": 75,
			"START_BUS_STOP": "OPP ST. HILDA'S SEC SCH",
			"END_BUS_STOP": "BLK 819",
			"START_BUS_STOP_NUM": "76121",
			"START_BUS_STOP_LATLNG": "1.35003333718868, 103.93817517169",
			"END_BUS_STOP_NUM": "75079",
			"END_BUS_STOP_LATLNG": "1.34858249441921, 103.937012163459",
			"DISTANCE": "37.7",
			"GEOMETRIES": "utfGukkyRd@?pE_@R`D@bA?@"
		},
		{
			"BUS_SEQUENCE": 76,
			"START_BUS_STOP": "BLK 819",
			"END_BUS_STOP": "BLK 827",
			"START_BUS_STOP_NUM": "75079",
			"START_BUS_STOP_LATLNG": "1.34858249441921, 103.937012163459",
			"END_BUS_STOP_NUM": "75089",
			"END_BUS_STOP_LATLNG": "1.34977145890473, 103.934047317792",
			"DISTANCE": "38",
			"GEOMETRIES": "glfGmekyRALE\\i@bB}@lCkBfGOf@"
		},
		{
			"BUS_SEQUENCE": 77,
			"START_BUS_STOP": "BLK 827",
			"END_BUS_STOP": "BLK 888",
			"START_BUS_STOP_NUM": "75089",
			"START_BUS_STOP_LATLNG": "1.34977145890473, 103.934047317792",
			"END_BUS_STOP_NUM": "75109",
			"END_BUS_STOP_LATLNG": "1.35115140327554, 103.931024236999",
			"DISTANCE": "38.4",
			"GEOMETRIES": "ssfG_sjyReAfDy@jC_AnCwA|C"
		}
	]
}