{
	"BUS_DIRECTION_ONE": [
		{
			"BUS_SEQUENCE": 1,
			"START_BUS_STOP": "KENT RIDGE TER",
			"END_BUS_STOP": "OPP KENT RIDGE TER",
			"START_BUS_STOP_NUM": "16009",
			"START_BUS_STOP_LATLNG": "1.29425341056334, 103.769883231977",
			"END_BUS_STOP_NUM": "16131",
			"END_BUS_STOP_LATLNG": "1.29487639088562, 103.769352010105",
			"DISTANCE": "0",
			"GEOMETRIES": "gx{FkpjxRjA`@BPB\\A|@{Au@}A]IA"
		},
		{
			"BUS_SEQUENCE": 2,
			"START_BUS_STOP": "OPP KENT RIDGE TER",
			"END_BUS_STOP": "TENTERA DIRAJA MQUE",
			"START_BUS_STOP_NUM": "16131",
			"START_BUS_STOP_LATLNG": "1.29487639088562, 103.769352010105",
			"END_BUS_STOP_NUM": "16141",
			"END_BUS_STOP_LATLNG": "1.29786833526113, 103.769595236506",
			"DISTANCE": "0.2",
			"GEOMETRIES": "y{{FqnjxRYCq@IcBEw@AO?S?_A?e@AeFU"
		},
		{
			"BUS_SEQUENCE": 3,
			"START_BUS_STOP": "TENTERA DIRAJA MQUE",
			"END_BUS_STOP": "THE JAPANESE PR SCH",
			"START_BUS_STOP_NUM": "16141",
			"START_BUS_STOP_LATLNG": "1.29786833526113, 103.769595236506",
			"END_BUS_STOP_NUM": "16151",
			"END_BUS_STOP_LATLNG": "1.30076138899694, 103.769935556024",
			"DISTANCE": "0.5",
			"GEOMETRIES": "qn|F_pjxRyAIaEA]?_@AwBGa@Gq@SSI"
		},
		{
			"BUS_SEQUENCE": 4,
			"START_BUS_STOP": "THE JAPANESE PR SCH",
			"END_BUS_STOP": "NEW TOWN SEC SCH",
			"START_BUS_STOP_NUM": "16151",
			"START_BUS_STOP_LATLNG": "1.30076138899694, 103.769935556024",
			"END_BUS_STOP_NUM": "19051",
			"END_BUS_STOP_LATLNG": "1.30898110021354, 103.773992337341",
			"DISTANCE": "0.8",
			"GEOMETRIES": "k`}F{qjxRmBs@u@WIEcAc@}@[a@MkA[UEk@MsBSoF?eA@g@?uBAsAEeCS_D_@cBSuDk@q@Ge@G`A}@v@_ATi@Lk@@m@@e@@c@DiA"
		},
		{
			"BUS_SEQUENCE": 5,
			"START_BUS_STOP": "NEW TOWN SEC SCH",
			"END_BUS_STOP": "AYER RAJAH TELECOMS",
			"START_BUS_STOP_NUM": "19051",
			"START_BUS_STOP_LATLNG": "1.30898110021354, 103.773992337341",
			"END_BUS_STOP_NUM": "19061",
			"END_BUS_STOP_LATLNG": "1.30752442673366, 103.777821224629",
			"DISTANCE": "2.1",
			"GEOMETRIES": "us~F_jkxRB}@Jg@Ns@hBmGFODOxAcEt@wB"
		},
		{
			"BUS_SEQUENCE": 6,
			"START_BUS_STOP": "AYER RAJAH TELECOMS",
			"END_BUS_STOP": "OPP ACS INDEPENDENT",
			"START_BUS_STOP_NUM": "19061",
			"START_BUS_STOP_LATLNG": "1.30752442673366, 103.777821224629",
			"END_BUS_STOP_NUM": "19071",
			"END_BUS_STOP_LATLNG": "1.30532870065264, 103.781011672135",
			"DISTANCE": "2.6",
			"GEOMETRIES": "mj~FcblxR`AoCFU`@{AHYNk@j@kA^i@`@]pA}@b@YnA{@XQ"
		},
		{
			"BUS_SEQUENCE": 7,
			"START_BUS_STOP": "OPP ACS INDEPENDENT",
			"END_BUS_STOP": "OPP ACS BOARDING SCH",
			"START_BUS_STOP_NUM": "19071",
			"START_BUS_STOP_LATLNG": "1.30532870065264, 103.781011672135",
			"END_BUS_STOP_NUM": "19081",
			"END_BUS_STOP_LATLNG": "1.30256972202724, 103.782824721994",
			"DISTANCE": "3.2",
			"GEOMETRIES": "y{}FevlxRvEoCbDqBdC}A"
		},
		{
			"BUS_SEQUENCE": 8,
			"START_BUS_STOP": "OPP ACS BOARDING SCH",
			"END_BUS_STOP": "FAIRFIELD METH PR SCH",
			"START_BUS_STOP_NUM": "19081",
			"START_BUS_STOP_LATLNG": "1.30256972202724, 103.782824721994",
			"END_BUS_STOP_NUM": "18111",
			"END_BUS_STOP_LATLNG": "1.30059305599352, 103.784484166989",
			"DISTANCE": "3.5",
			"GEOMETRIES": "wk}FeamxRf@[hB{AzAmAVWDCb@Wd@_@x@o@"
		},
		{
			"BUS_SEQUENCE": 9,
			"START_BUS_STOP": "FAIRFIELD METH PR SCH",
			"END_BUS_STOP": "AYER RAJAH IND EST",
			"START_BUS_STOP_NUM": "18111",
			"START_BUS_STOP_LATLNG": "1.30059305599352, 103.784484166989",
			"END_BUS_STOP_NUM": "18129",
			"END_BUS_STOP_LATLNG": "1.29776225378985, 103.785707676448",
			"DISTANCE": "3.8",
			"GEOMETRIES": "g_}FokmxRTSNM~AwAbAeAVWZD^Dv@Dt@?r@CfBWFA"
		},
		{
			"BUS_SEQUENCE": 10,
			"START_BUS_STOP": "AYER RAJAH IND EST",
			"END_BUS_STOP": "OPP PSB SCIENCE PK BLDG",
			"START_BUS_STOP_NUM": "18129",
			"START_BUS_STOP_LATLNG": "1.29776225378985, 103.785707676448",
			"END_BUS_STOP_NUM": "18109",
			"END_BUS_STOP_LATLNG": "1.29403436577434, 103.78672599789",
			"DISTANCE": "4.2",
			"GEOMETRIES": "wm|FsrmxRdAMbAKh@Y~AU`A]|Cs@rAYpAMjAY"
		},
		{
			"BUS_SEQUENCE": 11,
			"START_BUS_STOP": "OPP PSB SCIENCE PK BLDG",
			"END_BUS_STOP": "OPP SCIENCE PK",
			"START_BUS_STOP_NUM": "18109",
			"START_BUS_STOP_LATLNG": "1.29403436577434, 103.78672599789",
			"END_BUS_STOP_NUM": "18049",
			"END_BUS_STOP_LATLNG": "1.29034998894161, 103.791893663561",
			"DISTANCE": "4.6",
			"GEOMETRIES": "qv{FqymxRJCz@i@xAuApAgAvAwBrGsLxB_Gl@}@"
		},
		{
			"BUS_SEQUENCE": 12,
			"START_BUS_STOP": "OPP SCIENCE PK",
			"END_BUS_STOP": "ALEXANDRA HOSP",
			"START_BUS_STOP_NUM": "18049",
			"START_BUS_STOP_LATLNG": "1.29034998894161, 103.791893663561",
			"END_BUS_STOP_NUM": "11511",
			"END_BUS_STOP_LATLNG": "1.2859468736223, 103.802518844624",
			"DISTANCE": "5.4",
			"GEOMETRIES": "i~zFg{nxRp@cAdBuAdE_GbBwCvB{EhAuBrDqGxBoElAiCZmAHo@@]GsDE}@a@}Ai@[]OcBu@"
		},
		{
			"BUS_SEQUENCE": 13,
			"START_BUS_STOP": "ALEXANDRA HOSP",
			"END_BUS_STOP": "ANCHORPOINT",
			"START_BUS_STOP_NUM": "11511",
			"START_BUS_STOP_LATLNG": "1.2859468736223, 103.802518844624",
			"END_BUS_STOP_NUM": "11521",
			"END_BUS_STOP_LATLNG": "1.2885710102662, 103.805430030472",
			"DISTANCE": "6.8",
			"GEOMETRIES": "}czFe}pxRw@]_Ag@}@{@OWq@qA{@_BMUMS_AeBa@_@IIMKq@k@II??"
		},
		{
			"BUS_SEQUENCE": 14,
			"START_BUS_STOP": "ANCHORPOINT",
			"END_BUS_STOP": "OPP LEA HIN HARDWARE FTY",
			"START_BUS_STOP_NUM": "11521",
			"START_BUS_STOP_LATLNG": "1.2885710102662, 103.805430030472",
			"END_BUS_STOP_NUM": "11531",
			"END_BUS_STOP_LATLNG": "1.29108833302538, 103.807530833028",
			"DISTANCE": "7.2",
			"GEOMETRIES": "ctzFmoqxRA?{@q@YUy@q@[WaAw@QOiA}@_@YgCsBA?"
		},
		{
			"BUS_SEQUENCE": 15,
			"START_BUS_STOP": "OPP LEA HIN HARDWARE FTY",
			"END_BUS_STOP": "AFT DAWSON RD",
			"START_BUS_STOP_NUM": "11531",
			"START_BUS_STOP_LATLNG": "1.29108833302538, 103.807530833028",
			"END_BUS_STOP_NUM": "10299",
			"END_BUS_STOP_LATLNG": "1.29233498466278, 103.811464867677",
			"DISTANCE": "7.6",
			"GEOMETRIES": "yc{Fs|qxRII}AeAeA{@a@[GGa@[Ya@Sw@Es@Bq@TyBf@uF"
		},
		{
			"BUS_SEQUENCE": 16,
			"START_BUS_STOP": "AFT DAWSON RD",
			"END_BUS_STOP": "REDHILL STN",
			"START_BUS_STOP_NUM": "10299",
			"START_BUS_STOP_LATLNG": "1.29233498466278, 103.811464867677",
			"END_BUS_STOP_NUM": "10209",
			"END_BUS_STOP_LATLNG": "1.28954631749853, 103.816728854507",
			"DISTANCE": "8.1",
			"GEOMETRIES": "ek{FotrxR@E\\kD@IR{B\\{DXqCBWPeB@MhAHR@rBF|@U^{@p@aBh@gAPY"
		},
		{
			"BUS_SEQUENCE": 17,
			"START_BUS_STOP": "REDHILL STN",
			"END_BUS_STOP": "DELTA SWIM CPLX",
			"START_BUS_STOP_NUM": "10209",
			"START_BUS_STOP_LATLNG": "1.28954631749853, 103.816728854507",
			"END_BUS_STOP_NUM": "10199",
			"END_BUS_STOP_LATLNG": "1.28875723330649, 103.819366186622",
			"DISTANCE": "8.9",
			"GEOMETRIES": "azzFcusxRvAuBn@{ABe@HiDDyB"
		},
		{
			"BUS_SEQUENCE": 18,
			"START_BUS_STOP": "DELTA SWIM CPLX",
			"END_BUS_STOP": "BLK 104A CP",
			"START_BUS_STOP_NUM": "10199",
			"START_BUS_STOP_LATLNG": "1.28875723330649, 103.819366186622",
			"END_BUS_STOP_NUM": "10189",
			"END_BUS_STOP_LATLNG": "1.28858805222806, 103.821831928652",
			"DISTANCE": "9.2",
			"GEOMETRIES": "euzF_ftxRZmN"
		},
		{
			"BUS_SEQUENCE": 19,
			"START_BUS_STOP": "BLK 104A CP",
			"END_BUS_STOP": "TIONG BAHRU PK",
			"START_BUS_STOP_NUM": "10189",
			"START_BUS_STOP_LATLNG": "1.28858805222806, 103.821831928652",
			"END_BUS_STOP_NUM": "10179",
			"END_BUS_STOP_LATLNG": "1.28722333302937, 103.823958333014",
			"DISTANCE": "9.5",
			"GEOMETRIES": "itzFmutxR@SR{@d@iAp@w@dDkE"
		},
		{
			"BUS_SEQUENCE": 20,
			"START_BUS_STOP": "TIONG BAHRU PK",
			"END_BUS_STOP": "TIONG BAHRU STN",
			"START_BUS_STOP_NUM": "10179",
			"START_BUS_STOP_LATLNG": "1.28722333302937, 103.823958333014",
			"END_BUS_STOP_NUM": "10169",
			"END_BUS_STOP_LATLNG": "1.28599961406266, 103.82748123931",
			"DISTANCE": "9.8",
			"GEOMETRIES": "ukzFkbuxRbAoAr@wAn@iBd@kDNqAL_CHy@"
		},
		{
			"BUS_SEQUENCE": 21,
			"START_BUS_STOP": "TIONG BAHRU STN",
			"END_BUS_STOP": "BLK 1",
			"START_BUS_STOP_NUM": "10169",
			"START_BUS_STOP_LATLNG": "1.28599961406266, 103.82748123931",
			"END_BUS_STOP_NUM": "10149",
			"END_BUS_STOP_LATLNG": "1.28606797463712, 103.832833843111",
			"DISTANCE": "10.3",
			"GEOMETRIES": "_dzFuxuxR??D]BWD_AAy@CwECeCK{JC{C?G"
		}
	]
}