{
	"BUS_DIRECTION_ONE": [
		{
			"BUS_SEQUENCE": 1,
			"START_BUS_STOP": "BEDOK INTERCHANGE",
			"END_BUS_STOP": "OPP BLK 32",
			"START_BUS_STOP_NUM": "84009",
			"START_BUS_STOP_LATLNG": "1.32453874317344, 103.929038185158",
			"END_BUS_STOP_NUM": "84029",
			"END_BUS_STOP_LATLNG": "1.32299826971585, 103.925222252398",
			"DISTANCE": "0",
			"GEOMETRIES": "euaGosiyRHn@cDn@KhFJVTTb@JtDU|@E\\Cf@EFj@p@bILz@"
		},
		{
			"BUS_SEQUENCE": 2,
			"START_BUS_STOP": "OPP BLK 32",
			"END_BUS_STOP": "OPP CHAI CHEE IND PK",
			"START_BUS_STOP_NUM": "84029",
			"START_BUS_STOP_LATLNG": "1.32299826971585, 103.925222252398",
			"END_BUS_STOP_NUM": "84019",
			"END_BUS_STOP_LATLNG": "1.32221972730517, 103.922620155309",
			"DISTANCE": "0.7",
			"GEOMETRIES": "claGe{hyRvA`Jv@~C"
		},
		{
			"BUS_SEQUENCE": 3,
			"START_BUS_STOP": "OPP CHAI CHEE IND PK",
			"END_BUS_STOP": "AFT PERPETUAL SUCCOUR CH",
			"START_BUS_STOP_NUM": "84019",
			"START_BUS_STOP_LATLNG": "1.32221972730517, 103.922620155309",
			"END_BUS_STOP_NUM": "83099",
			"END_BUS_STOP_LATLNG": "1.32076378388187, 103.918104276387",
			"DISTANCE": "1",
			"GEOMETRIES": "sgaGckhyR|CfM`@jBVbBnAlF"
		},
		{
			"BUS_SEQUENCE": 4,
			"START_BUS_STOP": "AFT PERPETUAL SUCCOUR CH",
			"END_BUS_STOP": "BEF SIGLAP PLAIN",
			"START_BUS_STOP_NUM": "83099",
			"START_BUS_STOP_LATLNG": "1.32076378388187, 103.918104276387",
			"END_BUS_STOP_NUM": "83079",
			"END_BUS_STOP_LATLNG": "1.31976833302337, 103.915054167014",
			"DISTANCE": "1.5",
			"GEOMETRIES": "k~`G}ngyR??Nn@XlAtAdGh@|B`@|A"
		},
		{
			"BUS_SEQUENCE": 5,
			"START_BUS_STOP": "BEF SIGLAP PLAIN",
			"END_BUS_STOP": "MJD KASSIM",
			"START_BUS_STOP_NUM": "83079",
			"START_BUS_STOP_LATLNG": "1.31976833302337, 103.915054167014",
			"END_BUS_STOP_NUM": "83059",
			"END_BUS_STOP_LATLNG": "1.31888900641724, 103.912226704262",
			"DISTANCE": "1.9",
			"GEOMETRIES": "_x`G}{fyRH\\J\\h@|Bz@`D\\pCLfA"
		},
		{
			"BUS_SEQUENCE": 6,
			"START_BUS_STOP": "MJD KASSIM",
			"END_BUS_STOP": "BEF LOR 110 CHANGI",
			"START_BUS_STOP_NUM": "83059",
			"START_BUS_STOP_LATLNG": "1.31888900641724, 103.912226704262",
			"END_BUS_STOP_NUM": "83049",
			"END_BUS_STOP_LATLNG": "1.318489754773, 103.91002178192",
			"DISTANCE": "2.3",
			"GEOMETRIES": "wr`GgjfyRP|AHl@P~AHn@\\xC"
		},
		{
			"BUS_SEQUENCE": 7,
			"START_BUS_STOP": "BEF LOR 110 CHANGI",
			"END_BUS_STOP": "AFT CHANGI RD",
			"START_BUS_STOP_NUM": "83049",
			"START_BUS_STOP_LATLNG": "1.318489754773, 103.91002178192",
			"END_BUS_STOP_NUM": "83149",
			"END_BUS_STOP_LATLNG": "1.31745755005277, 103.908754863212",
			"DISTANCE": "2.5",
			"GEOMETRIES": "ap`Gq|eyRLfADXLlAf@`DRIfCy@"
		},
		{
			"BUS_SEQUENCE": 8,
			"START_BUS_STOP": "AFT CHANGI RD",
			"END_BUS_STOP": "OPP PARKWAY EAST HOSP",
			"START_BUS_STOP_NUM": "83149",
			"START_BUS_STOP_LATLNG": "1.31745755005277, 103.908754863212",
			"END_BUS_STOP_NUM": "83159",
			"END_BUS_STOP_LATLNG": "1.31480354064185, 103.909477670424",
			"DISTANCE": "2.8",
			"GEOMETRIES": "{h`GcteyRlBo@PEl@QrBq@jBm@~Ak@Hr@"
		},
		{
			"BUS_SEQUENCE": 9,
			"START_BUS_STOP": "OPP PARKWAY EAST HOSP",
			"END_BUS_STOP": "BEF STILL RD",
			"START_BUS_STOP_NUM": "83159",
			"START_BUS_STOP_LATLNG": "1.31480354064185, 103.909477670424",
			"END_BUS_STOP_NUM": "83169",
			"END_BUS_STOP_LATLNG": "1.31428121358171, 103.906870338088",
			"DISTANCE": "3.1",
			"GEOMETRIES": "cy_GcyeyRp@bFx@dH"
		},
		{
			"BUS_SEQUENCE": 10,
			"START_BUS_STOP": "BEF STILL RD",
			"END_BUS_STOP": "AFT RAMBUTAN RD",
			"START_BUS_STOP_NUM": "83169",
			"START_BUS_STOP_LATLNG": "1.31428121358171, 103.906870338088",
			"END_BUS_STOP_NUM": "82179",
			"END_BUS_STOP_LATLNG": "1.31383213839694, 103.904532118978",
			"DISTANCE": "3.4",
			"GEOMETRIES": "wu_GyheyRTjBTnCZlDDh@"
		},
		{
			"BUS_SEQUENCE": 11,
			"START_BUS_STOP": "AFT RAMBUTAN RD",
			"END_BUS_STOP": "AFT TEMBELING RD",
			"START_BUS_STOP_NUM": "82179",
			"START_BUS_STOP_LATLNG": "1.31383213839694, 103.904532118978",
			"END_BUS_STOP_NUM": "82159",
			"END_BUS_STOP_LATLNG": "1.31327026591962, 103.900495726455",
			"DISTANCE": "3.7",
			"GEOMETRIES": "is_GezdyRZ|Dl@hHT|BRbCHz@"
		}
	]
}