{
	"BUS_DIRECTION_ONE": [
		{
			"BUS_SEQUENCE": 1,
			"START_BUS_STOP": "MARINA CTR TER",
			"END_BUS_STOP": "AFT S'PORE FLYER",
			"START_BUS_STOP_NUM": "02099",
			"START_BUS_STOP_LATLNG": "1.29081586641499, 103.861998252568",
			"END_BUS_STOP_NUM": "02101",
			"END_BUS_STOP_LATLNG": "1.28938483786533, 103.861831481163",
			"DISTANCE": "0",
			"GEOMETRIES": "sb{F}o|xRwAIDqAJ{@Pk@TSZCh@J~A`@pA^ZPNRJh@AZAn@"
		},
		{
			"BUS_SEQUENCE": 2,
			"START_BUS_STOP": "AFT S'PORE FLYER",
			"END_BUS_STOP": "THE FLOAT @ MARINA BAY",
			"START_BUS_STOP_NUM": "02101",
			"START_BUS_STOP_LATLNG": "1.28938483786533, 103.861831481163",
			"END_BUS_STOP_NUM": "02051",
			"END_BUS_STOP_LATLNG": "1.2895030556082, 103.859033888993",
			"DISTANCE": "0.4",
			"GEOMETRIES": "ezzFoo|xR??APIhDE~AI|CA^EtA??"
		},
		{
			"BUS_SEQUENCE": 3,
			"START_BUS_STOP": "THE FLOAT @ MARINA BAY",
			"END_BUS_STOP": "THE ESPLANADE",
			"START_BUS_STOP_NUM": "02051",
			"START_BUS_STOP_LATLNG": "1.2895030556082, 103.859033888993",
			"END_BUS_STOP_NUM": "02061",
			"END_BUS_STOP_LATLNG": "1.2899638888957, 103.856403888863",
			"DISTANCE": "0.8",
			"GEOMETRIES": "i{zF_~{xR??Af@Cn@EpBExAGrBCRq@xA"
		},
		{
			"BUS_SEQUENCE": 4,
			"START_BUS_STOP": "THE ESPLANADE",
			"END_BUS_STOP": "CITY HALL STN EXIT B",
			"START_BUS_STOP_NUM": "02061",
			"START_BUS_STOP_LATLNG": "1.2899638888957, 103.856403888863",
			"END_BUS_STOP_NUM": "04167",
			"END_BUS_STOP_LATLNG": "1.29250006522444, 103.851453154686",
			"DISTANCE": "1.1",
			"GEOMETRIES": "y}zFym{xR??A@wBfC_BpB}@bACDi@l@{@p@uArA}@~Ag@dAk@`Ag@~@a@r@K\\pBbAzAx@@?"
		},
		{
			"BUS_SEQUENCE": 5,
			"START_BUS_STOP": "CITY HALL STN EXIT B",
			"END_BUS_STOP": "OPP THE TREASURY",
			"START_BUS_STOP_NUM": "04167",
			"START_BUS_STOP_LATLNG": "1.29250006522444, 103.851453154686",
			"END_BUS_STOP_NUM": "04249",
			"END_BUS_STOP_LATLNG": "1.29043039362749, 103.850262165082",
			"DISTANCE": "1.8",
			"GEOMETRIES": "im{FgnzxRRJx@`@dAj@tExBFBf@X"
		},
		{
			"BUS_SEQUENCE": 6,
			"START_BUS_STOP": "OPP THE TREASURY",
			"END_BUS_STOP": "BOAT QUAY",
			"START_BUS_STOP_NUM": "04249",
			"START_BUS_STOP_LATLNG": "1.29043039362749, 103.850262165082",
			"END_BUS_STOP_NUM": "05029",
			"END_BUS_STOP_LATLNG": "1.28712283362119, 103.848197808225",
			"DISTANCE": "2.1",
			"GEOMETRIES": "o`{FufzxRx@d@pBhAd@VjB~@pAv@ZJRFRJVLxAr@lAj@FD"
		},
		{
			"BUS_SEQUENCE": 7,
			"START_BUS_STOP": "BOAT QUAY",
			"END_BUS_STOP": "CLARKE QUAY STN EXIT E",
			"START_BUS_STOP_NUM": "05029",
			"START_BUS_STOP_LATLNG": "1.28712283362119, 103.848197808225",
			"END_BUS_STOP_NUM": "04222",
			"END_BUS_STOP_LATLNG": "1.28898962180798, 103.847089763656",
			"DISTANCE": "2.5",
			"GEOMETRIES": "skzFazyxRnB~@JDPNi@nAsBjFW`@O?WGaA}@kA_A_Aq@m@g@UO"
		},
		{
			"BUS_SEQUENCE": 8,
			"START_BUS_STOP": "CLARKE QUAY STN EXIT E",
			"END_BUS_STOP": "CLARKE QUAY",
			"START_BUS_STOP_NUM": "04222",
			"START_BUS_STOP_LATLNG": "1.28898962180798, 103.847089763656",
			"END_BUS_STOP_NUM": "04211",
			"END_BUS_STOP_LATLNG": "1.29043611099357, 103.847124443981",
			"DISTANCE": "3.1",
			"GEOMETRIES": "uvzF}syxRyBcBiAy@[EQBOP{@tBMR"
		},
		{
			"BUS_SEQUENCE": 9,
			"START_BUS_STOP": "CLARKE QUAY",
			"END_BUS_STOP": "BEF FORT CANNING STN",
			"START_BUS_STOP_NUM": "04211",
			"START_BUS_STOP_LATLNG": "1.29043611099357, 103.847124443981",
			"END_BUS_STOP_NUM": "04331",
			"END_BUS_STOP_LATLNG": "1.29183939433256, 103.845037324621",
			"DISTANCE": "3.4",
			"GEOMETRIES": "aa{FatyxRuBrDMRIN]j@q@fA{@pA"
		},
		{
			"BUS_SEQUENCE": 10,
			"START_BUS_STOP": "BEF FORT CANNING STN",
			"END_BUS_STOP": "UE SQ/BEF MOHD SULTAN RD",
			"START_BUS_STOP_NUM": "04331",
			"START_BUS_STOP_LATLNG": "1.29183939433256, 103.845037324621",
			"END_BUS_STOP_NUM": "13109",
			"END_BUS_STOP_LATLNG": "1.29350944398488, 103.842724167027",
			"DISTANCE": "3.7",
			"GEOMETRIES": "{i{FcgyxRuAvBQRGHIJSVSVi@z@GJGJg@`A_@r@a@z@"
		},
		{
			"BUS_SEQUENCE": 11,
			"START_BUS_STOP": "UE SQ/BEF MOHD SULTAN RD",
			"END_BUS_STOP": "AFT UNITY ST",
			"START_BUS_STOP_NUM": "13109",
			"START_BUS_STOP_LATLNG": "1.29350944398488, 103.842724167027",
			"END_BUS_STOP_NUM": "13211",
			"END_BUS_STOP_LATLNG": "1.29241699362676, 103.841095990069",
			"DISTANCE": "4",
			"GEOMETRIES": "at{FkxxxR[l@ABoAjAtHhEVRBB"
		},
		{
			"BUS_SEQUENCE": 12,
			"START_BUS_STOP": "AFT UNITY ST",
			"END_BUS_STOP": "HOTEL MIRAMAR",
			"START_BUS_STOP_NUM": "13211",
			"START_BUS_STOP_LATLNG": "1.29241699362676, 103.841095990069",
			"END_BUS_STOP_NUM": "06151",
			"END_BUS_STOP_LATLNG": "1.28870976841461, 103.837372769692",
			"DISTANCE": "4.3",
			"GEOMETRIES": "}l{FkmxxRfAt@|@jAbA~Az@bBXpAX|@TH|@XdDdAbD|@GvA"
		},
		{
			"BUS_SEQUENCE": 13,
			"START_BUS_STOP": "HOTEL MIRAMAR",
			"END_BUS_STOP": "HOLIDAY INN ATRIUM",
			"START_BUS_STOP_NUM": "06151",
			"START_BUS_STOP_LATLNG": "1.28870976841461, 103.837372769692",
			"END_BUS_STOP_NUM": "06141",
			"END_BUS_STOP_LATLNG": "1.28963300933975, 103.833812419218",
			"DISTANCE": "4.9",
			"GEOMETRIES": "mvzFuvwxREr@?HAJAJALe@rDIt@m@tCCJcArE"
		},
		{
			"BUS_SEQUENCE": 14,
			"START_BUS_STOP": "HOLIDAY INN ATRIUM",
			"END_BUS_STOP": "THE BOYS' BRIGADE HQ",
			"START_BUS_STOP_NUM": "06141",
			"START_BUS_STOP_LATLNG": "1.28963300933975, 103.833812419218",
			"END_BUS_STOP_NUM": "06131",
			"END_BUS_STOP_LATLNG": "1.29152472200833, 103.832227500015",
			"DISTANCE": "5.4",
			"GEOMETRIES": "_|zFq`wxR[vAEPgDnAu@f@qA|@[T"
		},
		{
			"BUS_SEQUENCE": 15,
			"START_BUS_STOP": "THE BOYS' BRIGADE HQ",
			"END_BUS_STOP": "OPP GREAT WORLD CITY",
			"START_BUS_STOP_NUM": "06131",
			"START_BUS_STOP_LATLNG": "1.29152472200833, 103.832227500015",
			"END_BUS_STOP_NUM": "13121",
			"END_BUS_STOP_LATLNG": "1.29409221679274, 103.83083776408",
			"DISTANCE": "5.7",
			"GEOMETRIES": "mg{F{vvxRsC~BaBz@cAVyCr@e@N"
		},
		{
			"BUS_SEQUENCE": 16,
			"START_BUS_STOP": "OPP GREAT WORLD CITY",
			"END_BUS_STOP": "AFT ZION FULL GOSPEL CH",
			"START_BUS_STOP_NUM": "13121",
			"START_BUS_STOP_LATLNG": "1.29409221679274, 103.83083776408",
			"END_BUS_STOP_NUM": "13141",
			"END_BUS_STOP_LATLNG": "1.29763682834545, 103.829979863479",
			"DISTANCE": "6",
			"GEOMETRIES": "gw{FcnvxRgA\\_F|A{Jj@[?"
		},
		{
			"BUS_SEQUENCE": 17,
			"START_BUS_STOP": "AFT ZION FULL GOSPEL CH",
			"END_BUS_STOP": "BEF ORCHARD BLVD",
			"START_BUS_STOP_NUM": "13141",
			"START_BUS_STOP_LATLNG": "1.29763682834545, 103.829979863479",
			"END_BUS_STOP_NUM": "13191",
			"END_BUS_STOP_LATLNG": "1.30246399302722, 103.829782452963",
			"DISTANCE": "6.4",
			"GEOMETRIES": "gm|F{hvxRwDJuA@q@COFa@LcA^iEpA{AGaBg@wBcA"
		},
		{
			"BUS_SEQUENCE": 18,
			"START_BUS_STOP": "BEF ORCHARD BLVD",
			"END_BUS_STOP": "ORCHARD STN/LUCKY PLAZA",
			"START_BUS_STOP_NUM": "13191",
			"START_BUS_STOP_LATLNG": "1.30246399302722, 103.829782452963",
			"END_BUS_STOP_NUM": "09048",
			"END_BUS_STOP_LATLNG": "1.30386684425114, 103.834130700514",
			"DISTANCE": "7",
			"GEOMETRIES": "}j}F}gvxReBw@_Bs@kBy@MIgAm@]WkBmBMKt@}A|B{EhAiCHO"
		},
		{
			"BUS_SEQUENCE": 19,
			"START_BUS_STOP": "ORCHARD STN/LUCKY PLAZA",
			"END_BUS_STOP": "OPP SOMERSET STN",
			"START_BUS_STOP_NUM": "09048",
			"START_BUS_STOP_LATLNG": "1.30386684425114, 103.834130700514",
			"END_BUS_STOP_NUM": "09038",
			"END_BUS_STOP_LATLNG": "1.30154262450563, 103.838524818423",
			"DISTANCE": "7.7",
			"GEOMETRIES": "us}FabwxRN_@J[~CeHZg@n@sAb@cA`A_CFQvA}D"
		},
		{
			"BUS_SEQUENCE": 20,
			"START_BUS_STOP": "OPP SOMERSET STN",
			"END_BUS_STOP": "CONCORDE HOTEL S'PORE",
			"START_BUS_STOP_NUM": "09038",
			"START_BUS_STOP_LATLNG": "1.30154262450563, 103.838524818423",
			"END_BUS_STOP_NUM": "08138",
			"END_BUS_STOP_LATLNG": "1.3004785730821, 103.841847006076",
			"DISTANCE": "8.3",
			"GEOMETRIES": "ge}Fs}wxRPe@FU`@eBn@mCh@gC^eBd@yB"
		},
		{
			"BUS_SEQUENCE": 21,
			"START_BUS_STOP": "CONCORDE HOTEL S'PORE",
			"END_BUS_STOP": "DHOBY GHAUT STN",
			"START_BUS_STOP_NUM": "08138",
			"START_BUS_STOP_LATLNG": "1.3004785730821, 103.841847006076",
			"END_BUS_STOP_NUM": "08057",
			"END_BUS_STOP_LATLNG": "1.29930997279734, 103.845290214297",
			"DISTANCE": "8.7",
			"GEOMETRIES": "k~|FkrxxRDSbAwEp@uCl@qCNq@DG^cB"
		},
		{
			"BUS_SEQUENCE": 22,
			"START_BUS_STOP": "DHOBY GHAUT STN",
			"END_BUS_STOP": "SCH OF THE ARTS",
			"START_BUS_STOP_NUM": "08057",
			"START_BUS_STOP_LATLNG": "1.29930997279734, 103.845290214297",
			"END_BUS_STOP_NUM": "08079",
			"END_BUS_STOP_LATLNG": "1.29921444445586, 103.84910329218",
			"DISTANCE": "9.1",
			"GEOMETRIES": "kw|F}gyxR??`@eBpAyFE_BGeCJu@Pq@kB_B"
		},
		{
			"BUS_SEQUENCE": 23,
			"START_BUS_STOP": "SCH OF THE ARTS",
			"END_BUS_STOP": "PEACE CTR",
			"START_BUS_STOP_NUM": "08079",
			"START_BUS_STOP_LATLNG": "1.29921444445586, 103.84910329218",
			"END_BUS_STOP_NUM": "07011",
			"END_BUS_STOP_LATLNG": "1.30099699058522, 103.849810187431",
			"DISTANCE": "9.6",
			"GEOMETRIES": "sv|Fk`zxRo@i@o@WoGkA"
		},
		{
			"BUS_SEQUENCE": 24,
			"START_BUS_STOP": "PEACE CTR",
			"END_BUS_STOP": "SELEGIE CTR",
			"START_BUS_STOP_NUM": "07011",
			"START_BUS_STOP_LATLNG": "1.30099699058522, 103.849810187431",
			"END_BUS_STOP_NUM": "07021",
			"END_BUS_STOP_LATLNG": "1.30372354572677, 103.850036756529",
			"DISTANCE": "9.8",
			"GEOMETRIES": "cb}FydzxRs@M]Eo@AaAIqEAIAuAGi@G"
		},
		{
			"BUS_SEQUENCE": 25,
			"START_BUS_STOP": "SELEGIE CTR",
			"END_BUS_STOP": "LITTLE INDIA STN EXIT A",
			"START_BUS_STOP_NUM": "07021",
			"START_BUS_STOP_LATLNG": "1.30372354572677, 103.850036756529",
			"END_BUS_STOP_NUM": "40011",
			"END_BUS_STOP_LATLNG": "1.30606411522589, 103.84908751469",
			"DISTANCE": "10.1",
			"GEOMETRIES": "cs}FmfzxRG?]Ii@KWO[QiAq@oBhBgCfD[`@A@"
		},
		{
			"BUS_SEQUENCE": 26,
			"START_BUS_STOP": "LITTLE INDIA STN EXIT A",
			"END_BUS_STOP": "OPP LUTHERAN TWRS",
			"START_BUS_STOP_NUM": "40011",
			"START_BUS_STOP_LATLNG": "1.30606411522589, 103.84908751469",
			"END_BUS_STOP_NUM": "41119",
			"END_BUS_STOP_LATLNG": "1.32074221277671, 103.812453746789",
			"DISTANCE": "10.4",
			"GEOMETRIES": "gb~Fa`zxR??cIjKYVOPsB`AaA`@uAl@g@Zy@x@g@n@A@_@p@k@hBMj@Mh@Qf@Sl@[dACFSn@e@lAWr@e@jAa@jASjBUz@Qh@YbAwA~DYx@FJDb@CPIN[Pa@BQEKIiCvByAnAcBvAgAf@gDvCcGhFKRO`@uCfMoApFi@|Ba@~A]xAOp@YlAg@xBm@nDCLc@vBg@rB]pAAHk@|Ba@dBkAxEOt@]tAOl@s@`Do@fDmAbHG\\]`CAFYbC]|GAvB@t@S|CGz@Ep@QdDHf@HRLNVJ`@Bl@F`AL`AX`DlC"
		},
		{
			"BUS_SEQUENCE": 38,
			"START_BUS_STOP": "OPP LUTHERAN TWRS",
			"END_BUS_STOP": "OPP ST. MARGARET'S SEC SCH",
			"START_BUS_STOP_NUM": "41119",
			"START_BUS_STOP_LATLNG": "1.32074221277671, 103.812453746789",
			"END_BUS_STOP_NUM": "41109",
			"END_BUS_STOP_LATLNG": "1.31944666701923, 103.810528611016",
			"DISTANCE": "15.4",
			"GEOMETRIES": "_~`GmzrxRd@`@hBjBh@r@N^@`@t@tB??"
		},
		{
			"BUS_SEQUENCE": 39,
			"START_BUS_STOP": "OPP ST. MARGARET'S SEC SCH",
			"END_BUS_STOP": "FARRER RD STN EXIT A",
			"START_BUS_STOP_NUM": "41109",
			"START_BUS_STOP_LATLNG": "1.31944666701923, 103.810528611016",
			"END_BUS_STOP_NUM": "11119",
			"END_BUS_STOP_LATLNG": "1.31747833490912, 103.807856067286",
			"DISTANCE": "15.7",
			"GEOMETRIES": "}u`GsnrxRVp@~@`Cz@vAjAtAjAjA~AjB"
		},
		{
			"BUS_SEQUENCE": 40,
			"START_BUS_STOP": "FARRER RD STN EXIT A",
			"END_BUS_STOP": "SPANISH VILLAGE",
			"START_BUS_STOP_NUM": "11119",
			"START_BUS_STOP_LATLNG": "1.31747833490912, 103.807856067286",
			"END_BUS_STOP_NUM": "11109",
			"END_BUS_STOP_LATLNG": "1.31552472199926, 103.805743056028",
			"DISTANCE": "16.1",
			"GEOMETRIES": "qi`Gy}qxRlBvB~AfB`BdBz@fAVX"
		},
		{
			"BUS_SEQUENCE": 41,
			"START_BUS_STOP": "SPANISH VILLAGE",
			"END_BUS_STOP": "OPP TULIP GDN",
			"START_BUS_STOP_NUM": "11109",
			"START_BUS_STOP_LATLNG": "1.31552472199926, 103.805743056028",
			"END_BUS_STOP_NUM": "11099",
			"END_BUS_STOP_LATLNG": "1.31305333300118, 103.804376666976",
			"DISTANCE": "16.4",
			"GEOMETRIES": "m}_GqpqxR`AfAfAz@n@\\l@Xz@VpEbA"
		},
		{
			"BUS_SEQUENCE": 42,
			"START_BUS_STOP": "OPP TULIP GDN",
			"END_BUS_STOP": "AFT ESTORIL MANS",
			"START_BUS_STOP_NUM": "11099",
			"START_BUS_STOP_LATLNG": "1.31305333300118, 103.804376666976",
			"END_BUS_STOP_NUM": "11231",
			"END_BUS_STOP_LATLNG": "1.31115316310297, 103.80119919778",
			"DISTANCE": "16.7",
			"GEOMETRIES": "wm_GygqxRXHhAN~F|@jARbAPQz@Or@SbAm@jD[fBIZ"
		},
		{
			"BUS_SEQUENCE": 43,
			"START_BUS_STOP": "AFT ESTORIL MANS",
			"END_BUS_STOP": "HOLLAND VILLAGE",
			"START_BUS_STOP_NUM": "11231",
			"START_BUS_STOP_LATLNG": "1.31115316310297, 103.80119919778",
			"END_BUS_STOP_NUM": "11261",
			"END_BUS_STOP_LATLNG": "1.31223168432152, 103.794446218385",
			"DISTANCE": "17.2",
			"GEOMETRIES": "mb_GwtpxRc@fB_@hAY\\}@fBkBhDc@dAMh@Ed@Af@Dh@Jj@h@rA\\~@`@x@h@lAHh@Ft@Ab@El@Mp@]x@OR"
		},
		{
			"BUS_SEQUENCE": 44,
			"START_BUS_STOP": "HOLLAND VILLAGE",
			"END_BUS_STOP": "BLK 355",
			"START_BUS_STOP_NUM": "11261",
			"START_BUS_STOP_LATLNG": "1.31223168432152, 103.794446218385",
			"END_BUS_STOP_NUM": "17249",
			"END_BUS_STOP_LATLNG": "1.31517062959456, 103.769341039523",
			"DISTANCE": "18",
			"GEOMETRIES": "{h_GsjoxR{@hA{B`Ds@~Aa@nB]~A_@bAi@rAs@|AiAtASVkBbBuB`Cq@|@c@j@mDpDq@|@W`@O^Ut@I~@Gx@m@vIEx@WjAc@dAe@t@UX]b@YXoAjAyBrBY`@y@~Ak@hBUpAEx@?@C|@Bx@H`AL`BZzDHtACx@?@M~B@bA^|Ad@fAf@|@Tj@b@~A??Pl@rAzDNh@DX??Hh@Vn@J^b@d@n@\\hBYhEm@v@K`@GDXTjAf@~BNd@JZNTNTRZPVd@f@JL@@p@j@"
		},
		{
			"BUS_SEQUENCE": 53,
			"START_BUS_STOP": "BLK 355",
			"END_BUS_STOP": "BLK 455",
			"START_BUS_STOP_NUM": "17249",
			"START_BUS_STOP_LATLNG": "1.31517062959456, 103.769341039523",
			"END_BUS_STOP_NUM": "17161",
			"END_BUS_STOP_LATLNG": "1.31240993603605, 103.766854768751",
			"DISTANCE": "21.7",
			"GEOMETRIES": "g{_G{ljxRHF~@h@hAd@z@XRFPFvBn@ZHJBVHtBl@bAXPFGN[`Aw@~AA@"
		},
		{
			"BUS_SEQUENCE": 54,
			"START_BUS_STOP": "BLK 455",
			"END_BUS_STOP": "CLEMENTI STN EXIT A",
			"START_BUS_STOP_NUM": "17161",
			"START_BUS_STOP_LATLNG": "1.31240993603605, 103.766854768751",
			"END_BUS_STOP_NUM": "17171",
			"END_BUS_STOP_LATLNG": "1.31497399268611, 103.765026982644",
			"DISTANCE": "22.2",
			"GEOMETRIES": "kj_Gm~ixRIJ_AlA[Z[Xy@j@mAn@aA^uAd@uAb@?@"
		},
		{
			"BUS_SEQUENCE": 55,
			"START_BUS_STOP": "CLEMENTI STN EXIT A",
			"END_BUS_STOP": "OPP BLK 317",
			"START_BUS_STOP_NUM": "17171",
			"START_BUS_STOP_LATLNG": "1.31497399268611, 103.765026982644",
			"END_BUS_STOP_NUM": "17181",
			"END_BUS_STOP_LATLNG": "1.31749570803723, 103.763885458243",
			"DISTANCE": "22.6",
			"GEOMETRIES": "cz_GusixR[JiA\\c@L}@^aCr@i@T}@`@eAl@??"
		},
		{
			"BUS_SEQUENCE": 56,
			"START_BUS_STOP": "OPP BLK 317",
			"END_BUS_STOP": "NAN HUA PR SCH",
			"START_BUS_STOP_NUM": "17181",
			"START_BUS_STOP_LATLNG": "1.31749570803723, 103.763885458243",
			"END_BUS_STOP_NUM": "20101",
			"END_BUS_STOP_LATLNG": "1.31993714188513, 103.762219267304",
			"DISTANCE": "22.9",
			"GEOMETRIES": "{i`GclixR??g@XuAv@SL_B`AMH[NUNMFkBhA_Ah@"
		},
		{
			"BUS_SEQUENCE": 57,
			"START_BUS_STOP": "NAN HUA PR SCH",
			"END_BUS_STOP": "BLK 209",
			"START_BUS_STOP_NUM": "20101",
			"START_BUS_STOP_LATLNG": "1.31993714188513, 103.762219267304",
			"END_BUS_STOP_NUM": "28311",
			"END_BUS_STOP_LATLNG": "1.33825277511898, 103.741083519052",
			"DISTANCE": "23.2",
			"GEOMETRIES": "gy`G{aixRkCxAwBjAq@\\EBcBhAgHlEeAx@w@r@]`@oAvAs@~@{@vA}@bBi@tAGPmAlGKb@uC|My@nCCJSj@M\\Yr@cAxBe@`AABiAbB{DbFA@GFw@v@cAhACBo@z@{@hAyBdCe@h@]d@oBhCSXiChDWZWVy@~@{@z@w@h@oBlA}DxB_Ah@EB_At@e@n@]r@}@nD_@`BMh@[[uAsAaA}@"
		},
		{
			"BUS_SEQUENCE": 64,
			"START_BUS_STOP": "BLK 209",
			"END_BUS_STOP": "BLK 239",
			"START_BUS_STOP_NUM": "28311",
			"START_BUS_STOP_LATLNG": "1.33825277511898, 103.741083519052",
			"END_BUS_STOP_NUM": "28321",
			"END_BUS_STOP_LATLNG": "1.34127166427214, 103.740903139083",
			"DISTANCE": "26.6",
			"GEOMETRIES": "ojdGk}dxRq@m@oCmBSOOKiH{ESOaAfCCJSt@ANC\\?`C@`B"
		},
		{
			"BUS_SEQUENCE": 65,
			"START_BUS_STOP": "BLK 239",
			"END_BUS_STOP": "BLK 229",
			"START_BUS_STOP_NUM": "28321",
			"START_BUS_STOP_LATLNG": "1.34127166427214, 103.740903139083",
			"END_BUS_STOP_NUM": "28331",
			"END_BUS_STOP_LATLNG": "1.34204392869092, 103.738049268721",
			"DISTANCE": "27.3",
			"GEOMETRIES": "q~dGs{dxR@xEQpA_@`AoAlC[p@"
		},
		{
			"BUS_SEQUENCE": 66,
			"START_BUS_STOP": "BLK 229",
			"END_BUS_STOP": "PARC OASIS",
			"START_BUS_STOP_NUM": "28331",
			"START_BUS_STOP_LATLNG": "1.34204392869092, 103.738049268721",
			"END_BUS_STOP_NUM": "28451",
			"END_BUS_STOP_LATLNG": "1.34394189080479, 103.734659981586",
			"DISTANCE": "27.7",
			"GEOMETRIES": "mceGejdxRm@pAcCjFo@pA{@fBuAxCIR"
		},
		{
			"BUS_SEQUENCE": 67,
			"START_BUS_STOP": "PARC OASIS",
			"END_BUS_STOP": "BLK 347",
			"START_BUS_STOP_NUM": "28451",
			"START_BUS_STOP_LATLNG": "1.34394189080479, 103.734659981586",
			"END_BUS_STOP_NUM": "28461",
			"END_BUS_STOP_LATLNG": "1.345332402809, 103.732053836572",
			"DISTANCE": "28.2",
			"GEOMETRIES": "koeG_ucxR}@lBOj@Y~@w@vC]v@Y\\MPi@f@"
		},
		{
			"BUS_SEQUENCE": 68,
			"START_BUS_STOP": "BLK 347",
			"END_BUS_STOP": "OPP JURONG POLYCLINIC",
			"START_BUS_STOP_NUM": "28461",
			"START_BUS_STOP_LATLNG": "1.345332402809, 103.732053836572",
			"END_BUS_STOP_NUM": "28491",
			"END_BUS_STOP_LATLNG": "1.34905596073619, 103.730786330642",
			"DISTANCE": "28.6",
			"GEOMETRIES": "{weG}dcxROJs@`@y@VgARaFh@eAJcALy@RQFg@Rs@`@ML"
		},
		{
			"BUS_SEQUENCE": 69,
			"START_BUS_STOP": "OPP JURONG POLYCLINIC",
			"END_BUS_STOP": "BLK 490",
			"START_BUS_STOP_NUM": "28491",
			"START_BUS_STOP_LATLNG": "1.34905596073619, 103.730786330642",
			"END_BUS_STOP_NUM": "28501",
			"END_BUS_STOP_LATLNG": "1.34980328426271, 103.727377698353",
			"DISTANCE": "29.1",
			"GEOMETRIES": "cofG_}bxR_@ZABe@j@[n@CDUp@SbAEl@El@AzB?bA?pABvA"
		},
		{
			"BUS_SEQUENCE": 70,
			"START_BUS_STOP": "BLK 490",
			"END_BUS_STOP": "BLK 463",
			"START_BUS_STOP_NUM": "28501",
			"START_BUS_STOP_LATLNG": "1.34980328426271, 103.727377698353",
			"END_BUS_STOP_NUM": "28511",
			"END_BUS_STOP_LATLNG": "1.35063596491215, 103.723723609026",
			"DISTANCE": "29.5",
			"GEOMETRIES": "_tfGagbxR?P?`B?h@SvCgAjEg@jBEL[tA"
		},
		{
			"BUS_SEQUENCE": 71,
			"START_BUS_STOP": "BLK 463",
			"END_BUS_STOP": "BLK 457",
			"START_BUS_STOP_NUM": "28511",
			"START_BUS_STOP_LATLNG": "1.35063596491215, 103.723723609026",
			"END_BUS_STOP_NUM": "28521",
			"END_BUS_STOP_LATLNG": "1.35097548065061, 103.721200423691",
			"DISTANCE": "29.9",
			"GEOMETRIES": "eyfGopaxRIZ_@`CSzBExAAb@@fB"
		},
		{
			"BUS_SEQUENCE": 72,
			"START_BUS_STOP": "BLK 457",
			"END_BUS_STOP": "BLK 502",
			"START_BUS_STOP_NUM": "28521",
			"START_BUS_STOP_LATLNG": "1.35097548065061, 103.721200423691",
			"END_BUS_STOP_NUM": "28401",
			"END_BUS_STOP_LATLNG": "1.3506545513673, 103.718614015135",
			"DISTANCE": "30.2",
			"GEOMETRIES": "i{fGo`axR?d@XrERtCNvB"
		},
		{
			"BUS_SEQUENCE": 73,
			"START_BUS_STOP": "BLK 502",
			"END_BUS_STOP": "BLK 536",
			"START_BUS_STOP_NUM": "28401",
			"START_BUS_STOP_LATLNG": "1.3506545513673, 103.718614015135",
			"END_BUS_STOP_NUM": "28531",
			"END_BUS_STOP_LATLNG": "1.35006115514965, 103.716529404467",
			"DISTANCE": "30.5",
			"GEOMETRIES": "kyfGgp`xRRhC@JHl@ZtA|@lC"
		},
		{
			"BUS_SEQUENCE": 74,
			"START_BUS_STOP": "BLK 536",
			"END_BUS_STOP": "BLK 213",
			"START_BUS_STOP_NUM": "28531",
			"START_BUS_STOP_LATLNG": "1.35006115514965, 103.716529404467",
			"END_BUS_STOP_NUM": "21249",
			"END_BUS_STOP_LATLNG": "1.34959849660986, 103.712464627716",
			"DISTANCE": "30.8",
			"GEOMETRIES": "qufG_c`xR^bAn@zAt@tALRh@r@TZd@p@JLQRo@n@}CbDIHSTNVjApB"
		},
		{
			"BUS_SEQUENCE": 75,
			"START_BUS_STOP": "BLK 213",
			"END_BUS_STOP": "BLK 185",
			"START_BUS_STOP_NUM": "21249",
			"START_BUS_STOP_LATLNG": "1.34959849660986, 103.712464627716",
			"END_BUS_STOP_NUM": "21429",
			"END_BUS_STOP_LATLNG": "1.34740203306581, 103.710591494596",
			"DISTANCE": "31.4",
			"GEOMETRIES": "mrfGsi_xRf@z@HLFL`A`BLTRXr@hAZT\\Pr@N~BZ"
		},
		{
			"BUS_SEQUENCE": 76,
			"START_BUS_STOP": "BLK 185",
			"END_BUS_STOP": "RIVER VALLEY HIGH SCH",
			"START_BUS_STOP_NUM": "21429",
			"START_BUS_STOP_LATLNG": "1.34740203306581, 103.710591494596",
			"END_BUS_STOP_NUM": "21391",
			"END_BUS_STOP_LATLNG": "1.34485064221938, 103.708479360826",
			"DISTANCE": "31.8",
			"GEOMETRIES": "mdfGk}~wR~B\\`AZB@XN\\Pt@l@r@dANRNVhBxC"
		},
		{
			"BUS_SEQUENCE": 77,
			"START_BUS_STOP": "RIVER VALLEY HIGH SCH",
			"END_BUS_STOP": "OPP BLK 695",
			"START_BUS_STOP_NUM": "21391",
			"START_BUS_STOP_LATLNG": "1.34485064221938, 103.708479360826",
			"END_BUS_STOP_NUM": "21369",
			"END_BUS_STOP_LATLNG": "1.34309123717886, 103.708003107058",
			"DISTANCE": "32.2",
			"GEOMETRIES": "{teGsp~wRn@dALRhAhBXJb@BTAZIhC}A"
		},
		{
			"BUS_SEQUENCE": 78,
			"START_BUS_STOP": "OPP BLK 695",
			"END_BUS_STOP": "BLK 662D",
			"START_BUS_STOP_NUM": "21369",
			"START_BUS_STOP_LATLNG": "1.34309123717886, 103.708003107058",
			"END_BUS_STOP_NUM": "22491",
			"END_BUS_STOP_LATLNG": "1.33721274298352, 103.704782016701",
			"DISTANCE": "32.5",
			"GEOMETRIES": "yheGim~wRrAy@`BaAvBwAdCaAl@S\\KJ\\XbAl@`Cl@pAV\\NTNNRRb@\\d@Vt@XZHtI~B~@TVHI`@WhAK`@_@v@i@j@OLQF??"
		},
		{
			"BUS_SEQUENCE": 79,
			"START_BUS_STOP": "BLK 662D",
			"END_BUS_STOP": "BLK 662A",
			"START_BUS_STOP_NUM": "22491",
			"START_BUS_STOP_LATLNG": "1.33721274298352, 103.704782016701",
			"END_BUS_STOP_NUM": "22501",
			"END_BUS_STOP_LATLNG": "1.33769199118033, 103.70297133238",
			"DISTANCE": "33.6",
			"GEOMETRIES": "{ddGoz}wRk@TcAX_@b@Wd@NhB\\tANv@BN"
		},
		{
			"BUS_SEQUENCE": 80,
			"START_BUS_STOP": "BLK 662A",
			"END_BUS_STOP": "BLK 658C",
			"START_BUS_STOP_NUM": "22501",
			"START_BUS_STOP_LATLNG": "1.33769199118033, 103.70297133238",
			"END_BUS_STOP_NUM": "22511",
			"END_BUS_STOP_LATLNG": "1.33746181720219, 103.700296651035",
			"DISTANCE": "34",
			"GEOMETRIES": "ahdGmn}wRF`@Hp@Dh@Dh@@rC?tE"
		},
		{
			"BUS_SEQUENCE": 81,
			"START_BUS_STOP": "BLK 658C",
			"END_BUS_STOP": "OPP JURONG WEST PR SCH",
			"START_BUS_STOP_NUM": "22511",
			"START_BUS_STOP_LATLNG": "1.33746181720219, 103.700296651035",
			"END_BUS_STOP_NUM": "22531",
			"END_BUS_STOP_LATLNG": "1.33922673310366, 103.698143753769",
			"DISTANCE": "34.3",
			"GEOMETRIES": "agdG{}|wR?@?`F?`Aa@Hm@JwAX_@Ji@PyAd@"
		},
		{
			"BUS_SEQUENCE": 82,
			"START_BUS_STOP": "OPP JURONG WEST PR SCH",
			"END_BUS_STOP": "BLK 639",
			"START_BUS_STOP_NUM": "22531",
			"START_BUS_STOP_LATLNG": "1.33922673310366, 103.698143753769",
			"END_BUS_STOP_NUM": "22231",
			"END_BUS_STOP_LATLNG": "1.34079486676221, 103.697178992903",
			"DISTANCE": "34.6",
			"GEOMETRIES": "mqdGaq|wRUF]Ji@TSHSFSJQJe@V_@RC@MLw@z@"
		},
		{
			"BUS_SEQUENCE": 83,
			"START_BUS_STOP": "BLK 639",
			"END_BUS_STOP": "BLK 717",
			"START_BUS_STOP_NUM": "22231",
			"START_BUS_STOP_LATLNG": "1.34079486676221, 103.697178992903",
			"END_BUS_STOP_NUM": "22359",
			"END_BUS_STOP_LATLNG": "1.3425266670299, 103.697275278006",
			"DISTANCE": "34.9",
			"GEOMETRIES": "i{dGuj|wRiAjAWVe@f@SRQSYWQSy@cAi@s@"
		},
		{
			"BUS_SEQUENCE": 84,
			"START_BUS_STOP": "BLK 717",
			"END_BUS_STOP": "WEST GROVE PR SCH",
			"START_BUS_STOP_NUM": "22359",
			"START_BUS_STOP_LATLNG": "1.3425266670299, 103.697275278006",
			"END_BUS_STOP_NUM": "27331",
			"END_BUS_STOP_LATLNG": "1.34537305600812, 103.69941138898",
			"DISTANCE": "35.2",
			"GEOMETRIES": "geeGmk|wRkJeMgAm@WE_@@_Aj@k@\\"
		},
		{
			"BUS_SEQUENCE": 85,
			"START_BUS_STOP": "WEST GROVE PR SCH",
			"END_BUS_STOP": "BLK 729",
			"START_BUS_STOP_NUM": "27331",
			"START_BUS_STOP_LATLNG": "1.34537305600812, 103.69941138898",
			"END_BUS_STOP_NUM": "27341",
			"END_BUS_STOP_LATLNG": "1.34663703411498, 103.697788197933",
			"DISTANCE": "35.7",
			"GEOMETRIES": "_xeG{x|wR[Tk@ZsAv@s@d@W\\K^OdC"
		},
		{
			"BUS_SEQUENCE": 86,
			"START_BUS_STOP": "BLK 729",
			"END_BUS_STOP": "BLK 715",
			"START_BUS_STOP_NUM": "27341",
			"START_BUS_STOP_LATLNG": "1.34663703411498, 103.697788197933",
			"END_BUS_STOP_NUM": "27351",
			"END_BUS_STOP_LATLNG": "1.34423200986065, 103.696131706226",
			"DISTANCE": "36",
			"GEOMETRIES": "c`fGgn|wRUnD~Hb@T@LBh@LRJ\\Zz@hA"
		},
		{
			"BUS_SEQUENCE": 87,
			"START_BUS_STOP": "BLK 715",
			"END_BUS_STOP": "BLK 710",
			"START_BUS_STOP_NUM": "27351",
			"START_BUS_STOP_LATLNG": "1.34423200986065, 103.696131706226",
			"END_BUS_STOP_NUM": "27361",
			"END_BUS_STOP_LATLNG": "1.34294490356227, 103.694522380843",
			"DISTANCE": "36.4",
			"GEOMETRIES": "}peGmc|wR|CdETZTXt@dA"
		},
		{
			"BUS_SEQUENCE": 88,
			"START_BUS_STOP": "BLK 710",
			"END_BUS_STOP": "BLK 962",
			"START_BUS_STOP_NUM": "27361",
			"START_BUS_STOP_LATLNG": "1.34294490356227, 103.694522380843",
			"END_BUS_STOP_NUM": "27271",
			"END_BUS_STOP_LATLNG": "1.34199989028017, 103.691320513786",
			"DISTANCE": "36.7",
			"GEOMETRIES": "}heGky{wRxC~DPTNPSRURaCdBSN|AvBfA|AZb@"
		},
		{
			"BUS_SEQUENCE": 89,
			"START_BUS_STOP": "BLK 962",
			"END_BUS_STOP": "BLK 932",
			"START_BUS_STOP_NUM": "27271",
			"START_BUS_STOP_LATLNG": "1.34199989028017, 103.691320513786",
			"END_BUS_STOP_NUM": "27131",
			"END_BUS_STOP_LATLNG": "1.34193999997072, 103.688529721972",
			"DISTANCE": "37.1",
			"GEOMETRIES": "_ceGke{wRp@~@Lt@Ez@APi@zI"
		},
		{
			"BUS_SEQUENCE": 90,
			"START_BUS_STOP": "BLK 932",
			"END_BUS_STOP": "BLK 920",
			"START_BUS_STOP_NUM": "27131",
			"START_BUS_STOP_LATLNG": "1.34193999997072, 103.688529721972",
			"END_BUS_STOP_NUM": "27141",
			"END_BUS_STOP_LATLNG": "1.33967546710179, 103.687799738573",
			"DISTANCE": "37.4",
			"GEOMETRIES": "qbeGktzwRIpAMdBEj@?LDPLP`@JfBJdAFnCPh@FZ?PGLIHMBMH_AHkA"
		},
		{
			"BUS_SEQUENCE": 91,
			"START_BUS_STOP": "BLK 920",
			"END_BUS_STOP": "BLK 924",
			"START_BUS_STOP_NUM": "27141",
			"START_BUS_STOP_LATLNG": "1.33967546710179, 103.687799738573",
			"END_BUS_STOP_NUM": "27159",
			"END_BUS_STOP_LATLNG": "1.34033777802121, 103.690051388987",
			"DISTANCE": "37.9",
			"GEOMETRIES": "ssdGuozwRDy@Jg@V]pB{ALIDG@G?KCGkEaG{Av@WB"
		}
	]
}