{
	"BUS_DIRECTION_ONE": [
		{
			"BUS_SEQUENCE": 1,
			"START_BUS_STOP": "JURONG EAST BUS INTERCHANGE",
			"END_BUS_STOP": "BLK 131",
			"START_BUS_STOP_NUM": "28009",
			"START_BUS_STOP_LATLNG": "1.3323504861095, 103.740664588477",
			"END_BUS_STOP_NUM": "28301",
			"END_BUS_STOP_LATLNG": "1.33473899929823, 103.740303015995",
			"DISTANCE": "0",
			"GEOMETRIES": "ggcGo}dxRg@\\yAn@k@NmBHgAJcAJ[D"
		},
		{
			"BUS_SEQUENCE": 2,
			"START_BUS_STOP": "BLK 131",
			"END_BUS_STOP": "BLK 134",
			"START_BUS_STOP_NUM": "28301",
			"START_BUS_STOP_LATLNG": "1.33473899929823, 103.740303015995",
			"END_BUS_STOP_NUM": "28431",
			"END_BUS_STOP_LATLNG": "1.33449626498358, 103.738815575856",
			"DISTANCE": "0.4",
			"GEOMETRIES": "kucGiydxRM@c@La@XY\\Uf@Gr@Fv@D`@^n@T\\LHp@Dt@P"
		},
		{
			"BUS_SEQUENCE": 3,
			"START_BUS_STOP": "BLK 134",
			"END_BUS_STOP": "S'PORE SCIENCE CTR",
			"START_BUS_STOP_NUM": "28431",
			"START_BUS_STOP_LATLNG": "1.33449626498358, 103.738815575856",
			"END_BUS_STOP_NUM": "28251",
			"END_BUS_STOP_LATLNG": "1.33382805600325, 103.736988332977",
			"DISTANCE": "0.7",
			"GEOMETRIES": "}scG{mdxRhDxBx@l@TPQT}@dAi@p@"
		},
		{
			"BUS_SEQUENCE": 4,
			"START_BUS_STOP": "S'PORE SCIENCE CTR",
			"END_BUS_STOP": "AFT S'PORE SCIENCE CTR",
			"START_BUS_STOP_NUM": "28251",
			"START_BUS_STOP_LATLNG": "1.33382805600325, 103.736988332977",
			"END_BUS_STOP_NUM": "28261",
			"END_BUS_STOP_LATLNG": "1.33614236992322, 103.734898783449",
			"DISTANCE": "1",
			"GEOMETRIES": "}ocGscdxRg@j@iAhAML}ClC[VsBxA_@R"
		},
		{
			"BUS_SEQUENCE": 5,
			"START_BUS_STOP": "AFT S'PORE SCIENCE CTR",
			"END_BUS_STOP": "OPP BLK 114",
			"START_BUS_STOP_NUM": "28261",
			"START_BUS_STOP_LATLNG": "1.33614236992322, 103.734898783449",
			"END_BUS_STOP_NUM": "28271",
			"END_BUS_STOP_LATLNG": "1.33899259685337, 103.733905751211",
			"DISTANCE": "1.3",
			"GEOMETRIES": "k~cG{vcxRwAx@iAh@KFYJKDi@RiB`@wAJkBB??"
		},
		{
			"BUS_SEQUENCE": 6,
			"START_BUS_STOP": "OPP BLK 114",
			"END_BUS_STOP": "OPP BLK 227",
			"START_BUS_STOP_NUM": "28271",
			"START_BUS_STOP_LATLNG": "1.33899259685337, 103.733905751211",
			"END_BUS_STOP_NUM": "28281",
			"END_BUS_STOP_LATLNG": "1.3420603281321, 103.735375481322",
			"DISTANCE": "1.7",
			"GEOMETRIES": "wodGwpcxRA?mBQeB_@qAg@uA}@[Q]UcBgAs@a@"
		},
		{
			"BUS_SEQUENCE": 7,
			"START_BUS_STOP": "OPP BLK 227",
			"END_BUS_STOP": "BLK 303",
			"START_BUS_STOP_NUM": "28281",
			"START_BUS_STOP_LATLNG": "1.3420603281321, 103.735375481322",
			"END_BUS_STOP_NUM": "28291",
			"END_BUS_STOP_LATLNG": "1.34446090409168, 103.7363830304",
			"DISTANCE": "2",
			"GEOMETRIES": "gbeGazcxRe@U_Bk@{Aa@e@Ok@MuA]wAa@EA"
		},
		{
			"BUS_SEQUENCE": 8,
			"START_BUS_STOP": "BLK 303",
			"END_BUS_STOP": "AFT PIE",
			"START_BUS_STOP_NUM": "28291",
			"START_BUS_STOP_LATLNG": "1.34446090409168, 103.7363830304",
			"END_BUS_STOP_NUM": "43459",
			"END_BUS_STOP_LATLNG": "1.34779637077855, 103.738029358079",
			"DISTANCE": "2.3",
			"GEOMETRIES": "oqeGe`dxR_C{@wDaB}D_Bu@[o@YaAW"
		},
		{
			"BUS_SEQUENCE": 9,
			"START_BUS_STOP": "AFT PIE",
			"END_BUS_STOP": "BLK 168",
			"START_BUS_STOP_NUM": "43459",
			"START_BUS_STOP_LATLNG": "1.34779637077855, 103.738029358079",
			"END_BUS_STOP_NUM": "43351",
			"END_BUS_STOP_LATLNG": "1.34701122644751, 103.741101420707",
			"DISTANCE": "2.8",
			"GEOMETRIES": "mffGqjdxRk@OuAMkAA}AHqATQBCmBCkDR?pDC`AMTC`A[dAo@n@q@DGj@}@FKZg@N]"
		},
		{
			"BUS_SEQUENCE": 10,
			"START_BUS_STOP": "BLK 168",
			"END_BUS_STOP": "BLK 154A",
			"START_BUS_STOP_NUM": "43351",
			"START_BUS_STOP_LATLNG": "1.34701122644751, 103.741101420707",
			"END_BUS_STOP_NUM": "43361",
			"END_BUS_STOP_LATLNG": "1.3469143511774, 103.743432035456",
			"DISTANCE": "3.6",
			"GEOMETRIES": "iafGs|dxRN[Ro@DQTwA@m@?c@I_BI_@I_@AEQq@"
		},
		{
			"BUS_SEQUENCE": 11,
			"START_BUS_STOP": "BLK 154A",
			"END_BUS_STOP": "BLK 109",
			"START_BUS_STOP_NUM": "43361",
			"START_BUS_STOP_LATLNG": "1.3469143511774, 103.743432035456",
			"END_BUS_STOP_NUM": "43371",
			"END_BUS_STOP_LATLNG": "1.34682313984594, 103.745902776137",
			"DISTANCE": "3.9",
			"GEOMETRIES": "y`fGskexR[gAQk@Oa@qAaCXQLOjAaB??Xa@T_@"
		},
		{
			"BUS_SEQUENCE": 12,
			"START_BUS_STOP": "BLK 109",
			"END_BUS_STOP": "OPP BT BATOK SWIM CPLX",
			"START_BUS_STOP_NUM": "43371",
			"START_BUS_STOP_LATLNG": "1.34682313984594, 103.745902776137",
			"END_BUS_STOP_NUM": "43519",
			"END_BUS_STOP_LATLNG": "1.34527424103226, 103.748357769311",
			"DISTANCE": "4.2",
			"GEOMETRIES": "e`fGqzexRjAgBNUjAaBHKn@}@z@uA\\aADo@"
		},
		{
			"BUS_SEQUENCE": 13,
			"START_BUS_STOP": "OPP BT BATOK SWIM CPLX",
			"END_BUS_STOP": "BT VIEW SEC SCH",
			"START_BUS_STOP_NUM": "43519",
			"START_BUS_STOP_LATLNG": "1.34527424103226, 103.748357769311",
			"END_BUS_STOP_NUM": "43599",
			"END_BUS_STOP_LATLNG": "1.34513161798285, 103.751901469619",
			"DISTANCE": "4.5",
			"GEOMETRIES": "cveGcjfxR@M?gD?Y?[@}I@W?IPgABK"
		},
		{
			"BUS_SEQUENCE": 14,
			"START_BUS_STOP": "BT VIEW SEC SCH",
			"END_BUS_STOP": "OPP BLK 291A",
			"START_BUS_STOP_NUM": "43599",
			"START_BUS_STOP_LATLNG": "1.34513161798285, 103.751901469619",
			"END_BUS_STOP_NUM": "43141",
			"END_BUS_STOP_LATLNG": "1.34421891680123, 103.755860208018",
			"DISTANCE": "4.9",
			"GEOMETRIES": "gueGc`gxR|@}DvAaIDYDQZqAB[CqAKw@"
		},
		{
			"BUS_SEQUENCE": 15,
			"START_BUS_STOP": "OPP BLK 291A",
			"END_BUS_STOP": "CH OF ST. MARY",
			"START_BUS_STOP_NUM": "43141",
			"START_BUS_STOP_LATLNG": "1.34421891680123, 103.755860208018",
			"END_BUS_STOP_NUM": "43199",
			"END_BUS_STOP_LATLNG": "1.34663409083885, 103.759200554451",
			"DISTANCE": "5.4",
			"GEOMETRIES": "uoeGgygxRE[Us@_@q@Y]Y]oAoAKKm@m@SUUUg@i@EGg@o@q@iAu@yB?C"
		},
		{
			"BUS_SEQUENCE": 16,
			"START_BUS_STOP": "CH OF ST. MARY",
			"END_BUS_STOP": "AUTOBACS",
			"START_BUS_STOP_NUM": "43199",
			"START_BUS_STOP_LATLNG": "1.34663409083885, 103.759200554451",
			"END_BUS_STOP_NUM": "43209",
			"END_BUS_STOP_LATLNG": "1.34697997431974, 103.763842489054",
			"DISTANCE": "5.9",
			"GEOMETRIES": "w~eGenhxRYqB@kC?k@?]?WA}@?oB?sB@i@?[UgCMo@Ga@"
		},
		{
			"BUS_SEQUENCE": 17,
			"START_BUS_STOP": "AUTOBACS",
			"END_BUS_STOP": "AFT BT BATOK EAST AVE 6",
			"START_BUS_STOP_NUM": "43209",
			"START_BUS_STOP_LATLNG": "1.34697997431974, 103.763842489054",
			"END_BUS_STOP_NUM": "42199",
			"END_BUS_STOP_LATLNG": "1.34607666698124, 103.767607222006",
			"DISTANCE": "6.4",
			"GEOMETRIES": "{`fGgkixRk@uCa@_C?{BDsB?QTIlAk@zAyAn@m@BC"
		},
		{
			"BUS_SEQUENCE": 18,
			"START_BUS_STOP": "AFT BT BATOK EAST AVE 6",
			"END_BUS_STOP": "THE HILLFORD",
			"START_BUS_STOP_NUM": "42199",
			"START_BUS_STOP_LATLNG": "1.34607666698124, 103.767607222006",
			"END_BUS_STOP_NUM": "42189",
			"END_BUS_STOP_LATLNG": "1.34378853697493, 103.769601747426",
			"DISTANCE": "6.9",
			"GEOMETRIES": "o{eGabjxR|ByB|AwAnA}@x@g@HGJI^[HEb@_@"
		},
		{
			"BUS_SEQUENCE": 19,
			"START_BUS_STOP": "THE HILLFORD",
			"END_BUS_STOP": "AFT CHUN TIN RD",
			"START_BUS_STOP_NUM": "42189",
			"START_BUS_STOP_LATLNG": "1.34378853697493, 103.769601747426",
			"END_BUS_STOP_NUM": "42179",
			"END_BUS_STOP_LATLNG": "1.34197833300345, 103.77100805602",
			"DISTANCE": "7.2",
			"GEOMETRIES": "emeGmnjxRzAkA^]TSJGj@_@fBgAn@u@"
		},
		{
			"BUS_SEQUENCE": 20,
			"START_BUS_STOP": "AFT CHUN TIN RD",
			"END_BUS_STOP": "OPP BLK 19",
			"START_BUS_STOP_NUM": "42179",
			"START_BUS_STOP_LATLNG": "1.34197833300345, 103.77100805602",
			"END_BUS_STOP_NUM": "42169",
			"END_BUS_STOP_LATLNG": "1.34038575681297, 103.773661305057",
			"DISTANCE": "7.5",
			"GEOMETRIES": "cbeGqwjxRz@cA~A_BNOJKn@m@RWHKFMb@{@D[NkC?U"
		},
		{
			"BUS_SEQUENCE": 21,
			"START_BUS_STOP": "OPP BLK 19",
			"END_BUS_STOP": "OPP BEAUTY WORLD STN",
			"START_BUS_STOP_NUM": "42169",
			"START_BUS_STOP_LATLNG": "1.34038575681297, 103.773661305057",
			"END_BUS_STOP_NUM": "42159",
			"END_BUS_STOP_LATLNG": "1.34036805329812, 103.775308989967",
			"DISTANCE": "7.9",
			"GEOMETRIES": "{wdGkhkxR??@[?[@q@?Q@M?k@BkC?G"
		}
	]
}