{
	"BUS_DIRECTION_ONE": [
		{
			"BUS_SEQUENCE": 1,
			"START_BUS_STOP": "TAMPINES INT",
			"END_BUS_STOP": "OPP OUR TAMPINES HUB",
			"START_BUS_STOP_NUM": "75009",
			"START_BUS_STOP_LATLNG": "1.35407552367477, 103.943390984739",
			"END_BUS_STOP_NUM": "76059",
			"END_BUS_STOP_LATLNG": "1.35294260004142, 103.941646789586",
			"DISTANCE": "0",
			"GEOMETRIES": "ykgGwllyRbAfAg@f@g@^YJa@@?fEr@@hC@d@@"
		},
		{
			"BUS_SEQUENCE": 2,
			"START_BUS_STOP": "OPP OUR TAMPINES HUB",
			"END_BUS_STOP": "BLK 147",
			"START_BUS_STOP_NUM": "76059",
			"START_BUS_STOP_LATLNG": "1.35294260004142, 103.941646789586",
			"END_BUS_STOP_NUM": "76069",
			"END_BUS_STOP_LATLNG": "1.34875342114003, 103.942086290874",
			"DISTANCE": "0.6",
			"GEOMETRIES": "}fgGkalyRnDBf@AZ?^?b@?xCCdCSLAhFy@"
		},
		{
			"BUS_SEQUENCE": 3,
			"START_BUS_STOP": "BLK 147",
			"END_BUS_STOP": "BEF TAMPINES WEST STN",
			"START_BUS_STOP_NUM": "76069",
			"START_BUS_STOP_LATLNG": "1.34875342114003, 103.942086290874",
			"END_BUS_STOP_NUM": "75059",
			"END_BUS_STOP_LATLNG": "1.34471168546511, 103.940216892828",
			"DISTANCE": "1.1",
			"GEOMETRIES": "mlfG}clyRbEo@dAUl@UhAg@r@i@b@]r@x@n@~@jArBj@vAh@hBLp@Lv@@H"
		},
		{
			"BUS_SEQUENCE": 4,
			"START_BUS_STOP": "BEF TAMPINES WEST STN",
			"END_BUS_STOP": "BEDOK REFORM TRG CTR",
			"START_BUS_STOP_NUM": "75059",
			"START_BUS_STOP_LATLNG": "1.34471168546511, 103.940216892828",
			"END_BUS_STOP_NUM": "75069",
			"END_BUS_STOP_LATLNG": "1.34066333296943, 103.936699999999",
			"DISTANCE": "1.8",
			"GEOMETRIES": "oteGeykyRLhAHzB?xAFPX`@f@\\lALtA`@tOrGb@T"
		},
		{
			"BUS_SEQUENCE": 5,
			"START_BUS_STOP": "BEDOK REFORM TRG CTR",
			"END_BUS_STOP": "THE CLEARWATER CONDO",
			"START_BUS_STOP_NUM": "75069",
			"START_BUS_STOP_LATLNG": "1.34066333296943, 103.936699999999",
			"END_BUS_STOP_NUM": "75349",
			"END_BUS_STOP_LATLNG": "1.33811824869625, 103.93395781515",
			"DISTANCE": "2.5",
			"GEOMETRIES": "ozdGybkyRbAh@FD\\X|@r@fD`DPPv@~@PVLRP\\JRZv@BN"
		},
		{
			"BUS_SEQUENCE": 6,
			"START_BUS_STOP": "THE CLEARWATER CONDO",
			"END_BUS_STOP": "BEDOK RESVR STN EXIT B",
			"START_BUS_STOP_NUM": "75349",
			"START_BUS_STOP_LATLNG": "1.33811824869625, 103.93395781515",
			"END_BUS_STOP_NUM": "84209",
			"END_BUS_STOP_LATLNG": "1.33702513693776, 103.933335893061",
			"DISTANCE": "2.9",
			"GEOMETRIES": "wjdGarjyRNl@Jl@Hh@TPXL`@DvBU"
		},
		{
			"BUS_SEQUENCE": 7,
			"START_BUS_STOP": "BEDOK RESVR STN EXIT B",
			"END_BUS_STOP": "BLK 109",
			"START_BUS_STOP_NUM": "84209",
			"START_BUS_STOP_LATLNG": "1.33702513693776, 103.933335893061",
			"END_BUS_STOP_NUM": "84529",
			"END_BUS_STOP_LATLNG": "1.33213305553955, 103.934313055552",
			"DISTANCE": "3.1",
			"GEOMETRIES": "gcdGkmjyR`@EtCg@zC]jC[|JgA\\EtAQ"
		},
		{
			"BUS_SEQUENCE": 8,
			"START_BUS_STOP": "BLK 109",
			"END_BUS_STOP": "BET BLKS 139/140",
			"START_BUS_STOP_NUM": "84529",
			"START_BUS_STOP_LATLNG": "1.33213305553955, 103.934313055552",
			"END_BUS_STOP_NUM": "84219",
			"END_BUS_STOP_LATLNG": "1.32940888887166, 103.934813055573",
			"DISTANCE": "3.6",
			"GEOMETRIES": "udcGssjyRh@Gr@IVCd@GrC[XEJAbAKNC^ErAO@?"
		},
		{
			"BUS_SEQUENCE": 9,
			"START_BUS_STOP": "BET BLKS 139/140",
			"END_BUS_STOP": "OPP BLK 220 CP",
			"START_BUS_STOP_NUM": "84219",
			"START_BUS_STOP_LATLNG": "1.32940888887166, 103.934813055573",
			"END_BUS_STOP_NUM": "84199",
			"END_BUS_STOP_LATLNG": "1.32553283664673, 103.935556384131",
			"DISTANCE": "3.9",
			"GEOMETRIES": "usbG{vjyR??NCRC|@KjD_@^GZCLCJAJAbAMHAPAbBSLCLAr@ILAZExAQ"
		},
		{
			"BUS_SEQUENCE": 10,
			"START_BUS_STOP": "OPP BLK 220 CP",
			"END_BUS_STOP": "BLK 27",
			"START_BUS_STOP_NUM": "84199",
			"START_BUS_STOP_LATLNG": "1.32553283664673, 103.935556384131",
			"END_BUS_STOP_NUM": "84049",
			"END_BUS_STOP_LATLNG": "1.32432719820227, 103.934712201449",
			"DISTANCE": "4.4",
			"GEOMETRIES": "m{aGs{jyRjBS^ERCZEVzD"
		},
		{
			"BUS_SEQUENCE": 11,
			"START_BUS_STOP": "BLK 27",
			"END_BUS_STOP": "BEDOK STN EXIT A",
			"START_BUS_STOP_NUM": "84049",
			"START_BUS_STOP_LATLNG": "1.32432719820227, 103.934712201449",
			"END_BUS_STOP_NUM": "84039",
			"END_BUS_STOP_LATLNG": "1.32353645344906, 103.928863002035",
			"DISTANCE": "4.6",
			"GEOMETRIES": "ytaG{vjyRVjD`@~GJfBNfBJfAl@xHNrB"
		},
		{
			"BUS_SEQUENCE": 12,
			"START_BUS_STOP": "BEDOK STN EXIT A",
			"END_BUS_STOP": "OPP BLK 32",
			"START_BUS_STOP_NUM": "84039",
			"START_BUS_STOP_LATLNG": "1.32353645344906, 103.928863002035",
			"END_BUS_STOP_NUM": "84029",
			"END_BUS_STOP_LATLNG": "1.32299826971585, 103.925222252398",
			"DISTANCE": "5.3",
			"GEOMETRIES": "yoaGiriyRb@|FHx@Fj@p@bILz@"
		},
		{
			"BUS_SEQUENCE": 13,
			"START_BUS_STOP": "OPP BLK 32",
			"END_BUS_STOP": "OPP CHAI CHEE IND PK",
			"START_BUS_STOP_NUM": "84029",
			"START_BUS_STOP_LATLNG": "1.32299826971585, 103.925222252398",
			"END_BUS_STOP_NUM": "84019",
			"END_BUS_STOP_LATLNG": "1.32221972730517, 103.922620155309",
			"DISTANCE": "5.7",
			"GEOMETRIES": "claGe{hyRvA`Jv@~C"
		},
		{
			"BUS_SEQUENCE": 14,
			"START_BUS_STOP": "OPP CHAI CHEE IND PK",
			"END_BUS_STOP": "AFT PERPETUAL SUCCOUR CH",
			"START_BUS_STOP_NUM": "84019",
			"START_BUS_STOP_LATLNG": "1.32221972730517, 103.922620155309",
			"END_BUS_STOP_NUM": "83099",
			"END_BUS_STOP_LATLNG": "1.32076378388187, 103.918104276387",
			"DISTANCE": "6",
			"GEOMETRIES": "sgaGckhyR|CfM`@jBVbBnAlF"
		},
		{
			"BUS_SEQUENCE": 15,
			"START_BUS_STOP": "AFT PERPETUAL SUCCOUR CH",
			"END_BUS_STOP": "BEF SIGLAP PLAIN",
			"START_BUS_STOP_NUM": "83099",
			"START_BUS_STOP_LATLNG": "1.32076378388187, 103.918104276387",
			"END_BUS_STOP_NUM": "83079",
			"END_BUS_STOP_LATLNG": "1.31976833302337, 103.915054167014",
			"DISTANCE": "6.5",
			"GEOMETRIES": "k~`G}ngyR??Nn@XlAtAdGh@|B`@|A"
		},
		{
			"BUS_SEQUENCE": 16,
			"START_BUS_STOP": "BEF SIGLAP PLAIN",
			"END_BUS_STOP": "MJD KASSIM",
			"START_BUS_STOP_NUM": "83079",
			"START_BUS_STOP_LATLNG": "1.31976833302337, 103.915054167014",
			"END_BUS_STOP_NUM": "83059",
			"END_BUS_STOP_LATLNG": "1.31888900641724, 103.912226704262",
			"DISTANCE": "6.9",
			"GEOMETRIES": "_x`G}{fyRH\\J\\h@|Bz@`D\\pCLfA"
		},
		{
			"BUS_SEQUENCE": 17,
			"START_BUS_STOP": "MJD KASSIM",
			"END_BUS_STOP": "BEF LOR 110 CHANGI",
			"START_BUS_STOP_NUM": "83059",
			"START_BUS_STOP_LATLNG": "1.31888900641724, 103.912226704262",
			"END_BUS_STOP_NUM": "83049",
			"END_BUS_STOP_LATLNG": "1.318489754773, 103.91002178192",
			"DISTANCE": "7.3",
			"GEOMETRIES": "wr`GgjfyRP|AHl@P~AHn@\\xC"
		},
		{
			"BUS_SEQUENCE": 18,
			"START_BUS_STOP": "BEF LOR 110 CHANGI",
			"END_BUS_STOP": "AFT KG EUNOS",
			"START_BUS_STOP_NUM": "83049",
			"START_BUS_STOP_LATLNG": "1.318489754773, 103.91002178192",
			"END_BUS_STOP_NUM": "83029",
			"END_BUS_STOP_LATLNG": "1.31774429797349, 103.906352519963",
			"DISTANCE": "7.5",
			"GEOMETRIES": "ap`Gq|eyRLfADXLlAf@`DPjAn@|FJ`A??"
		},
		{
			"BUS_SEQUENCE": 19,
			"START_BUS_STOP": "AFT KG EUNOS",
			"END_BUS_STOP": "AFT LOR 106 CHANGI",
			"START_BUS_STOP_NUM": "83029",
			"START_BUS_STOP_LATLNG": "1.31774429797349, 103.906352519963",
			"END_BUS_STOP_NUM": "82069",
			"END_BUS_STOP_LATLNG": "1.31709537499354, 103.90295147897",
			"DISTANCE": "7.9",
			"GEOMETRIES": "ik`GseeyRB`@LjATnCJdAL`AB\\PvAVzBHp@"
		},
		{
			"BUS_SEQUENCE": 20,
			"START_BUS_STOP": "AFT LOR 106 CHANGI",
			"END_BUS_STOP": "JOO CHIAT CPLX",
			"START_BUS_STOP_NUM": "82069",
			"START_BUS_STOP_LATLNG": "1.31709537499354, 103.90295147897",
			"END_BUS_STOP_NUM": "82049",
			"END_BUS_STOP_LATLNG": "1.31634170548514, 103.898916212951",
			"DISTANCE": "8.3",
			"GEOMETRIES": "og`GipdyRLhAVxB@PRhBVzB@Nb@rEJx@LlA"
		},
		{
			"BUS_SEQUENCE": 21,
			"START_BUS_STOP": "JOO CHIAT CPLX",
			"END_BUS_STOP": "BLK 14 MKT/FC",
			"START_BUS_STOP_NUM": "82049",
			"START_BUS_STOP_LATLNG": "1.31634170548514, 103.898916212951",
			"END_BUS_STOP_NUM": "82029",
			"END_BUS_STOP_LATLNG": "1.31569833821527, 103.895595285465",
			"DISTANCE": "8.8",
			"GEOMETRIES": "{b`GawcyRNpAJ|@Lv@N~@XfCd@|DLfA"
		},
		{
			"BUS_SEQUENCE": 22,
			"START_BUS_STOP": "BLK 14 MKT/FC",
			"END_BUS_STOP": "CITY PLAZA",
			"START_BUS_STOP_NUM": "82029",
			"START_BUS_STOP_LATLNG": "1.31569833821527, 103.895595285465",
			"END_BUS_STOP_NUM": "82109",
			"END_BUS_STOP_LATLNG": "1.3151892235607, 103.893317744814",
			"DISTANCE": "9.2",
			"GEOMETRIES": "s~_GkbcyRPdBJz@JdANhAJr@RbB"
		},
		{
			"BUS_SEQUENCE": 23,
			"START_BUS_STOP": "CITY PLAZA",
			"END_BUS_STOP": "OPP LOR 39 GEYLANG",
			"START_BUS_STOP_NUM": "82109",
			"START_BUS_STOP_LATLNG": "1.3151892235607, 103.893317744814",
			"END_BUS_STOP_NUM": "81069",
			"END_BUS_STOP_LATLNG": "1.314713072947, 103.890843332047",
			"DISTANCE": "9.5",
			"GEOMETRIES": "y{_GatbyRBPj@pEX`CF`@NvA@L"
		},
		{
			"BUS_SEQUENCE": 24,
			"START_BUS_STOP": "OPP LOR 39 GEYLANG",
			"END_BUS_STOP": "AFT LOR 34 GEYLANG",
			"START_BUS_STOP_NUM": "81069",
			"START_BUS_STOP_LATLNG": "1.314713072947, 103.890843332047",
			"END_BUS_STOP_NUM": "81049",
			"END_BUS_STOP_LATLNG": "1.31414737685242, 103.887886803296",
			"DISTANCE": "9.8",
			"GEOMETRIES": "ux_GsdbyRX`CPrADZ^bDF\\PpAHx@H|@LfA"
		},
		{
			"BUS_SEQUENCE": 25,
			"START_BUS_STOP": "AFT LOR 34 GEYLANG",
			"END_BUS_STOP": "AFT LOR 28 GEYLANG",
			"START_BUS_STOP_NUM": "81049",
			"START_BUS_STOP_LATLNG": "1.31414737685242, 103.887886803296",
			"END_BUS_STOP_NUM": "81029",
			"END_BUS_STOP_LATLNG": "1.31359869606059, 103.884975314168",
			"DISTANCE": "10.3",
			"GEOMETRIES": "gt_GmnayRFd@Fh@VtB\\rCTrB"
		},
		{
			"BUS_SEQUENCE": 26,
			"START_BUS_STOP": "AFT LOR 28 GEYLANG",
			"END_BUS_STOP": "BEF LOR 18 GEYLANG",
			"START_BUS_STOP_NUM": "81029",
			"START_BUS_STOP_LATLNG": "1.31359869606059, 103.884975314168",
			"END_BUS_STOP_NUM": "80089",
			"END_BUS_STOP_LATLNG": "1.31274483593155, 103.88080516732",
			"DISTANCE": "10.6",
			"GEOMETRIES": "kq_G_`ayRFd@D`@ZjCBZRzAFh@D\\`@dDV~BHp@Jv@D\\"
		},
		{
			"BUS_SEQUENCE": 27,
			"START_BUS_STOP": "BEF LOR 18 GEYLANG",
			"END_BUS_STOP": "OPP MOHD SALLEH MQUE",
			"START_BUS_STOP_NUM": "80089",
			"START_BUS_STOP_LATLNG": "1.31274483593155, 103.88080516732",
			"END_BUS_STOP_NUM": "80069",
			"END_BUS_STOP_LATLNG": "1.31214703288286, 103.877150163172",
			"DISTANCE": "11.1",
			"GEOMETRIES": "el_G}e`yRFh@HdAJtAHvAJxA?FLnAJbALhAHp@Jx@BP"
		},
		{
			"BUS_SEQUENCE": 28,
			"START_BUS_STOP": "OPP MOHD SALLEH MQUE",
			"END_BUS_STOP": "AFT SIMS WAY",
			"START_BUS_STOP_NUM": "80069",
			"START_BUS_STOP_LATLNG": "1.31214703288286, 103.877150163172",
			"END_BUS_STOP_NUM": "80049",
			"END_BUS_STOP_LATLNG": "1.31077707819718, 103.873636639823",
			"DISTANCE": "11.5",
			"GEOMETRIES": "oh_Gao_yRHd@Tz@Tt@Tz@Tt@DVPj@H`@ZnA^|@pAbE"
		},
		{
			"BUS_SEQUENCE": 29,
			"START_BUS_STOP": "AFT SIMS WAY",
			"END_BUS_STOP": "OPP LOR 1 GEYLANG TER",
			"START_BUS_STOP_NUM": "80049",
			"START_BUS_STOP_LATLNG": "1.31077707819718, 103.873636639823",
			"END_BUS_STOP_NUM": "80039",
			"END_BUS_STOP_LATLNG": "1.30992336177794, 103.871443446515",
			"DISTANCE": "12",
			"GEOMETRIES": "}__G_y~xRv@bCTp@Tv@Vp@FVJf@DLHZB^?B"
		},
		{
			"BUS_SEQUENCE": 30,
			"START_BUS_STOP": "OPP LOR 1 GEYLANG TER",
			"END_BUS_STOP": "BEF KG BUGIS",
			"START_BUS_STOP_NUM": "80039",
			"START_BUS_STOP_LATLNG": "1.30992336177794, 103.871443446515",
			"END_BUS_STOP_NUM": "80029",
			"END_BUS_STOP_LATLNG": "1.30934735605117, 103.867442174516",
			"DISTANCE": "12.2",
			"GEOMETRIES": "yz~Fqk~xRAx@Af@IxEXhEPhABLDNp@xD"
		},
		{
			"BUS_SEQUENCE": 31,
			"START_BUS_STOP": "BEF KG BUGIS",
			"END_BUS_STOP": "AFT KALLANG RD",
			"START_BUS_STOP_NUM": "80029",
			"START_BUS_STOP_LATLNG": "1.30934735605117, 103.867442174516",
			"END_BUS_STOP_NUM": "07371",
			"END_BUS_STOP_LATLNG": "1.30931952260376, 103.863546598793",
			"DISTANCE": "12.7",
			"GEOMETRIES": "}w~Fcr}xRx@rEHf@PpAr@xEFZd@nAFPOBaAPQDq@XIF"
		},
		{
			"BUS_SEQUENCE": 32,
			"START_BUS_STOP": "AFT KALLANG RD",
			"END_BUS_STOP": "BEF KALLANG BAHRU",
			"START_BUS_STOP_NUM": "07371",
			"START_BUS_STOP_LATLNG": "1.30931952260376, 103.863546598793",
			"END_BUS_STOP_NUM": "07361",
			"END_BUS_STOP_LATLNG": "1.31167636068313, 103.861894837286",
			"DISTANCE": "13.2",
			"GEOMETRIES": "}v~F_{|xRyA~@c@XeCbBSNsBrAa@X_@V"
		},
		{
			"BUS_SEQUENCE": 33,
			"START_BUS_STOP": "BEF KALLANG BAHRU",
			"END_BUS_STOP": "ARC 380",
			"START_BUS_STOP_NUM": "07361",
			"START_BUS_STOP_LATLNG": "1.31167636068313, 103.861894837286",
			"END_BUS_STOP_NUM": "07351",
			"END_BUS_STOP_LATLNG": "1.31351833300073, 103.860545278031",
			"DISTANCE": "13.5",
			"GEOMETRIES": "ke_Gkp|xRGB_@VMHaAp@gAr@uBnA}@l@"
		},
		{
			"BUS_SEQUENCE": 34,
			"START_BUS_STOP": "ARC 380",
			"END_BUS_STOP": "HOA NAM BLDG",
			"START_BUS_STOP_NUM": "07351",
			"START_BUS_STOP_LATLNG": "1.31351833300073, 103.860545278031",
			"END_BUS_STOP_NUM": "07329",
			"END_BUS_STOP_LATLNG": "1.31284472583438, 103.859890882885",
			"DISTANCE": "13.8",
			"GEOMETRIES": "_q_Gah|xRCBqAz@`Al@^Vf@RnANLB"
		},
		{
			"BUS_SEQUENCE": 35,
			"START_BUS_STOP": "HOA NAM BLDG",
			"END_BUS_STOP": "AFT ALLENBY RD",
			"START_BUS_STOP_NUM": "07329",
			"START_BUS_STOP_LATLNG": "1.31284472583438, 103.859890882885",
			"END_BUS_STOP_NUM": "07319",
			"END_BUS_STOP_LATLNG": "1.31038833299803, 103.85870666697",
			"DISTANCE": "14",
			"GEOMETRIES": "ml_Gsb|xR`C`@ZFl@JdB`A|@h@pBhA"
		},
		{
			"BUS_SEQUENCE": 36,
			"START_BUS_STOP": "AFT ALLENBY RD",
			"END_BUS_STOP": "OPP VEERASAMY RD",
			"START_BUS_STOP_NUM": "07319",
			"START_BUS_STOP_LATLNG": "1.31038833299803, 103.85870666697",
			"END_BUS_STOP_NUM": "07419",
			"END_BUS_STOP_LATLNG": "1.30653024120879, 103.856163024931",
			"DISTANCE": "14.3",
			"GEOMETRIES": "k}~Fg{{xRjBfA|BrAhBbAnBdAdAj@pAr@l@\\r@d@fAn@"
		},
		{
			"BUS_SEQUENCE": 37,
			"START_BUS_STOP": "OPP VEERASAMY RD",
			"END_BUS_STOP": "ROCHOR STN",
			"START_BUS_STOP_NUM": "07419",
			"START_BUS_STOP_LATLNG": "1.30653024120879, 103.856163024931",
			"END_BUS_STOP_NUM": "07531",
			"END_BUS_STOP_LATLNG": "1.30365644370093, 103.852573232613",
			"DISTANCE": "14.8",
			"GEOMETRIES": "ee~Fmk{xRd@Vp@\\hAn@bBbAnBdAfAn@j@^tAj@|@j@~@h@[b@Yb@a@n@_@~@Sx@"
		},
		{
			"BUS_SEQUENCE": 38,
			"START_BUS_STOP": "ROCHOR STN",
			"END_BUS_STOP": "LITTLE INDIA STN EXIT A",
			"START_BUS_STOP_NUM": "07531",
			"START_BUS_STOP_LATLNG": "1.30365644370093, 103.852573232613",
			"END_BUS_STOP_NUM": "40011",
			"END_BUS_STOP_LATLNG": "1.30606411522589, 103.84908751469",
			"DISTANCE": "15.4",
			"GEOMETRIES": "ss}FyuzxRUx@c@dAWj@a@`Ak@|A]t@oBhBcDhEA@"
		}
	]
}