{
	"BUS_DIRECTION_ONE": [
		{
			"BUS_SEQUENCE": 1,
			"START_BUS_STOP": "MARINA CTR TER",
			"END_BUS_STOP": "AFT S'PORE FLYER",
			"START_BUS_STOP_NUM": "02099",
			"START_BUS_STOP_LATLNG": "1.29081586641499, 103.861998252568",
			"END_BUS_STOP_NUM": "02101",
			"END_BUS_STOP_LATLNG": "1.28938483786533, 103.861831481163",
			"DISTANCE": "0",
			"GEOMETRIES": "sb{F}o|xRwAIDqAJ{@Pk@TSZCh@J~A`@pA^ZPNRJh@Ct@?T"
		},
		{
			"BUS_SEQUENCE": 2,
			"START_BUS_STOP": "AFT S'PORE FLYER",
			"END_BUS_STOP": "THE FLOAT @ MARINA BAY",
			"START_BUS_STOP_NUM": "02101",
			"START_BUS_STOP_LATLNG": "1.28938483786533, 103.861831481163",
			"END_BUS_STOP_NUM": "02051",
			"END_BUS_STOP_LATLNG": "1.2895030556082, 103.859033888993",
			"DISTANCE": "0.4",
			"GEOMETRIES": "ezzFoo|xR??APIhDE~AI|CA^EtA??"
		},
		{
			"BUS_SEQUENCE": 3,
			"START_BUS_STOP": "THE FLOAT @ MARINA BAY",
			"END_BUS_STOP": "THE ESPLANADE",
			"START_BUS_STOP_NUM": "02051",
			"START_BUS_STOP_LATLNG": "1.2895030556082, 103.859033888993",
			"END_BUS_STOP_NUM": "02061",
			"END_BUS_STOP_LATLNG": "1.2899638888957, 103.856403888863",
			"DISTANCE": "0.8",
			"GEOMETRIES": "i{zF_~{xR??Af@Cn@EpBExAGrBCRq@xA"
		},
		{
			"BUS_SEQUENCE": 4,
			"START_BUS_STOP": "THE ESPLANADE",
			"END_BUS_STOP": "CITY HALL STN EXIT B",
			"START_BUS_STOP_NUM": "02061",
			"START_BUS_STOP_LATLNG": "1.2899638888957, 103.856403888863",
			"END_BUS_STOP_NUM": "04167",
			"END_BUS_STOP_LATLNG": "1.29250006522444, 103.851453154686",
			"DISTANCE": "1.1",
			"GEOMETRIES": "y}zFym{xR??A@wBfC_BpB}@bACDi@l@{@p@uArA}@~Ag@dAk@`Ag@~@a@r@K\\pBbAzAx@@?"
		},
		{
			"BUS_SEQUENCE": 5,
			"START_BUS_STOP": "CITY HALL STN EXIT B",
			"END_BUS_STOP": "OPP THE TREASURY",
			"START_BUS_STOP_NUM": "04167",
			"START_BUS_STOP_LATLNG": "1.29250006522444, 103.851453154686",
			"END_BUS_STOP_NUM": "04249",
			"END_BUS_STOP_LATLNG": "1.29043039362749, 103.850262165082",
			"DISTANCE": "1.8",
			"GEOMETRIES": "im{FgnzxRRJx@`@dAj@tExBFBf@X"
		},
		{
			"BUS_SEQUENCE": 6,
			"START_BUS_STOP": "OPP THE TREASURY",
			"END_BUS_STOP": "BOAT QUAY",
			"START_BUS_STOP_NUM": "04249",
			"START_BUS_STOP_LATLNG": "1.29043039362749, 103.850262165082",
			"END_BUS_STOP_NUM": "05029",
			"END_BUS_STOP_LATLNG": "1.28712283362119, 103.848197808225",
			"DISTANCE": "2.1",
			"GEOMETRIES": "o`{FufzxRx@d@pBhAd@VjB~@pAv@ZJRFRJVLxAr@lAj@FD"
		},
		{
			"BUS_SEQUENCE": 7,
			"START_BUS_STOP": "BOAT QUAY",
			"END_BUS_STOP": "CLARKE QUAY STN EXIT E",
			"START_BUS_STOP_NUM": "05029",
			"START_BUS_STOP_LATLNG": "1.28712283362119, 103.848197808225",
			"END_BUS_STOP_NUM": "04222",
			"END_BUS_STOP_LATLNG": "1.28898962180798, 103.847089763656",
			"DISTANCE": "2.5",
			"GEOMETRIES": "skzFazyxRnB~@JDPNi@nAsBjFW`@O?WGaA}@kA_A_Aq@m@g@UO"
		},
		{
			"BUS_SEQUENCE": 8,
			"START_BUS_STOP": "CLARKE QUAY STN EXIT E",
			"END_BUS_STOP": "CLARKE QUAY",
			"START_BUS_STOP_NUM": "04222",
			"START_BUS_STOP_LATLNG": "1.28898962180798, 103.847089763656",
			"END_BUS_STOP_NUM": "04211",
			"END_BUS_STOP_LATLNG": "1.29043611099357, 103.847124443981",
			"DISTANCE": "3.1",
			"GEOMETRIES": "uvzF}syxRyBcBiAy@[EQBOP{@tBMR"
		},
		{
			"BUS_SEQUENCE": 9,
			"START_BUS_STOP": "CLARKE QUAY",
			"END_BUS_STOP": "BEF FORT CANNING STN",
			"START_BUS_STOP_NUM": "04211",
			"START_BUS_STOP_LATLNG": "1.29043611099357, 103.847124443981",
			"END_BUS_STOP_NUM": "04331",
			"END_BUS_STOP_LATLNG": "1.29183939433256, 103.845037324621",
			"DISTANCE": "3.4",
			"GEOMETRIES": "aa{FatyxRuBrDMRIN]j@q@fA{@pA"
		},
		{
			"BUS_SEQUENCE": 10,
			"START_BUS_STOP": "BEF FORT CANNING STN",
			"END_BUS_STOP": "UE SQ/BEF MOHD SULTAN RD",
			"START_BUS_STOP_NUM": "04331",
			"START_BUS_STOP_LATLNG": "1.29183939433256, 103.845037324621",
			"END_BUS_STOP_NUM": "13109",
			"END_BUS_STOP_LATLNG": "1.29350944398488, 103.842724167027",
			"DISTANCE": "3.7",
			"GEOMETRIES": "{i{FcgyxRuAvBQRGHIJSVSVi@z@GJGJg@`A_@r@a@z@"
		},
		{
			"BUS_SEQUENCE": 11,
			"START_BUS_STOP": "UE SQ/BEF MOHD SULTAN RD",
			"END_BUS_STOP": "AFT UNITY ST",
			"START_BUS_STOP_NUM": "13109",
			"START_BUS_STOP_LATLNG": "1.29350944398488, 103.842724167027",
			"END_BUS_STOP_NUM": "13211",
			"END_BUS_STOP_LATLNG": "1.29241699362676, 103.841095990069",
			"DISTANCE": "4",
			"GEOMETRIES": "at{FkxxxR[l@ABoAjAtHhEVRBB"
		},
		{
			"BUS_SEQUENCE": 12,
			"START_BUS_STOP": "AFT UNITY ST",
			"END_BUS_STOP": "HOTEL MIRAMAR",
			"START_BUS_STOP_NUM": "13211",
			"START_BUS_STOP_LATLNG": "1.29241699362676, 103.841095990069",
			"END_BUS_STOP_NUM": "06151",
			"END_BUS_STOP_LATLNG": "1.28870976841461, 103.837372769692",
			"DISTANCE": "4.3",
			"GEOMETRIES": "}l{FkmxxRfAt@|@jAbA~Az@bBXpAX|@TH|@XdDdAbD|@GvA"
		},
		{
			"BUS_SEQUENCE": 13,
			"START_BUS_STOP": "HOTEL MIRAMAR",
			"END_BUS_STOP": "HOLIDAY INN ATRIUM",
			"START_BUS_STOP_NUM": "06151",
			"START_BUS_STOP_LATLNG": "1.28870976841461, 103.837372769692",
			"END_BUS_STOP_NUM": "06141",
			"END_BUS_STOP_LATLNG": "1.28963300933975, 103.833812419218",
			"DISTANCE": "4.9",
			"GEOMETRIES": "mvzFuvwxREr@?HAJAJALe@rDIt@m@tCCJcArE"
		},
		{
			"BUS_SEQUENCE": 14,
			"START_BUS_STOP": "HOLIDAY INN ATRIUM",
			"END_BUS_STOP": "THE BOYS' BRIGADE HQ",
			"START_BUS_STOP_NUM": "06141",
			"START_BUS_STOP_LATLNG": "1.28963300933975, 103.833812419218",
			"END_BUS_STOP_NUM": "06131",
			"END_BUS_STOP_LATLNG": "1.29152472200833, 103.832227500015",
			"DISTANCE": "5.4",
			"GEOMETRIES": "_|zFq`wxR[vAEPgDnAu@f@qA|@[T"
		},
		{
			"BUS_SEQUENCE": 15,
			"START_BUS_STOP": "THE BOYS' BRIGADE HQ",
			"END_BUS_STOP": "OPP GREAT WORLD CITY",
			"START_BUS_STOP_NUM": "06131",
			"START_BUS_STOP_LATLNG": "1.29152472200833, 103.832227500015",
			"END_BUS_STOP_NUM": "13121",
			"END_BUS_STOP_LATLNG": "1.29409221679274, 103.83083776408",
			"DISTANCE": "5.7",
			"GEOMETRIES": "mg{F{vvxRsC~BaBz@cAVyCr@e@N"
		},
		{
			"BUS_SEQUENCE": 16,
			"START_BUS_STOP": "OPP GREAT WORLD CITY",
			"END_BUS_STOP": "AFT ZION FULL GOSPEL CH",
			"START_BUS_STOP_NUM": "13121",
			"START_BUS_STOP_LATLNG": "1.29409221679274, 103.83083776408",
			"END_BUS_STOP_NUM": "13141",
			"END_BUS_STOP_LATLNG": "1.29763682834545, 103.829979863479",
			"DISTANCE": "6",
			"GEOMETRIES": "gw{FcnvxRgA\\_F|A{Jj@[?"
		},
		{
			"BUS_SEQUENCE": 17,
			"START_BUS_STOP": "AFT ZION FULL GOSPEL CH",
			"END_BUS_STOP": "BEF ORCHARD BLVD",
			"START_BUS_STOP_NUM": "13141",
			"START_BUS_STOP_LATLNG": "1.29763682834545, 103.829979863479",
			"END_BUS_STOP_NUM": "13191",
			"END_BUS_STOP_LATLNG": "1.30246399302722, 103.829782452963",
			"DISTANCE": "6.4",
			"GEOMETRIES": "gm|F{hvxRwDJuA@q@COFa@LcA^iEpA{AGaBg@wBcA"
		},
		{
			"BUS_SEQUENCE": 18,
			"START_BUS_STOP": "BEF ORCHARD BLVD",
			"END_BUS_STOP": "ORCHARD STN/LUCKY PLAZA",
			"START_BUS_STOP_NUM": "13191",
			"START_BUS_STOP_LATLNG": "1.30246399302722, 103.829782452963",
			"END_BUS_STOP_NUM": "09048",
			"END_BUS_STOP_LATLNG": "1.30386684425114, 103.834130700514",
			"DISTANCE": "7",
			"GEOMETRIES": "}j}F}gvxReBw@_Bs@kBy@MIgAm@]WkBmBMKt@}A|B{EdA_CLY"
		},
		{
			"BUS_SEQUENCE": 19,
			"START_BUS_STOP": "ORCHARD STN/LUCKY PLAZA",
			"END_BUS_STOP": "OPP SOMERSET STN",
			"START_BUS_STOP_NUM": "09048",
			"START_BUS_STOP_LATLNG": "1.30386684425114, 103.834130700514",
			"END_BUS_STOP_NUM": "09038",
			"END_BUS_STOP_LATLNG": "1.30154262450563, 103.838524818423",
			"DISTANCE": "7.7",
			"GEOMETRIES": "us}FabwxRN_@J[~CeHZg@n@sAb@cA`A_CFQvA}D"
		},
		{
			"BUS_SEQUENCE": 20,
			"START_BUS_STOP": "OPP SOMERSET STN",
			"END_BUS_STOP": "CONCORDE HOTEL S'PORE",
			"START_BUS_STOP_NUM": "09038",
			"START_BUS_STOP_LATLNG": "1.30154262450563, 103.838524818423",
			"END_BUS_STOP_NUM": "08138",
			"END_BUS_STOP_LATLNG": "1.3004785730821, 103.841847006076",
			"DISTANCE": "8.3",
			"GEOMETRIES": "ge}Fs}wxRPe@FU`@eBn@mCh@gC^eBd@yB"
		},
		{
			"BUS_SEQUENCE": 21,
			"START_BUS_STOP": "CONCORDE HOTEL S'PORE",
			"END_BUS_STOP": "DHOBY GHAUT STN",
			"START_BUS_STOP_NUM": "08138",
			"START_BUS_STOP_LATLNG": "1.3004785730821, 103.841847006076",
			"END_BUS_STOP_NUM": "08057",
			"END_BUS_STOP_LATLNG": "1.29930997279734, 103.845290214297",
			"DISTANCE": "8.7",
			"GEOMETRIES": "k~|FkrxxRDSbAwEp@uCl@qCNq@DG^cB"
		},
		{
			"BUS_SEQUENCE": 22,
			"START_BUS_STOP": "DHOBY GHAUT STN",
			"END_BUS_STOP": "SCH OF THE ARTS",
			"START_BUS_STOP_NUM": "08057",
			"START_BUS_STOP_LATLNG": "1.29930997279734, 103.845290214297",
			"END_BUS_STOP_NUM": "08079",
			"END_BUS_STOP_LATLNG": "1.29921444445586, 103.84910329218",
			"DISTANCE": "9.1",
			"GEOMETRIES": "kw|F}gyxR??`@eBpAyFE_BGeCJu@Pq@kB_B"
		},
		{
			"BUS_SEQUENCE": 23,
			"START_BUS_STOP": "SCH OF THE ARTS",
			"END_BUS_STOP": "PEACE CTR",
			"START_BUS_STOP_NUM": "08079",
			"START_BUS_STOP_LATLNG": "1.29921444445586, 103.84910329218",
			"END_BUS_STOP_NUM": "07011",
			"END_BUS_STOP_LATLNG": "1.30099699058522, 103.849810187431",
			"DISTANCE": "9.6",
			"GEOMETRIES": "sv|Fk`zxRo@i@o@WoGkA"
		},
		{
			"BUS_SEQUENCE": 24,
			"START_BUS_STOP": "PEACE CTR",
			"END_BUS_STOP": "SELEGIE CTR",
			"START_BUS_STOP_NUM": "07011",
			"START_BUS_STOP_LATLNG": "1.30099699058522, 103.849810187431",
			"END_BUS_STOP_NUM": "07021",
			"END_BUS_STOP_LATLNG": "1.30372354572677, 103.850036756529",
			"DISTANCE": "9.8",
			"GEOMETRIES": "cb}FydzxRs@M]Eo@AaAIqEAIAuAGi@G"
		},
		{
			"BUS_SEQUENCE": 25,
			"START_BUS_STOP": "SELEGIE CTR",
			"END_BUS_STOP": "LITTLE INDIA STN EXIT A",
			"START_BUS_STOP_NUM": "07021",
			"START_BUS_STOP_LATLNG": "1.30372354572677, 103.850036756529",
			"END_BUS_STOP_NUM": "40011",
			"END_BUS_STOP_LATLNG": "1.30606411522589, 103.84908751469",
			"DISTANCE": "10.1",
			"GEOMETRIES": "cs}FmfzxRG?]Ii@KWO[QiAq@oBhBwBrCk@t@A@"
		},
		{
			"BUS_SEQUENCE": 26,
			"START_BUS_STOP": "LITTLE INDIA STN EXIT A",
			"END_BUS_STOP": "BLK 554",
			"START_BUS_STOP_NUM": "40011",
			"START_BUS_STOP_LATLNG": "1.30606411522589, 103.84908751469",
			"END_BUS_STOP_NUM": "66331",
			"END_BUS_STOP_LATLNG": "1.37173176460482, 103.870154347072",
			"DISTANCE": "10.4",
			"GEOMETRIES": "gb~Fa`zxR??cIjKYVOPsB`AaA`@uAl@g@Zy@x@g@n@A@_@p@k@hBMj@Mh@eATg@@mE}@kDaAmCs@uBs@eCmAwCuBkAmAw@aAmAcByAqC{CoI_FuNu@uBeBoD_A_BmBqC{@iA_AeAyAqA{LmKeLkM{CgCmBgAeC{@}Be@uASqAGm@@kKBoYd@mHByCLeCX{Ch@eFpA}EjAaHdBoLvCmHjBaa@|JsDh@}DRoBByA?uDQ_D]iB]c@IuA[mp@sPmBQ}B[wCEgEC]ACO_@eCAMq@cDu@aDw@gDESEQEUGS[qAOe@gAuBeAsBKS{@sCKe@QgCEcCDuALoAd@}CJi@"
		},
		{
			"BUS_SEQUENCE": 31,
			"START_BUS_STOP": "BLK 554",
			"END_BUS_STOP": "BLK 516",
			"START_BUS_STOP_NUM": "66331",
			"START_BUS_STOP_LATLNG": "1.37173176460482, 103.870154347072",
			"END_BUS_STOP_NUM": "66101",
			"END_BUS_STOP_LATLNG": "1.37094045484466, 103.873258966134",
			"DISTANCE": "20.1",
			"GEOMETRIES": "g{jGec~xRr@mETyABOBON_Ax@eF"
		},
		{
			"BUS_SEQUENCE": 32,
			"START_BUS_STOP": "BLK 516",
			"END_BUS_STOP": "OPP GRACEHAVEN S ARMY",
			"START_BUS_STOP_NUM": "66101",
			"START_BUS_STOP_LATLNG": "1.37094045484466, 103.873258966134",
			"END_BUS_STOP_NUM": "64101",
			"END_BUS_STOP_LATLNG": "1.37233534849159, 103.876625049032",
			"DISTANCE": "20.5",
			"GEOMETRIES": "kvjGsv~xRV}AL_CjAaIIg@Sc@_@Yi@QoCUa@E}AK"
		},
		{
			"BUS_SEQUENCE": 33,
			"START_BUS_STOP": "OPP GRACEHAVEN S ARMY",
			"END_BUS_STOP": "HOUGANG 1",
			"START_BUS_STOP_NUM": "64101",
			"START_BUS_STOP_LATLNG": "1.37233534849159, 103.876625049032",
			"END_BUS_STOP_NUM": "64491",
			"END_BUS_STOP_LATLNG": "1.37513027801163, 103.879051667003",
			"DISTANCE": "21.1",
			"GEOMETRIES": "q~jGsl_yR}Im@oDIa@?YABeAAcDAqB?w@"
		},
		{
			"BUS_SEQUENCE": 34,
			"START_BUS_STOP": "HOUGANG 1",
			"END_BUS_STOP": "BET BLKS 930/931",
			"START_BUS_STOP_NUM": "64491",
			"START_BUS_STOP_LATLNG": "1.37513027801163, 103.879051667003",
			"END_BUS_STOP_NUM": "64481",
			"END_BUS_STOP_LATLNG": "1.37514474329335, 103.88078641408",
			"DISTANCE": "21.7",
			"GEOMETRIES": "{pkGa{_yRAyE?aC"
		},
		{
			"BUS_SEQUENCE": 35,
			"START_BUS_STOP": "BET BLKS 930/931",
			"END_BUS_STOP": "BLK 917",
			"START_BUS_STOP_NUM": "64481",
			"START_BUS_STOP_LATLNG": "1.37514474329335, 103.88078641408",
			"END_BUS_STOP_NUM": "64471",
			"END_BUS_STOP_LATLNG": "1.37454805598778, 103.883967777989",
			"DISTANCE": "21.9",
			"GEOMETRIES": "}pkG}e`yRAwANmAVoBf@sDd@mD"
		},
		{
			"BUS_SEQUENCE": 36,
			"START_BUS_STOP": "BLK 917",
			"END_BUS_STOP": "BLK 681",
			"START_BUS_STOP_NUM": "64471",
			"START_BUS_STOP_LATLNG": "1.37454805598778, 103.883967777989",
			"END_BUS_STOP_NUM": "64419",
			"END_BUS_STOP_LATLNG": "1.37339164793235, 103.885218548594",
			"DISTANCE": "22.2",
			"GEOMETRIES": "imkGuy`yRNgA@_@CI?Ca@q@[k@GMd@_@JCXGX?f@FxBX"
		},
		{
			"BUS_SEQUENCE": 37,
			"START_BUS_STOP": "BLK 681",
			"END_BUS_STOP": "BEF BLK 683",
			"START_BUS_STOP_NUM": "64419",
			"START_BUS_STOP_LATLNG": "1.37339164793235, 103.885218548594",
			"END_BUS_STOP_NUM": "64341",
			"END_BUS_STOP_LATLNG": "1.3729130421635, 103.88633750748",
			"DISTANCE": "22.6",
			"GEOMETRIES": "yfkGaaayRhAPd@?VIROz@qAH{@Wy@qA{@"
		},
		{
			"BUS_SEQUENCE": 38,
			"START_BUS_STOP": "BEF BLK 683",
			"END_BUS_STOP": "OPP MONTFORT SCH",
			"START_BUS_STOP_NUM": "64341",
			"START_BUS_STOP_LATLNG": "1.3729130421635, 103.88633750748",
			"END_BUS_STOP_NUM": "64351",
			"END_BUS_STOP_LATLNG": "1.37481110511316, 103.888082121754",
			"DISTANCE": "22.9",
			"GEOMETRIES": "ackGmiayRqA{@MIg@e@cCwBKKKIgAkAMO"
		},
		{
			"BUS_SEQUENCE": 39,
			"START_BUS_STOP": "OPP MONTFORT SCH",
			"END_BUS_STOP": "BLK 535",
			"START_BUS_STOP_NUM": "64351",
			"START_BUS_STOP_LATLNG": "1.37481110511316, 103.888082121754",
			"END_BUS_STOP_NUM": "64361",
			"END_BUS_STOP_LATLNG": "1.37634509209583, 103.890548944458",
			"DISTANCE": "23.2",
			"GEOMETRIES": "{nkGctayREGm@u@GIoByCc@{@We@EKCIo@}AOi@"
		},
		{
			"BUS_SEQUENCE": 40,
			"START_BUS_STOP": "BLK 535",
			"END_BUS_STOP": "OPP PUNGGOL CC",
			"START_BUS_STOP_NUM": "64361",
			"START_BUS_STOP_LATLNG": "1.37634509209583, 103.890548944458",
			"END_BUS_STOP_NUM": "64371",
			"END_BUS_STOP_LATLNG": "1.37447444021165, 103.892894273561",
			"DISTANCE": "23.5",
			"GEOMETRIES": "mxkGecbyRWcAAA_@{Ba@aDK_ACWX?~@?~B@fB@fC@"
		},
		{
			"BUS_SEQUENCE": 41,
			"START_BUS_STOP": "OPP PUNGGOL CC",
			"END_BUS_STOP": "OPP BLK 521",
			"START_BUS_STOP_NUM": "64371",
			"START_BUS_STOP_LATLNG": "1.37447444021165, 103.892894273561",
			"END_BUS_STOP_NUM": "64381",
			"END_BUS_STOP_LATLNG": "1.37288245131287, 103.891703849626",
			"DISTANCE": "24.1",
			"GEOMETRIES": "omkG{pbyRhB@hB@z@@R??hB?fB"
		},
		{
			"BUS_SEQUENCE": 42,
			"START_BUS_STOP": "OPP BLK 521",
			"END_BUS_STOP": "OPP HOUGANG CTRL INT",
			"START_BUS_STOP_NUM": "64381",
			"START_BUS_STOP_LATLNG": "1.37288245131287, 103.891703849626",
			"END_BUS_STOP_NUM": "64549",
			"END_BUS_STOP_LATLNG": "1.37139998302648, 103.891709729783",
			"DISTANCE": "24.4",
			"GEOMETRIES": "kdkGcjbyR?hABZJXX`@rDfDzBeCnAuAm@m@[w@CO"
		},
		{
			"BUS_SEQUENCE": 43,
			"START_BUS_STOP": "OPP HOUGANG CTRL INT",
			"END_BUS_STOP": "THE MIDTOWN",
			"START_BUS_STOP_NUM": "64549",
			"START_BUS_STOP_LATLNG": "1.37139998302648, 103.891709729783",
			"END_BUS_STOP_NUM": "64041",
			"END_BUS_STOP_LATLNG": "1.37016500002901, 103.895359999967",
			"DISTANCE": "24.9",
			"GEOMETRIES": "oyjGkjbyRKq@?QA}DBYP_@bAeAz@w@TIh@?t@ANCn@g@VYNw@Ac@K[aBeB"
		},
		{
			"BUS_SEQUENCE": 44,
			"START_BUS_STOP": "THE MIDTOWN",
			"END_BUS_STOP": "BLK 465A",
			"START_BUS_STOP_NUM": "64041",
			"START_BUS_STOP_LATLNG": "1.37016500002901, 103.895359999967",
			"END_BUS_STOP_NUM": "64051",
			"END_BUS_STOP_LATLNG": "1.37239666924933, 103.897773624568",
			"DISTANCE": "25.5",
			"GEOMETRIES": "yqjGuacyRi@i@u@y@_AeAwA_B]]aAeAuAyASU"
		},
		{
			"BUS_SEQUENCE": 45,
			"START_BUS_STOP": "BLK 465A",
			"END_BUS_STOP": "OPP S'GOON SEC SCH",
			"START_BUS_STOP_NUM": "64051",
			"START_BUS_STOP_LATLNG": "1.37239666924933, 103.897773624568",
			"END_BUS_STOP_NUM": "64061",
			"END_BUS_STOP_LATLNG": "1.37557886299976, 103.901119000014",
			"DISTANCE": "25.9",
			"GEOMETRIES": "{_kGspcyRuAeBqBeCm@m@OOKKq@u@yByB}A{A_@c@y@{@A?"
		},
		{
			"BUS_SEQUENCE": 46,
			"START_BUS_STOP": "OPP S'GOON SEC SCH",
			"END_BUS_STOP": "OPP BLK 477A",
			"START_BUS_STOP_NUM": "64061",
			"START_BUS_STOP_LATLNG": "1.37557886299976, 103.901119000014",
			"END_BUS_STOP_NUM": "64401",
			"END_BUS_STOP_LATLNG": "1.37839309319848, 103.903236620448",
			"DISTANCE": "26.4",
			"GEOMETRIES": "sskGuedyRqF}Fk@c@OKUOSKYOSKSI_@OSIq@Sm@MSE??"
		},
		{
			"BUS_SEQUENCE": 47,
			"START_BUS_STOP": "OPP BLK 477A",
			"END_BUS_STOP": "OPP BLK 101",
			"START_BUS_STOP_NUM": "64401",
			"START_BUS_STOP_LATLNG": "1.37839309319848, 103.903236620448",
			"END_BUS_STOP_NUM": "67161",
			"END_BUS_STOP_LATLNG": "1.38212499997742, 103.899268333012",
			"DISTANCE": "26.9",
			"GEOMETRIES": "uelGgsdyRa@Gm@Ik@Km@Ei@?sA?_@@gAFqAJuBRE?]VWZM^XpDDn@BXBTHhA?`@?\\I`ASx@KX]v@OXILa@h@CBMN"
		},
		{
			"BUS_SEQUENCE": 48,
			"START_BUS_STOP": "OPP BLK 101",
			"END_BUS_STOP": "OPP BLK 110",
			"START_BUS_STOP_NUM": "67161",
			"START_BUS_STOP_LATLNG": "1.38212499997742, 103.899268333012",
			"END_BUS_STOP_NUM": "65021",
			"END_BUS_STOP_LATLNG": "1.38403136207098, 103.899613455451",
			"DISTANCE": "27.7",
			"GEOMETRIES": "{}lG}ycyR_BjBe@j@QROU_@i@KOk@{@k@y@i@m@"
		},
		{
			"BUS_SEQUENCE": 49,
			"START_BUS_STOP": "OPP BLK 110",
			"END_BUS_STOP": "BLK 227D",
			"START_BUS_STOP_NUM": "65021",
			"START_BUS_STOP_LATLNG": "1.38403136207098, 103.899613455451",
			"END_BUS_STOP_NUM": "65031",
			"END_BUS_STOP_LATLNG": "1.38711144385727, 103.901677608413",
			"DISTANCE": "28",
			"GEOMETRIES": "qhmGe|cyRq@s@wAwAmBoBy@q@k@_@k@Um@SWIYCk@EcBM"
		},
		{
			"BUS_SEQUENCE": 50,
			"START_BUS_STOP": "BLK 227D",
			"END_BUS_STOP": "BLK 231",
			"START_BUS_STOP_NUM": "65031",
			"START_BUS_STOP_LATLNG": "1.38711144385727, 103.901677608413",
			"END_BUS_STOP_NUM": "65041",
			"END_BUS_STOP_LATLNG": "1.38984412426173, 103.901622657342",
			"DISTANCE": "28.4",
			"GEOMETRIES": "k|mG_idyRcAIsEIq@EiDNu@H"
		},
		{
			"BUS_SEQUENCE": 51,
			"START_BUS_STOP": "BLK 231",
			"END_BUS_STOP": "BLK 298A",
			"START_BUS_STOP_NUM": "65041",
			"START_BUS_STOP_LATLNG": "1.38984412426173, 103.901622657342",
			"END_BUS_STOP_NUM": "65061",
			"END_BUS_STOP_LATLNG": "1.394944120499, 103.901916582993",
			"DISTANCE": "28.7",
			"GEOMETRIES": "umnG_idyRK@}BXcAL[D_@Fe@Fe@Hs@J{@JsALg@De@Bm@AcAGu@Mm@M_@Ku@e@_@[qAuA]^VVFD"
		},
		{
			"BUS_SEQUENCE": 52,
			"START_BUS_STOP": "BLK 298A",
			"END_BUS_STOP": "OPP BLK 103A",
			"START_BUS_STOP_NUM": "65061",
			"START_BUS_STOP_LATLNG": "1.394944120499, 103.901916582993",
			"END_BUS_STOP_NUM": "65071",
			"END_BUS_STOP_LATLNG": "1.39845074063981, 103.9041638374",
			"DISTANCE": "29.3",
			"GEOMETRIES": "ymoGqidyRGEWWWYZ_@g@g@wAqAm@_@qA{@EC]MkBu@YKIEsBu@}Am@"
		},
		{
			"BUS_SEQUENCE": 53,
			"START_BUS_STOP": "OPP BLK 103A",
			"END_BUS_STOP": "COVE STN EXIT B",
			"START_BUS_STOP_NUM": "65071",
			"START_BUS_STOP_LATLNG": "1.39845074063981, 103.9041638374",
			"END_BUS_STOP_NUM": "65151",
			"END_BUS_STOP_LATLNG": "1.39885650320272, 103.906621052417",
			"DISTANCE": "29.8",
			"GEOMETRIES": "{bpG}xdyRICAAsEgBs@U_@OLY^y@Xe@f@m@l@_A^_@JOTY"
		},
		{
			"BUS_SEQUENCE": 54,
			"START_BUS_STOP": "COVE STN EXIT B",
			"END_BUS_STOP": "MERIDIAN STN EXIT B",
			"START_BUS_STOP_NUM": "65151",
			"START_BUS_STOP_LATLNG": "1.39885650320272, 103.906621052417",
			"END_BUS_STOP_NUM": "65161",
			"END_BUS_STOP_LATLNG": "1.39728016859873, 103.908681548281",
			"DISTANCE": "30.2",
			"GEOMETRIES": "oepGcgeyR`@i@r@_AHMJO`@m@|AoBhAwANS"
		},
		{
			"BUS_SEQUENCE": 55,
			"START_BUS_STOP": "MERIDIAN STN EXIT B",
			"END_BUS_STOP": "CORAL EDGE STN EXIT B",
			"START_BUS_STOP_NUM": "65161",
			"START_BUS_STOP_LATLNG": "1.39728016859873, 103.908681548281",
			"END_BUS_STOP_NUM": "65171",
			"END_BUS_STOP_LATLNG": "1.39452041732154, 103.912053046132",
			"DISTANCE": "30.5",
			"GEOMETRIES": "i{oGuseyR?ApDwEj@u@fB_Cd@q@LQT[T[fAyAt@}@"
		},
		{
			"BUS_SEQUENCE": 56,
			"START_BUS_STOP": "CORAL EDGE STN EXIT B",
			"END_BUS_STOP": "RIVIERA STN EXIT B",
			"START_BUS_STOP_NUM": "65171",
			"START_BUS_STOP_LATLNG": "1.39452041732154, 103.912053046132",
			"END_BUS_STOP_NUM": "65231",
			"END_BUS_STOP_LATLNG": "1.3942824799683, 103.915765314575",
			"DISTANCE": "31",
			"GEOMETRIES": "ejoGyhfyRNSz@cA~CaEJOb@k@nAaBHo@Ac@Qe@m@a@_@Y_BcAGGyBwA??"
		},
		{
			"BUS_SEQUENCE": 57,
			"START_BUS_STOP": "RIVIERA STN EXIT B",
			"END_BUS_STOP": "BLK 162B",
			"START_BUS_STOP_NUM": "65231",
			"START_BUS_STOP_LATLNG": "1.3942824799683, 103.915765314575",
			"END_BUS_STOP_NUM": "65269",
			"END_BUS_STOP_LATLNG": "1.39671015437474, 103.914672194721",
			"DISTANCE": "31.6",
			"GEOMETRIES": "shoGkagyRqA{@WOq@e@eA@c@Fe@NeA`Bq@dAkBtC"
		},
		{
			"BUS_SEQUENCE": 58,
			"START_BUS_STOP": "BLK 162B",
			"END_BUS_STOP": "BET BLKS 187/188",
			"START_BUS_STOP_NUM": "65269",
			"START_BUS_STOP_LATLNG": "1.39671015437474, 103.914672194721",
			"END_BUS_STOP_NUM": "65279",
			"END_BUS_STOP_LATLNG": "1.39929726136961, 103.91103404531",
			"DISTANCE": "32",
			"GEOMETRIES": "cyoGezfyREFOT_EjG_@n@MROT[d@oDtFg@t@"
		},
		{
			"BUS_SEQUENCE": 59,
			"START_BUS_STOP": "BET BLKS 187/188",
			"END_BUS_STOP": "OPP PUNGGOL SEC/BLK 195E",
			"START_BUS_STOP_NUM": "65279",
			"START_BUS_STOP_LATLNG": "1.39929726136961, 103.91103404531",
			"END_BUS_STOP_NUM": "65289",
			"END_BUS_STOP_LATLNG": "1.40173746082241, 103.907629816561",
			"DISTANCE": "32.5",
			"GEOMETRIES": "kipGocfyRcA|AgBpCiAfB[d@W`@Wb@e@p@_CpD"
		},
		{
			"BUS_SEQUENCE": 60,
			"START_BUS_STOP": "OPP PUNGGOL SEC/BLK 195E",
			"END_BUS_STOP": "BLK 298",
			"START_BUS_STOP_NUM": "65289",
			"START_BUS_STOP_LATLNG": "1.40173746082241, 103.907629816561",
			"END_BUS_STOP_NUM": "65229",
			"END_BUS_STOP_LATLNG": "1.40320219454105, 103.905569314962",
			"DISTANCE": "33",
			"GEOMETRIES": "sxpGgneyRk@|@e@r@w@nAq@dAOTQXo@jAQ\\"
		},
		{
			"BUS_SEQUENCE": 61,
			"START_BUS_STOP": "BLK 298",
			"END_BUS_STOP": "AFT PUNGGOL CTRL",
			"START_BUS_STOP_NUM": "65229",
			"START_BUS_STOP_LATLNG": "1.40320219454105, 103.905569314962",
			"END_BUS_STOP_NUM": "65219",
			"END_BUS_STOP_LATLNG": "1.40326663804865, 103.903258800133",
			"DISTANCE": "33.3",
			"GEOMETRIES": "saqGeaeyRYh@MT_CnEKx@D\\Xn@lCtA"
		},
		{
			"BUS_SEQUENCE": 62,
			"START_BUS_STOP": "AFT PUNGGOL CTRL",
			"END_BUS_STOP": "OPP BLK 201A",
			"START_BUS_STOP_NUM": "65219",
			"START_BUS_STOP_LATLNG": "1.40326663804865, 103.903258800133",
			"END_BUS_STOP_NUM": "65201",
			"END_BUS_STOP_LATLNG": "1.40112381464495, 103.902973452407",
			"DISTANCE": "33.6",
			"GEOMETRIES": "yaqGwqdyRj@ZbClAVNxAt@`@A`@AXKd@a@d@oA"
		}
	]
}