{
	"BUS_DIRECTION_ONE": [
		{
			"BUS_SEQUENCE": 1,
			"START_BUS_STOP": "ANG MO KIO INT",
			"END_BUS_STOP": "AFT ANG MO KIO STN EXIT A",
			"START_BUS_STOP_NUM": "54009",
			"START_BUS_STOP_LATLNG": "1.3696876991333904, 103.84856716193268",
			"END_BUS_STOP_NUM": "54261",
			"END_BUS_STOP_LATLNG": "1.3694545475093025, 103.8508140314999",
			"DISTANCE": "0",
			"GEOMETRIES": "upjGm|yxRG}@_@w@vBaAv@_@`@QCOw@qE"
		},
		{
			"BUS_SEQUENCE": 2,
			"START_BUS_STOP": "AFT ANG MO KIO STN EXIT A",
			"END_BUS_STOP": "BLK 586",
			"START_BUS_STOP_NUM": "54261",
			"START_BUS_STOP_LATLNG": "1.3694545475093025, 103.8508140314999",
			"END_BUS_STOP_NUM": "54271",
			"END_BUS_STOP_LATLNG": "1.369963267810561, 103.85356664655986",
			"DISTANCE": "0.4",
			"GEOMETRIES": "gmjGyjzxRKo@q@aEEU[iBKgB?eA"
		},
		{
			"BUS_SEQUENCE": 3,
			"START_BUS_STOP": "BLK 586",
			"END_BUS_STOP": "BLK 570",
			"START_BUS_STOP_NUM": "54271",
			"START_BUS_STOP_LATLNG": "1.369963267810561, 103.85356664655986",
			"END_BUS_STOP_NUM": "54281",
			"END_BUS_STOP_LATLNG": "1.3694902568174034, 103.85601277845505",
			"DISTANCE": "0.7",
			"GEOMETRIES": "spjGy{zxR?a@D_A@EdAkG\\kB"
		},
		{
			"BUS_SEQUENCE": 4,
			"START_BUS_STOP": "BLK 570",
			"END_BUS_STOP": "BLK 564",
			"START_BUS_STOP_NUM": "54281",
			"START_BUS_STOP_LATLNG": "1.3694902568174034, 103.85601277845505",
			"END_BUS_STOP_NUM": "54291",
			"END_BUS_STOP_LATLNG": "1.3691886142632417, 103.85886147831555",
			"DISTANCE": "1",
			"GEOMETRIES": "gmjGyj{xR@KVuAHk@D]BWD[DsA@{AEcAGoB"
		},
		{
			"BUS_SEQUENCE": 5,
			"START_BUS_STOP": "BLK 564",
			"END_BUS_STOP": "BLK 5022",
			"START_BUS_STOP_NUM": "54291",
			"START_BUS_STOP_LATLNG": "1.3691886142632417, 103.85886147831555",
			"END_BUS_STOP_NUM": "54301",
			"END_BUS_STOP_LATLNG": "1.3701950053058494, 103.86284675062747",
			"DISTANCE": "1.3",
			"GEOMETRIES": "ykjG}|{xRGcBe@wECO_@eCAMq@cDu@aD"
		},
		{
			"BUS_SEQUENCE": 6,
			"START_BUS_STOP": "BLK 5022",
			"END_BUS_STOP": "DAIKIN S'PORE",
			"START_BUS_STOP_NUM": "54301",
			"START_BUS_STOP_LATLNG": "1.3701950053058494, 103.86284675062747",
			"END_BUS_STOP_NUM": "66341",
			"END_BUS_STOP_LATLNG": "1.3711419613293718, 103.8652534148556",
			"DISTANCE": "1.8",
			"GEOMETRIES": "uqjGcv|xREUq@qCESEQEUGS[qAOe@eAqBAC"
		},
		{
			"BUS_SEQUENCE": 7,
			"START_BUS_STOP": "DAIKIN S'PORE",
			"END_BUS_STOP": "BLK 554",
			"START_BUS_STOP_NUM": "66341",
			"START_BUS_STOP_LATLNG": "1.3711419613293718, 103.8652534148556",
			"END_BUS_STOP_NUM": "66331",
			"END_BUS_STOP_LATLNG": "1.3716361115672158, 103.87036111445579",
			"DISTANCE": "2.1",
			"GEOMETRIES": "{wjGie}xReAsBKS{@sCKe@QgCEcCDuAJkA@Cd@}CTuA"
		},
		{
			"BUS_SEQUENCE": 8,
			"START_BUS_STOP": "BLK 554",
			"END_BUS_STOP": "BLK 537",
			"START_BUS_STOP_NUM": "66331",
			"START_BUS_STOP_LATLNG": "1.3716361115672158, 103.87036111445579",
			"END_BUS_STOP_NUM": "66421",
			"END_BUS_STOP_LATLNG": "1.3736550000024852, 103.8734072220197",
			"DISTANCE": "2.7",
			"GEOMETRIES": "}zjGqd~xRLu@ZkBUwAc@c@wC][?_@H}@t@mAsA]_@??Ua@AOAQ@k@@_@BuABI"
		},
		{
			"BUS_SEQUENCE": 9,
			"START_BUS_STOP": "BLK 537",
			"END_BUS_STOP": "OPP BLK 506A",
			"START_BUS_STOP_NUM": "66421",
			"START_BUS_STOP_LATLNG": "1.3736550000024852, 103.8734072220197",
			"END_BUS_STOP_NUM": "66431",
			"END_BUS_STOP_LATLNG": "1.372976442748662, 103.87526422817183",
			"DISTANCE": "3.3",
			"GEOMETRIES": "ygkGqw~xRDOJO`@WXEnB@\\KTQJQH]@e@BmA@m@AKAWEK[_@SIUEu@AQA"
		},
		{
			"BUS_SEQUENCE": 10,
			"START_BUS_STOP": "OPP BLK 506A",
			"END_BUS_STOP": "GRACEHAVEN S ARMY",
			"START_BUS_STOP_NUM": "66431",
			"START_BUS_STOP_LATLNG": "1.372976442748662, 103.87526422817183",
			"END_BUS_STOP_NUM": "64109",
			"END_BUS_STOP_LATLNG": "1.3720233015176326, 103.87690900449827",
			"DISTANCE": "3.7",
			"GEOMETRIES": "adkGad_yR}ACcBCkACwCGJmF?iAX@`@?nDHnHf@t@D"
		},
		{
			"BUS_SEQUENCE": 11,
			"START_BUS_STOP": "GRACEHAVEN S ARMY",
			"END_BUS_STOP": "BEF YIO CHU KANG CHAPEL",
			"START_BUS_STOP_NUM": "64109",
			"START_BUS_STOP_LATLNG": "1.3720233015176326, 103.87690900449827",
			"END_BUS_STOP_NUM": "63219",
			"END_BUS_STOP_LATLNG": "1.3685663701273854, 103.87627104833491",
			"DISTANCE": "4.4",
			"GEOMETRIES": "i~jGsl_yRtAJ`@DnCTrBRL@TBjBRN@J@LBtAXb@F"
		},
		{
			"BUS_SEQUENCE": 12,
			"START_BUS_STOP": "BEF YIO CHU KANG CHAPEL",
			"END_BUS_STOP": "PARKWOOD RESIDENCES",
			"START_BUS_STOP_NUM": "63219",
			"START_BUS_STOP_LATLNG": "1.3685663701273854, 103.87627104833491",
			"END_BUS_STOP_NUM": "63209",
			"END_BUS_STOP_LATLNG": "1.3660580481741378, 103.87522122785423",
			"DISTANCE": "4.8",
			"GEOMETRIES": "yhjGsh_yRJBp@Pj@Np@RLDbDbANFpC`A"
		},
		{
			"BUS_SEQUENCE": 13,
			"START_BUS_STOP": "PARKWOOD RESIDENCES",
			"END_BUS_STOP": "AFT YIO CHU KANG RD",
			"START_BUS_STOP_NUM": "63209",
			"START_BUS_STOP_LATLNG": "1.3660580481741378, 103.87522122785423",
			"END_BUS_STOP_NUM": "66149",
			"END_BUS_STOP_LATLNG": "1.3629183329984382, 103.87236222198607",
			"DISTANCE": "5.1",
			"GEOMETRIES": "iyiGeb_yRB@??b@N^LvHtCb@P`@Nd@PVLh@VxAt@x@Xh@FPB]p@INSTq@t@U\\"
		},
		{
			"BUS_SEQUENCE": 14,
			"START_BUS_STOP": "AFT YIO CHU KANG RD",
			"END_BUS_STOP": "OPP TRINITY METH CH",
			"START_BUS_STOP_NUM": "66149",
			"START_BUS_STOP_LATLNG": "1.3629183329984382, 103.87236222198607",
			"END_BUS_STOP_NUM": "66139",
			"END_BUS_STOP_LATLNG": "1.3635777885630693, 103.86929111065649",
			"DISTANCE": "5.7",
			"GEOMETRIES": "oeiGmq~xRGLSZKZSpAChAG~BA^Ov@[zASx@?Z"
		},
		{
			"BUS_SEQUENCE": 15,
			"START_BUS_STOP": "OPP TRINITY METH CH",
			"END_BUS_STOP": "S'GOON GDN CIRCUS",
			"START_BUS_STOP_NUM": "66139",
			"START_BUS_STOP_LATLNG": "1.3635777885630693, 103.86929111065649",
			"END_BUS_STOP_NUM": "66271",
			"END_BUS_STOP_LATLNG": "1.363983333000807, 103.86578916701895",
			"DISTANCE": "6.1",
			"GEOMETRIES": "yiiGa~}xR?tCArA?`A?r@?j@?v@?H?nBKn@FNATEHKFUBEC"
		},
		{
			"BUS_SEQUENCE": 16,
			"START_BUS_STOP": "S'GOON GDN CIRCUS",
			"END_BUS_STOP": "AFT CHUAN GDN",
			"START_BUS_STOP_NUM": "66271",
			"START_BUS_STOP_LATLNG": "1.363983333000807, 103.86578916701895",
			"END_BUS_STOP_NUM": "66129",
			"END_BUS_STOP_LATLNG": "1.3614922765500996, 103.86805198859288",
			"DISTANCE": "6.6",
			"GEOMETRIES": "okiG{h}xROIGUFWJGNCPBHFJo@?oB?I?w@?k@N[JGv@ItBKn@EdAGjAMNCVC"
		},
		{
			"BUS_SEQUENCE": 16,
			"START_BUS_STOP": "S'GOON GDN CIRCUS",
			"END_BUS_STOP": "AFT TRINITY METH CH",
			"START_BUS_STOP_NUM": "66271",
			"START_BUS_STOP_LATLNG": "1.363983333000807, 103.86578916701895",
			"END_BUS_STOP_NUM": "66131",
			"END_BUS_STOP_LATLNG": "1.3634669815038147, 103.87019205208469",
			"DISTANCE": "6.6",
			"GEOMETRIES": "okiG{h}xROIGUFWJGNCPBHFJo@?oB?I?w@?k@?s@?aA@sA?uC?[Ry@Z{A"
		},
		{
			"BUS_SEQUENCE": 17,
			"START_BUS_STOP": "AFT CHUAN GDN",
			"END_BUS_STOP": "SUMMER PL",
			"START_BUS_STOP_NUM": "66129",
			"START_BUS_STOP_LATLNG": "1.3614922765500996, 103.86805198859288",
			"END_BUS_STOP_NUM": "66119",
			"END_BUS_STOP_LATLNG": "1.3568300000303841, 103.86812666696964",
			"DISTANCE": "7.1",
			"GEOMETRIES": "g|hG_v}xRB?NADAxC[lBQPCPAzAI^C`CDR?D@|@F`AFbDZ\\D"
		},
		{
			"BUS_SEQUENCE": 18,
			"START_BUS_STOP": "SUMMER PL",
			"END_BUS_STOP": "BLK 307",
			"START_BUS_STOP_NUM": "66119",
			"START_BUS_STOP_LATLNG": "1.3568300000303841, 103.86812666696964",
			"END_BUS_STOP_NUM": "66039",
			"END_BUS_STOP_LATLNG": "1.3547513851421635, 103.86668854745253",
			"DISTANCE": "7.6",
			"GEOMETRIES": "g_hGkv}xRL@~ATrATbBJL`@l@tBb@lA"
		},
		{
			"BUS_SEQUENCE": 19,
			"START_BUS_STOP": "BLK 307",
			"END_BUS_STOP": "LOR CHUAN STN EXIT B",
			"START_BUS_STOP_NUM": "66039",
			"START_BUS_STOP_LATLNG": "1.3547513851421635, 103.86668854745253",
			"END_BUS_STOP_NUM": "66709",
			"END_BUS_STOP_LATLNG": "1.3521488899625664, 103.86306499643662",
			"DISTANCE": "7.9",
			"GEOMETRIES": "asgGkm}xRjAdDHTRn@^`AfAvAlChDzD~C"
		},
		{
			"BUS_SEQUENCE": 20,
			"START_BUS_STOP": "LOR CHUAN STN EXIT B",
			"END_BUS_STOP": "ST. GABRIEL'S PR SCH",
			"START_BUS_STOP_NUM": "66709",
			"START_BUS_STOP_LATLNG": "1.3521488899625664, 103.86306499643662",
			"END_BUS_STOP_NUM": "66029",
			"END_BUS_STOP_LATLNG": "1.3501630545926555, 103.86140888533203",
			"DISTANCE": "8.4",
			"GEOMETRIES": "ebgG{v|xRLJt@l@j@d@d@^xCdC`@\\p@h@BB"
		},
		{
			"BUS_SEQUENCE": 21,
			"START_BUS_STOP": "ST. GABRIEL'S PR SCH",
			"END_BUS_STOP": "BEF BRADDELL RD",
			"START_BUS_STOP_NUM": "66029",
			"START_BUS_STOP_LATLNG": "1.3501630545926555, 103.86140888533203",
			"END_BUS_STOP_NUM": "66019",
			"END_BUS_STOP_LATLNG": "1.3460283748920139, 103.86040421534554",
			"DISTANCE": "8.7",
			"GEOMETRIES": "}ufGil|xRHFZV|BlBJF`Aj@RJXL`@Hz@RhCLl@Ah@GjFm@"
		},
		{
			"BUS_SEQUENCE": 22,
			"START_BUS_STOP": "BEF BRADDELL RD",
			"END_BUS_STOP": "COMFORTDELGRO CORP LTD",
			"START_BUS_STOP_NUM": "66019",
			"START_BUS_STOP_LATLNG": "1.3460283748920139, 103.86040421534554",
			"END_BUS_STOP_NUM": "52069",
			"END_BUS_STOP_LATLNG": "1.3431438998891156, 103.85856611406128",
			"DISTANCE": "9.2",
			"GEOMETRIES": "q{eGye|xRrDa@bCSN@PJ|A_@p@FZd@\\f@JzBBlE"
		},
		{
			"BUS_SEQUENCE": 23,
			"START_BUS_STOP": "COMFORTDELGRO CORP LTD",
			"END_BUS_STOP": "BLK 219",
			"START_BUS_STOP_NUM": "52069",
			"START_BUS_STOP_LATLNG": "1.3431438998891156, 103.85856611406128",
			"END_BUS_STOP_NUM": "52059",
			"END_BUS_STOP_LATLNG": "1.3430784232442785, 103.85637814349425",
			"DISTANCE": "9.7",
			"GEOMETRIES": "}ieGa{{xR?h@EbCA~BCPC`A@t@"
		},
		{
			"BUS_SEQUENCE": 24,
			"START_BUS_STOP": "BLK 219",
			"END_BUS_STOP": "BLK 1",
			"START_BUS_STOP_NUM": "52059",
			"START_BUS_STOP_LATLNG": "1.3430784232442785, 103.85637814349425",
			"END_BUS_STOP_NUM": "52361",
			"END_BUS_STOP_LATLNG": "1.339744089099308, 103.85298121607642",
			"DISTANCE": "9.9",
			"GEOMETRIES": "kjeGim{xRBxBBpCp@lDPX\\V^LbFn@bAj@xA`@bAX`AZHFRH"
		},
		{
			"BUS_SEQUENCE": 25,
			"START_BUS_STOP": "BLK 1",
			"END_BUS_STOP": "BLK 56",
			"START_BUS_STOP_NUM": "52361",
			"START_BUS_STOP_LATLNG": "1.339744089099308, 103.85298121607642",
			"END_BUS_STOP_NUM": "52279",
			"END_BUS_STOP_LATLNG": "1.3370242055511772, 103.84992957112877",
			"DISTANCE": "10.5",
			"GEOMETRIES": "{tdGiwzxRNJXLtAbAHHIJ_@^QPWZQ|@C`AH\\Vd@XXZT|@b@`@RLFJFnB`AZNp@LJBZBN@b@?f@I"
		},
		{
			"BUS_SEQUENCE": 26,
			"START_BUS_STOP": "BLK 56",
			"END_BUS_STOP": "OPP CHUNG HWA FREE CLINIC",
			"START_BUS_STOP_NUM": "52279",
			"START_BUS_STOP_LATLNG": "1.3370242055511772, 103.84992957112877",
			"END_BUS_STOP_NUM": "52259",
			"END_BUS_STOP_LATLNG": "1.3327874654695901, 103.85165691373106",
			"DISTANCE": "11.1",
			"GEOMETRIES": "gcdGkdzxRZGB?^ONIXSNKd@Y~B{Az@k@??xAk@FAl@MZEr@KhBOZEfAIVCj@E"
		},
		{
			"BUS_SEQUENCE": 27,
			"START_BUS_STOP": "OPP CHUNG HWA FREE CLINIC",
			"END_BUS_STOP": "Bef Toa Payoh Pk",
			"START_BUS_STOP_NUM": "52259",
			"START_BUS_STOP_LATLNG": "1.3327874654695901, 103.85165691373106",
			"END_BUS_STOP_NUM": "52501",
			"END_BUS_STOP_LATLNG": "1.3309022091879075, 103.85011762889829",
			"DISTANCE": "11.6",
			"GEOMETRIES": "yhcGgozxRd@EdBM`AIpAORCBZLjAT|C?F?P?d@?J"
		},
		{
			"BUS_SEQUENCE": 28,
			"START_BUS_STOP": "Bef Toa Payoh Pk",
			"END_BUS_STOP": "TOA PAYOH INT",
			"START_BUS_STOP_NUM": "52501",
			"START_BUS_STOP_LATLNG": "1.3309022091879075, 103.85011762889829",
			"END_BUS_STOP_NUM": "52009",
			"END_BUS_STOP_LATLNG": "1.3320208338574886, 103.8469276352487",
			"DISTANCE": "12",
			"GEOMETRIES": "}}bGgfzxROnBGx@E`@GdAIlAQ~B{@HOHsAR"
		},
		{
			"BUS_SEQUENCE": 29,
			"START_BUS_STOP": "TOA PAYOH INT",
			"END_BUS_STOP": "AFT HDB HUB",
			"START_BUS_STOP_NUM": "52009",
			"START_BUS_STOP_LATLNG": "1.3320208338574886, 103.8469276352487",
			"END_BUS_STOP_NUM": "52509",
			"END_BUS_STOP_LATLNG": "1.3311571230376174, 103.85017633434691",
			"DISTANCE": "12.4",
			"GEOMETRIES": "_ecG_vyxRMK?gATKhAIXHG`Az@IP_CHmAFeADa@Fy@NoB?K"
		},
		{
			"BUS_SEQUENCE": 30,
			"START_BUS_STOP": "AFT HDB HUB",
			"END_BUS_STOP": "CHUNG HWA FREE CLINIC",
			"START_BUS_STOP_NUM": "52509",
			"START_BUS_STOP_LATLNG": "1.3311571230376174, 103.85017633434691",
			"END_BUS_STOP_NUM": "52251",
			"END_BUS_STOP_LATLNG": "1.332969806324898, 103.85142087938439",
			"DISTANCE": "12.9",
			"GEOMETRIES": "}}bGsfzxR?e@?Q?GU}COa@YY_@Qm@EaAHeBLe@Dk@D"
		},
		{
			"BUS_SEQUENCE": 31,
			"START_BUS_STOP": "CHUNG HWA FREE CLINIC",
			"END_BUS_STOP": "JACKSON SQ",
			"START_BUS_STOP_NUM": "52251",
			"START_BUS_STOP_LATLNG": "1.332969806324898, 103.85142087938439",
			"END_BUS_STOP_NUM": "52271",
			"END_BUS_STOP_LATLNG": "1.336831139071071, 103.84974718092393",
			"DISTANCE": "13.2",
			"GEOMETRIES": "ejcGaozxRWBgAH[DiBNs@J[Dm@LG@yAj@??{@j@_CzAe@XOJYROH_@NC?"
		},
		{
			"BUS_SEQUENCE": 32,
			"START_BUS_STOP": "JACKSON SQ",
			"END_BUS_STOP": "BLK 237",
			"START_BUS_STOP_NUM": "52271",
			"START_BUS_STOP_LATLNG": "1.336831139071071, 103.84974718092393",
			"END_BUS_STOP_NUM": "52369",
			"END_BUS_STOP_LATLNG": "1.340018332980652, 103.85273333299855",
			"DISTANCE": "13.7",
			"GEOMETRIES": "kbdGsdzxR[Fg@Hc@?OA[CKCq@M[OoBaAKGMGa@S}@c@cCmAMGDMhAoCLo@@m@Ie@Qc@YMOKSI"
		},
		{
			"BUS_SEQUENCE": 33,
			"START_BUS_STOP": "BLK 237",
			"END_BUS_STOP": "BLK 147",
			"START_BUS_STOP_NUM": "52369",
			"START_BUS_STOP_LATLNG": "1.340018332980652, 103.85273333299855",
			"END_BUS_STOP_NUM": "52051",
			"END_BUS_STOP_LATLNG": "1.3433882070934882, 103.85469257245785",
			"DISTANCE": "14.3",
			"GEOMETRIES": "oudGswzxRIGaA[cAYyAa@y@OqAIcHSyACg@Ba@NOb@C\\BVNPRL`@J^If@i@LcADw@CoAEe@KeA"
		},
		{
			"BUS_SEQUENCE": 34,
			"START_BUS_STOP": "BLK 147",
			"END_BUS_STOP": "BCA ACAD",
			"START_BUS_STOP_NUM": "52051",
			"START_BUS_STOP_LATLNG": "1.3433882070934882, 103.85469257245785",
			"END_BUS_STOP_NUM": "52061",
			"END_BUS_STOP_LATLNG": "1.3435217401896409, 103.85873879159367",
			"DISTANCE": "15.1",
			"GEOMETRIES": "qkeGwb{xRCW?OIyE?}AB{CBeD?gB?a@"
		},
		{
			"BUS_SEQUENCE": 35,
			"START_BUS_STOP": "BCA ACAD",
			"END_BUS_STOP": "AFT BRADDELL RD",
			"START_BUS_STOP_NUM": "52061",
			"START_BUS_STOP_LATLNG": "1.3435217401896409, 103.85873879159367",
			"END_BUS_STOP_NUM": "66011",
			"END_BUS_STOP_LATLNG": "1.3471699790241887, 103.85997678086372",
			"DISTANCE": "15.6",
			"GEOMETRIES": "wkeGc|{xR?{BQs@US_@O}@MEQEkAM]QKOAcCRsD`@kFl@"
		},
		{
			"BUS_SEQUENCE": 36,
			"START_BUS_STOP": "AFT BRADDELL RD",
			"END_BUS_STOP": "NEW TECH PK",
			"START_BUS_STOP_NUM": "66011",
			"START_BUS_STOP_LATLNG": "1.3471699790241887, 103.85997678086372",
			"END_BUS_STOP_NUM": "66021",
			"END_BUS_STOP_LATLNG": "1.3502938875209802, 103.86116749984473",
			"DISTANCE": "16.2",
			"GEOMETRIES": "}bfGkd|xRi@Fm@@iCM{@Sa@IYMSKaAk@KG}BmB[W"
		},
		{
			"BUS_SEQUENCE": 37,
			"START_BUS_STOP": "NEW TECH PK",
			"END_BUS_STOP": "GOLDENHILL PK CONDO",
			"START_BUS_STOP_NUM": "66021",
			"START_BUS_STOP_LATLNG": "1.3502938875209802, 103.86116749984473",
			"END_BUS_STOP_NUM": "66701",
			"END_BUS_STOP_LATLNG": "1.352218056231043, 103.86285305271481",
			"DISTANCE": "16.7",
			"GEOMETRIES": "sufGal|xRIGu@m@a@]m@g@kB}Ae@_@k@e@u@m@"
		},
		{
			"BUS_SEQUENCE": 38,
			"START_BUS_STOP": "GOLDENHILL PK CONDO",
			"END_BUS_STOP": "CARDIFF RESIDENCE",
			"START_BUS_STOP_NUM": "66701",
			"START_BUS_STOP_LATLNG": "1.352218056231043, 103.86285305271481",
			"END_BUS_STOP_NUM": "66031",
			"END_BUS_STOP_LATLNG": "1.3546564065919922, 103.86572364607076",
			"DISTANCE": "17",
			"GEOMETRIES": "wagGov|xRMK{D_DuAeAmAWCOQkA[gA_@aASo@IU"
		},
		{
			"BUS_SEQUENCE": 39,
			"START_BUS_STOP": "CARDIFF RESIDENCE",
			"END_BUS_STOP": "OPP GRACE WK",
			"START_BUS_STOP_NUM": "66031",
			"START_BUS_STOP_LATLNG": "1.3546564065919922, 103.86572364607076",
			"END_BUS_STOP_NUM": "66111",
			"END_BUS_STOP_LATLNG": "1.3584827779930093, 103.86823666699912",
			"DISTANCE": "17.4",
			"GEOMETRIES": "upgGeh}xRkAeDc@mAe@Y_A_AmC_B_BUMA]EcD[aAG}@GEA"
		},
		{
			"BUS_SEQUENCE": 40,
			"START_BUS_STOP": "OPP GRACE WK",
			"END_BUS_STOP": "CHUAN TERR",
			"START_BUS_STOP_NUM": "66111",
			"START_BUS_STOP_LATLNG": "1.3584827779930093, 103.86823666699912",
			"END_BUS_STOP_NUM": "66121",
			"END_BUS_STOP_LATLNG": "1.3623997219785469, 103.86776000002243",
			"DISTANCE": "17.9",
			"GEOMETRIES": "oihG_x}xRS?aCE_@B{AHQ@QBmBPyCZE@O@C?WBOBkALeAF"
		},
		{
			"BUS_SEQUENCE": 41,
			"START_BUS_STOP": "CHUAN TERR",
			"END_BUS_STOP": "S'GOON GDN CIRCUS",
			"START_BUS_STOP_NUM": "66121",
			"START_BUS_STOP_LATLNG": "1.3623997219785469, 103.86776000002243",
			"END_BUS_STOP_NUM": "66271",
			"END_BUS_STOP_LATLNG": "1.363983333000807, 103.86578916701895",
			"DISTANCE": "18.3",
			"GEOMETRIES": "abiGau}xRo@DuBJ}@t@Ub@?v@?H?nBKn@FNATEHKFUBEC"
		},
		{
			"BUS_SEQUENCE": 43,
			"START_BUS_STOP": "AFT TRINITY METH CH",
			"END_BUS_STOP": "BEF YIO CHU KANG RD",
			"START_BUS_STOP_NUM": "66131",
			"START_BUS_STOP_LATLNG": "1.3634669815038147, 103.87019205208469",
			"END_BUS_STOP_NUM": "66141",
			"END_BUS_STOP_LATLNG": "1.3631182885589272, 103.87239656838273",
			"DISTANCE": "19.2",
			"GEOMETRIES": "ihiGsc~xRNw@@_@F_CBiARqAJ[R["
		},
		{
			"BUS_SEQUENCE": 44,
			"START_BUS_STOP": "BEF YIO CHU KANG RD",
			"END_BUS_STOP": "AFT S'GOON NTH AVE 1",
			"START_BUS_STOP_NUM": "66141",
			"START_BUS_STOP_LATLNG": "1.3631182885589272, 103.87239656838273",
			"END_BUS_STOP_NUM": "63191",
			"END_BUS_STOP_LATLNG": "1.3642627780272252, 103.87403972199432",
			"DISTANCE": "19.4",
			"GEOMETRIES": "weiG_q~xRFMT]p@u@RUHOCMGWQWy@YyAu@i@WWMe@Qa@Oc@Q"
		},
		{
			"BUS_SEQUENCE": 45,
			"START_BUS_STOP": "AFT S'GOON NTH AVE 1",
			"END_BUS_STOP": "AFFINITY AT SERANGOON",
			"START_BUS_STOP_NUM": "63191",
			"START_BUS_STOP_LATLNG": "1.3642627780272252, 103.87403972199432",
			"END_BUS_STOP_NUM": "63201",
			"END_BUS_STOP_LATLNG": "1.3661778945992444, 103.87492029493986",
			"DISTANCE": "19.7",
			"GEOMETRIES": "imiGo|~xRwHuC_@Mc@O"
		},
		{
			"BUS_SEQUENCE": 46,
			"START_BUS_STOP": "AFFINITY AT SERANGOON",
			"END_BUS_STOP": "BLK 138",
			"START_BUS_STOP_NUM": "63201",
			"START_BUS_STOP_LATLNG": "1.3661778945992444, 103.87492029493986",
			"END_BUS_STOP_NUM": "63211",
			"END_BUS_STOP_LATLNG": "1.3681463823119508, 103.87573084011619",
			"DISTANCE": "19.9",
			"GEOMETRIES": "eyiGcb_yRCAqCaAOGcDcAMEq@S"
		},
		{
			"BUS_SEQUENCE": 47,
			"START_BUS_STOP": "BLK 138",
			"END_BUS_STOP": "OPP GRACEHAVEN S ARMY",
			"START_BUS_STOP_NUM": "63211",
			"START_BUS_STOP_LATLNG": "1.3681463823119508, 103.87573084011619",
			"END_BUS_STOP_NUM": "64101",
			"END_BUS_STOP_LATLNG": "1.3723353484915901, 103.87662504903221",
			"DISTANCE": "20.2",
			"GEOMETRIES": "oejGmg_yRk@Oq@QKCc@GuAYMCKAOAkBSUCMAsBSoCUa@EuAKG?m@E"
		},
		{
			"BUS_SEQUENCE": 48,
			"START_BUS_STOP": "OPP GRACEHAVEN S ARMY",
			"END_BUS_STOP": "BLK 504A CP",
			"START_BUS_STOP_NUM": "64101",
			"START_BUS_STOP_LATLNG": "1.3723353484915901, 103.87662504903221",
			"END_BUS_STOP_NUM": "66439",
			"END_BUS_STOP_LATLNG": "1.3739376207269163, 103.87551294197843",
			"DISTANCE": "20.7",
			"GEOMETRIES": "_`kGyl_yRoHg@oDIQLONORITKlFvCFjAB"
		},
		{
			"BUS_SEQUENCE": 49,
			"START_BUS_STOP": "BLK 504A CP",
			"END_BUS_STOP": "BLK 530",
			"START_BUS_STOP_NUM": "66439",
			"START_BUS_STOP_LATLNG": "1.3739376207269163, 103.87551294197843",
			"END_BUS_STOP_NUM": "66429",
			"END_BUS_STOP_LATLNG": "1.3735218269772687, 103.87243744452266",
			"DISTANCE": "21.3",
			"GEOMETRIES": "cjkGid_yRbBB|ABP@t@@TDRHZ^DJ@V@JAl@ClAAd@I\\KPUP]JoBAYDa@VKNENCHCtAA^Aj@@P"
		},
		{
			"BUS_SEQUENCE": 50,
			"START_BUS_STOP": "BLK 530",
			"END_BUS_STOP": "BLK 101",
			"START_BUS_STOP_NUM": "66429",
			"START_BUS_STOP_LATLNG": "1.3735218269772687, 103.87243744452266",
			"END_BUS_STOP_NUM": "66339",
			"END_BUS_STOP_LATLNG": "1.3712518322290261, 103.8705580506852",
			"DISTANCE": "21.9",
			"GEOMETRIES": "chkGsq~xR@NT`@??\\^lArA|@u@^IZ?vC\\rAPCNUxA[jB"
		},
		{
			"BUS_SEQUENCE": 51,
			"START_BUS_STOP": "BLK 101",
			"END_BUS_STOP": "OPP DAIKIN S'PORE",
			"START_BUS_STOP_NUM": "66339",
			"START_BUS_STOP_LATLNG": "1.3712518322290261, 103.8705580506852",
			"END_BUS_STOP_NUM": "66349",
			"END_BUS_STOP_LATLNG": "1.370827600141084, 103.8654177167272",
			"DISTANCE": "22.3",
			"GEOMETRIES": "ozjGgf~xRMt@UtAe@|CMnAEtADbCPfCJd@d@|ATt@JRdArB@B"
		},
		{
			"BUS_SEQUENCE": 52,
			"START_BUS_STOP": "OPP DAIKIN S'PORE",
			"END_BUS_STOP": "OPP BLK 5022",
			"START_BUS_STOP_NUM": "66349",
			"START_BUS_STOP_LATLNG": "1.370827600141084, 103.8654177167272",
			"END_BUS_STOP_NUM": "54309",
			"END_BUS_STOP_LATLNG": "1.36988835306854, 103.86306604022438",
			"DISTANCE": "22.9",
			"GEOMETRIES": "ywjGee}xRdApBNd@ZpAFRDTDPDRp@pC"
		},
		{
			"BUS_SEQUENCE": 53,
			"START_BUS_STOP": "OPP BLK 5022",
			"END_BUS_STOP": "OPP BLK 565",
			"START_BUS_STOP_NUM": "54309",
			"START_BUS_STOP_LATLNG": "1.36988835306854, 103.86306604022438",
			"END_BUS_STOP_NUM": "54299",
			"END_BUS_STOP_LATLNG": "1.3689015269781302, 103.85832656880862",
			"DISTANCE": "23.2",
			"GEOMETRIES": "{qjGyv|xRDTt@`Dp@bD@L^dCBNd@vEFbBFnB"
		},
		{
			"BUS_SEQUENCE": 54,
			"START_BUS_STOP": "OPP BLK 565",
			"END_BUS_STOP": "BLK 452",
			"START_BUS_STOP_NUM": "54299",
			"START_BUS_STOP_LATLNG": "1.3689015269781302, 103.85832656880862",
			"END_BUS_STOP_NUM": "54289",
			"END_BUS_STOP_LATLNG": "1.3691482420650523, 103.85598817378518",
			"DISTANCE": "23.8",
			"GEOMETRIES": "qkjGmy{xRDbAAzAErAEZCVE\\Ij@Mt@I^"
		},
		{
			"BUS_SEQUENCE": 55,
			"START_BUS_STOP": "BLK 452",
			"END_BUS_STOP": "BLK 427",
			"START_BUS_STOP_NUM": "54289",
			"START_BUS_STOP_LATLNG": "1.3691482420650523, 103.85598817378518",
			"END_BUS_STOP_NUM": "54279",
			"END_BUS_STOP_LATLNG": "1.3696891903342865, 103.85404760550173",
			"DISTANCE": "24.1",
			"GEOMETRIES": "emjGek{xRAJ]jBeAjGAD"
		},
		{
			"BUS_SEQUENCE": 56,
			"START_BUS_STOP": "BLK 427",
			"END_BUS_STOP": "OPP ANG MO KIO STN",
			"START_BUS_STOP_NUM": "54279",
			"START_BUS_STOP_LATLNG": "1.3696891903342865, 103.85404760550173",
			"END_BUS_STOP_NUM": "54269",
			"END_BUS_STOP_LATLNG": "1.3692963209038258, 103.8511100127193",
			"DISTANCE": "24.4",
			"GEOMETRIES": "mpjG{~zxRE~@?`@?dAJfBZhBDTp@`E"
		},
		{
			"BUS_SEQUENCE": 57,
			"START_BUS_STOP": "OPP ANG MO KIO STN",
			"END_BUS_STOP": "ANG MO KIO INT",
			"START_BUS_STOP_NUM": "54269",
			"START_BUS_STOP_LATLNG": "1.3692963209038258, 103.8511100127193",
			"END_BUS_STOP_NUM": "54009",
			"END_BUS_STOP_LATLNG": "1.3696876991333904, 103.84856716193268",
			"DISTANCE": "24.7",
			"GEOMETRIES": "smjGilzxRJn@v@pEBNa@Pw@^wB`A^v@F|@"
		}
	]
}