{
	"BUS_DIRECTION_ONE": [
		{
			"BUS_SEQUENCE": 1,
			"START_BUS_STOP": "YISHUN INT",
			"END_BUS_STOP": "BET BLKS 201/202",
			"START_BUS_STOP_NUM": "59009",
			"START_BUS_STOP_LATLNG": "1.42831117417874, 103.836146194677",
			"END_BUS_STOP_NUM": "59169",
			"END_BUS_STOP_LATLNG": "1.43040941914409, 103.83769654656",
			"DISTANCE": "0",
			"GEOMETRIES": "a|uGcmwxRIvBQA_CEaACwDGm@AY?@]?g@@gADkDDuC"
		},
		{
			"BUS_SEQUENCE": 2,
			"START_BUS_STOP": "BET BLKS 201/202",
			"END_BUS_STOP": "BLK 241",
			"START_BUS_STOP_NUM": "59169",
			"START_BUS_STOP_LATLNG": "1.43040941914409, 103.83769654656",
			"END_BUS_STOP_NUM": "59179",
			"END_BUS_STOP_LATLNG": "1.43221439515231, 103.839883316889",
			"DISTANCE": "0.7",
			"GEOMETRIES": "ojvGqxwxR@q@JgAVsAiEiA_Ac@YSwAuAYY"
		},
		{
			"BUS_SEQUENCE": 3,
			"START_BUS_STOP": "BLK 241",
			"END_BUS_STOP": "OPP BLK 314",
			"START_BUS_STOP_NUM": "59179",
			"START_BUS_STOP_LATLNG": "1.43221439515231, 103.839883316889",
			"END_BUS_STOP_NUM": "59389",
			"END_BUS_STOP_LATLNG": "1.43202071867504, 103.842082464423",
			"DISTANCE": "1.1",
			"GEOMETRIES": "_vvGqfxxRcDqDpB_CzAgBBC"
		},
		{
			"BUS_SEQUENCE": 4,
			"START_BUS_STOP": "OPP BLK 314",
			"END_BUS_STOP": "OPP BLK 367",
			"START_BUS_STOP_NUM": "59389",
			"START_BUS_STOP_LATLNG": "1.43202071867504, 103.842082464423",
			"END_BUS_STOP_NUM": "59399",
			"END_BUS_STOP_LATLNG": "1.43026750784845, 103.845520628725",
			"DISTANCE": "1.4",
			"GEOMETRIES": "qtvGosxxRz@cAd@k@LOJQNg@Fi@AcDBa@DY@ARi@f@o@NOtB}B"
		},
		{
			"BUS_SEQUENCE": 5,
			"START_BUS_STOP": "OPP BLK 367",
			"END_BUS_STOP": "EVANGEL FAMILY CH",
			"START_BUS_STOP_NUM": "59399",
			"START_BUS_STOP_LATLNG": "1.43026750784845, 103.845520628725",
			"END_BUS_STOP_NUM": "59409",
			"END_BUS_STOP_LATLNG": "1.42663883088373, 103.846406166229",
			"DISTANCE": "1.9",
			"GEOMETRIES": "qivG}hyxRfAmAp@m@j@QPEXCjAA~EIdEG"
		},
		{
			"BUS_SEQUENCE": 6,
			"START_BUS_STOP": "EVANGEL FAMILY CH",
			"END_BUS_STOP": "BLK 413",
			"START_BUS_STOP_NUM": "59409",
			"START_BUS_STOP_LATLNG": "1.42663883088373, 103.846406166229",
			"END_BUS_STOP_NUM": "59419",
			"END_BUS_STOP_LATLNG": "1.42525968028764, 103.845980274304",
			"DISTANCE": "2.3",
			"GEOMETRIES": "msuGinyxR^?|@Cb@B@?b@Fj@Xn@h@"
		},
		{
			"BUS_SEQUENCE": 7,
			"START_BUS_STOP": "BLK 413",
			"END_BUS_STOP": "BET BLKS 445/449",
			"START_BUS_STOP_NUM": "59419",
			"START_BUS_STOP_LATLNG": "1.42525968028764, 103.845980274304",
			"END_BUS_STOP_NUM": "59639",
			"END_BUS_STOP_LATLNG": "1.42318166665872, 103.844123888931",
			"DISTANCE": "2.5",
			"GEOMETRIES": "ikuG}kyxRdDrC^\\HFt@p@hC~BRH"
		},
		{
			"BUS_SEQUENCE": 8,
			"START_BUS_STOP": "BET BLKS 445/449",
			"END_BUS_STOP": "BLK 456",
			"START_BUS_STOP_NUM": "59639",
			"START_BUS_STOP_LATLNG": "1.42318166665872, 103.844123888931",
			"END_BUS_STOP_NUM": "59579",
			"END_BUS_STOP_LATLNG": "1.4203023713689, 103.843950848138",
			"DISTANCE": "2.8",
			"GEOMETRIES": "e~tGg`yxRh@Xr@Pr@F^BZ?jAAlBC|DG@?"
		},
		{
			"BUS_SEQUENCE": 9,
			"START_BUS_STOP": "BLK 456",
			"END_BUS_STOP": "BLK 504C",
			"START_BUS_STOP_NUM": "59579",
			"START_BUS_STOP_LATLNG": "1.4203023713689, 103.843950848138",
			"END_BUS_STOP_NUM": "59761",
			"END_BUS_STOP_LATLNG": "1.41849608053432, 103.843267403857",
			"DISTANCE": "3.1",
			"GEOMETRIES": "}ktG}~xxRx@@v@H\\DdAT~@`@d@T`@\\"
		},
		{
			"BUS_SEQUENCE": 10,
			"START_BUS_STOP": "BLK 504C",
			"END_BUS_STOP": "OPP BLK 672C",
			"START_BUS_STOP_NUM": "59761",
			"START_BUS_STOP_LATLNG": "1.41849608053432, 103.843267403857",
			"END_BUS_STOP_NUM": "59719",
			"END_BUS_STOP_LATLNG": "1.41756544907262, 103.842004972269",
			"DISTANCE": "3.3",
			"GEOMETRIES": "_atG_{xxRNLLJdAfAz@rAX|@"
		},
		{
			"BUS_SEQUENCE": 11,
			"START_BUS_STOP": "OPP BLK 672C",
			"END_BUS_STOP": "BLK 858",
			"START_BUS_STOP_NUM": "59719",
			"START_BUS_STOP_LATLNG": "1.41756544907262, 103.842004972269",
			"END_BUS_STOP_NUM": "59439",
			"END_BUS_STOP_LATLNG": "1.41782451621848, 103.838378197512",
			"DISTANCE": "3.5",
			"GEOMETRIES": "e{sGksxxRBJBd@@LEdASx@q@rBy@hCKl@A^D^^jAFR^lA"
		},
		{
			"BUS_SEQUENCE": 12,
			"START_BUS_STOP": "BLK 858",
			"END_BUS_STOP": "BLK 846",
			"START_BUS_STOP_NUM": "59439",
			"START_BUS_STOP_LATLNG": "1.41782451621848, 103.838378197512",
			"END_BUS_STOP_NUM": "59429",
			"END_BUS_STOP_LATLNG": "1.41743564532293, 103.835040079122",
			"DISTANCE": "3.9",
			"GEOMETRIES": "a}sGq|wxRX`A`A|C~@|CH^@`@E`@KZABaAfC"
		},
		{
			"BUS_SEQUENCE": 13,
			"START_BUS_STOP": "BLK 846",
			"END_BUS_STOP": "KHATIB STN EXIT D",
			"START_BUS_STOP_NUM": "59429",
			"START_BUS_STOP_LATLNG": "1.41743564532293, 103.835040079122",
			"END_BUS_STOP_NUM": "59569",
			"END_BUS_STOP_LATLNG": "1.41849332350079, 103.832939000214",
			"DISTANCE": "4.3",
			"GEOMETRIES": "ozsGghwxRa@`AeBhEkAvC"
		},
		{
			"BUS_SEQUENCE": 14,
			"START_BUS_STOP": "KHATIB STN EXIT D",
			"END_BUS_STOP": "NAVAL BASE SEC SCH",
			"START_BUS_STOP_NUM": "59569",
			"START_BUS_STOP_LATLNG": "1.41849332350079, 103.832939000214",
			"END_BUS_STOP_NUM": "59329",
			"END_BUS_STOP_LATLNG": "1.41968029160119, 103.831795969452",
			"DISTANCE": "4.6",
			"GEOMETRIES": "catGc{vxR_@z@KVQb@i@j@QHMFyAf@"
		},
		{
			"BUS_SEQUENCE": 15,
			"START_BUS_STOP": "NAVAL BASE SEC SCH",
			"END_BUS_STOP": "OPP BLK 774",
			"START_BUS_STOP_NUM": "59329",
			"START_BUS_STOP_LATLNG": "1.41968029160119, 103.831795969452",
			"END_BUS_STOP_NUM": "59089",
			"END_BUS_STOP_LATLNG": "1.42397861098025, 103.831557499979",
			"DISTANCE": "4.8",
			"GEOMETRIES": "ehtGetvxRKBcBj@eBXeABM?yI?kCC_AY"
		},
		{
			"BUS_SEQUENCE": 16,
			"START_BUS_STOP": "OPP BLK 774",
			"END_BUS_STOP": "BLK 729",
			"START_BUS_STOP_NUM": "59089",
			"START_BUS_STOP_LATLNG": "1.42397861098025, 103.831557499979",
			"END_BUS_STOP_NUM": "59319",
			"END_BUS_STOP_LATLNG": "1.42617166698404, 103.832010832974",
			"DISTANCE": "5.3",
			"GEOMETRIES": "ubuGurvxReEoAs@Mk@Ak@@iBB"
		},
		{
			"BUS_SEQUENCE": 17,
			"START_BUS_STOP": "BLK 729",
			"END_BUS_STOP": "JIEMIN PR SCH",
			"START_BUS_STOP_NUM": "59319",
			"START_BUS_STOP_LATLNG": "1.42617166698404, 103.832010832974",
			"END_BUS_STOP_NUM": "59309",
			"END_BUS_STOP_LATLNG": "1.42826195477761, 103.830630723714",
			"DISTANCE": "5.5",
			"GEOMETRIES": "qpuGouvxRmCDc@Fc@TyA`B}BpC"
		}
	]
}