{
	"BUS_DIRECTION_ONE": [
		{
			"BUS_SEQUENCE": 1,
			"START_BUS_STOP": "PUNGGOL TEMP INT",
			"END_BUS_STOP": "OPP BLK 201A",
			"START_BUS_STOP_NUM": "65009",
			"START_BUS_STOP_LATLNG": "1.40370629859822, 103.902243375753",
			"END_BUS_STOP_NUM": "65201",
			"END_BUS_STOP_LATLNG": "1.40112381464495, 103.902973452407",
			"DISTANCE": "0",
			"GEOMETRIES": "odqGgldyRt@KjAgCtFrC`@A`@AXKd@a@~AiE"
		},
		{
			"BUS_SEQUENCE": 2,
			"START_BUS_STOP": "OPP BLK 201A",
			"END_BUS_STOP": "BLK 102C",
			"START_BUS_STOP_NUM": "65201",
			"START_BUS_STOP_LATLNG": "1.40112381464495, 103.902973452407",
			"END_BUS_STOP_NUM": "65079",
			"END_BUS_STOP_LATLNG": "1.39893574516181, 103.904748022938",
			"DISTANCE": "0.5",
			"GEOMETRIES": "sqpGctdyRj@oA`AwB`@aARc@^Nr@T`Bn@@@"
		},
		{
			"BUS_SEQUENCE": 3,
			"START_BUS_STOP": "BLK 102C",
			"END_BUS_STOP": "BLK 190C",
			"START_BUS_STOP_NUM": "65079",
			"START_BUS_STOP_LATLNG": "1.39893574516181, 103.904748022938",
			"END_BUS_STOP_NUM": "65069",
			"END_BUS_STOP_LATLNG": "1.39504382175966, 103.902368248585",
			"DISTANCE": "0.8",
			"GEOMETRIES": "wfpGyzdyRnBt@JD|Al@rBt@HDXJjBt@\\LDBpAz@l@^vApAf@f@@@"
		},
		{
			"BUS_SEQUENCE": 4,
			"START_BUS_STOP": "BLK 190C",
			"END_BUS_STOP": "ST. ANNE'S CH",
			"START_BUS_STOP_NUM": "65069",
			"START_BUS_STOP_LATLNG": "1.39504382175966, 103.902368248585",
			"END_BUS_STOP_NUM": "65059",
			"END_BUS_STOP_LATLNG": "1.39308440832899, 103.901293552041",
			"DISTANCE": "1.3",
			"GEOMETRIES": "snoGgldyRVVh@j@f@h@^Zt@d@^Jl@Lt@LbAFN@@?"
		},
		{
			"BUS_SEQUENCE": 5,
			"START_BUS_STOP": "ST. ANNE'S CH",
			"END_BUS_STOP": "BLK 126A",
			"START_BUS_STOP_NUM": "65059",
			"START_BUS_STOP_LATLNG": "1.39308440832899, 103.901293552041",
			"END_BUS_STOP_NUM": "65049",
			"END_BUS_STOP_LATLNG": "1.38993499998792, 103.901871666986",
			"DISTANCE": "1.6",
			"GEOMETRIES": "yaoGeedyRZ?d@Cf@ErAMz@Kr@Kd@Id@G^GZEbAM`CY"
		},
		{
			"BUS_SEQUENCE": 6,
			"START_BUS_STOP": "BLK 126A",
			"END_BUS_STOP": "BLK 124",
			"START_BUS_STOP_NUM": "65049",
			"START_BUS_STOP_LATLNG": "1.38993499998792, 103.901871666986",
			"END_BUS_STOP_NUM": "65039",
			"END_BUS_STOP_LATLNG": "1.38732058981564, 103.901855679507",
			"DISTANCE": "2",
			"GEOMETRIES": "}mnG}hdyRDA@?t@IhDOp@DrEHP@"
		},
		{
			"BUS_SEQUENCE": 7,
			"START_BUS_STOP": "BLK 124",
			"END_BUS_STOP": "BLK 111",
			"START_BUS_STOP_NUM": "65039",
			"START_BUS_STOP_LATLNG": "1.38732058981564, 103.901855679507",
			"END_BUS_STOP_NUM": "65029",
			"END_BUS_STOP_LATLNG": "1.38461500003195, 103.900615832983",
			"DISTANCE": "2.3",
			"GEOMETRIES": "}}mGgidyR@?n@FbBLj@DXBVHl@Rj@Tj@^x@p@xAzA"
		},
		{
			"BUS_SEQUENCE": 8,
			"START_BUS_STOP": "BLK 111",
			"END_BUS_STOP": "THE RIVERVALE",
			"START_BUS_STOP_NUM": "65029",
			"START_BUS_STOP_LATLNG": "1.38461500003195, 103.900615832983",
			"END_BUS_STOP_NUM": "65019",
			"END_BUS_STOP_LATLNG": "1.38151407829697, 103.897492379194",
			"DISTANCE": "2.6",
			"GEOMETRIES": "ommGeadyRRRvAvAp@r@h@l@vAtBJN^h@NTTXf@l@hBlBpBl@"
		},
		{
			"BUS_SEQUENCE": 9,
			"START_BUS_STOP": "THE RIVERVALE",
			"END_BUS_STOP": "OPP BLK 458",
			"START_BUS_STOP_NUM": "65019",
			"START_BUS_STOP_LATLNG": "1.38151407829697, 103.897492379194",
			"END_BUS_STOP_NUM": "64029",
			"END_BUS_STOP_LATLNG": "1.37781617357511, 103.896882838123",
			"DISTANCE": "3.1",
			"GEOMETRIES": "yylGmmcyRF@@@dBXjBXxBRz@F^Bb@B|@H|AJXB@?T?~@BF?"
		},
		{
			"BUS_SEQUENCE": 10,
			"START_BUS_STOP": "OPP BLK 458",
			"END_BUS_STOP": "BLK 412",
			"START_BUS_STOP_NUM": "64029",
			"START_BUS_STOP_LATLNG": "1.37781617357511, 103.896882838123",
			"END_BUS_STOP_NUM": "64429",
			"END_BUS_STOP_LATLNG": "1.37481689904602, 103.895219567254",
			"DISTANCE": "3.5",
			"GEOMETRIES": "mblGsicyRzBF\\HnAl@z@d@HDNHf@Xr@`@~@j@XVHDLJl@f@PN"
		},
		{
			"BUS_SEQUENCE": 11,
			"START_BUS_STOP": "BLK 412",
			"END_BUS_STOP": "OPP BLK 521",
			"START_BUS_STOP_NUM": "64429",
			"START_BUS_STOP_LATLNG": "1.37481689904602, 103.895219567254",
			"END_BUS_STOP_NUM": "64381",
			"END_BUS_STOP_LATLNG": "1.37288245131287, 103.891703849626",
			"DISTANCE": "3.9",
			"GEOMETRIES": "_pkGs_cyRrAdADBFDzAlAVJZDjA?R?d@?A~@?hB?x@Ar@?T?hB?dB"
		},
		{
			"BUS_SEQUENCE": 12,
			"START_BUS_STOP": "OPP BLK 521",
			"END_BUS_STOP": "BLK 831",
			"START_BUS_STOP_NUM": "64381",
			"START_BUS_STOP_LATLNG": "1.37288245131287, 103.891703849626",
			"END_BUS_STOP_NUM": "64391",
			"END_BUS_STOP_LATLNG": "1.37145414929063, 103.889765739462",
			"DISTANCE": "4.4",
			"GEOMETRIES": "kdkGejbyR?Z?n@BZJXX`@rDfDjAfA"
		},
		{
			"BUS_SEQUENCE": 13,
			"START_BUS_STOP": "BLK 831",
			"END_BUS_STOP": "OPP HOUGANG SWIM CPLX",
			"START_BUS_STOP_NUM": "64391",
			"START_BUS_STOP_LATLNG": "1.37145414929063, 103.889765739462",
			"END_BUS_STOP_NUM": "63351",
			"END_BUS_STOP_LATLNG": "1.36922638899711, 103.887863888971",
			"DISTANCE": "4.7",
			"GEOMETRIES": "a{jGq}ayRXV@@r@d@p@d@z@j@t@f@~BzAfA|A@B"
		},
		{
			"BUS_SEQUENCE": 14,
			"START_BUS_STOP": "OPP HOUGANG SWIM CPLX",
			"END_BUS_STOP": "OPP BLK 709",
			"START_BUS_STOP_NUM": "63351",
			"START_BUS_STOP_LATLNG": "1.36922638899711, 103.887863888971",
			"END_BUS_STOP_NUM": "63341",
			"END_BUS_STOP_LATLNG": "1.36751402871615, 103.888829881199",
			"DISTANCE": "5",
			"GEOMETRIES": "cmjGyqayR~@pA^b@h@^tA^vAw@PaA~@iFDO"
		},
		{
			"BUS_SEQUENCE": 15,
			"START_BUS_STOP": "OPP BLK 709",
			"END_BUS_STOP": "OPP S'GOON JC",
			"START_BUS_STOP_NUM": "63341",
			"START_BUS_STOP_LATLNG": "1.36751402871615, 103.888829881199",
			"END_BUS_STOP_NUM": "63059",
			"END_BUS_STOP_LATLNG": "1.36437667280221, 103.889841495864",
			"DISTANCE": "5.4",
			"GEOMETRIES": "s`jGwwayR??VaATo@L]?AHMPa@??BCT]bD}Ct@o@LNd@f@pDvD"
		},
		{
			"BUS_SEQUENCE": 16,
			"START_BUS_STOP": "OPP S'GOON JC",
			"END_BUS_STOP": "GLAD TIDINGS CH",
			"START_BUS_STOP_NUM": "63059",
			"START_BUS_STOP_LATLNG": "1.36437667280221, 103.889841495864",
			"END_BUS_STOP_NUM": "63049",
			"END_BUS_STOP_LATLNG": "1.36219166668854, 103.887522777797",
			"DISTANCE": "5.9",
			"GEOMETRIES": "aoiGy}ayRHFHL`AlAxAzADDFF~A`BFF^`@FFHHt@v@f@f@"
		},
		{
			"BUS_SEQUENCE": 17,
			"START_BUS_STOP": "GLAD TIDINGS CH",
			"END_BUS_STOP": "KOVAN STN EXIT C",
			"START_BUS_STOP_NUM": "63049",
			"START_BUS_STOP_LATLNG": "1.36219166668854, 103.887522777797",
			"END_BUS_STOP_NUM": "63039",
			"END_BUS_STOP_LATLNG": "1.36026000003341, 103.88538416664",
			"DISTANCE": "6.3",
			"GEOMETRIES": "kaiGmoayR^`@n@t@x@r@Z\\x@|@FHJJvAbBh@p@HJ"
		},
		{
			"BUS_SEQUENCE": 18,
			"START_BUS_STOP": "KOVAN STN EXIT C",
			"END_BUS_STOP": "OPP THE HELPING HAND",
			"START_BUS_STOP_NUM": "63039",
			"START_BUS_STOP_LATLNG": "1.36026000003341, 103.88538416664",
			"END_BUS_STOP_NUM": "63029",
			"END_BUS_STOP_LATLNG": "1.35727472200293, 103.882180278027",
			"DISTANCE": "6.7",
			"GEOMETRIES": "kuhGmbayRvAfBhHxHl@n@LL`BdBz@`A"
		},
		{
			"BUS_SEQUENCE": 19,
			"START_BUS_STOP": "OPP THE HELPING HAND",
			"END_BUS_STOP": "AFT UPP S'GOON SHOP CTR",
			"START_BUS_STOP_NUM": "63029",
			"START_BUS_STOP_LATLNG": "1.35727472200293, 103.882180278027",
			"END_BUS_STOP_NUM": "63019",
			"END_BUS_STOP_LATLNG": "1.35347964311763, 103.878001417024",
			"DISTANCE": "7.2",
			"GEOMETRIES": "obhGen`yRlArAz@`AjAxA\\\\FFJJNNbArAd@j@DFDDt@`Ad@j@pApApA|Az@r@n@p@"
		},
		{
			"BUS_SEQUENCE": 20,
			"START_BUS_STOP": "AFT UPP S'GOON SHOP CTR",
			"END_BUS_STOP": "FOREST WOODS",
			"START_BUS_STOP_NUM": "63019",
			"START_BUS_STOP_LATLNG": "1.35347964311763, 103.878001417024",
			"END_BUS_STOP_NUM": "62149",
			"END_BUS_STOP_LATLNG": "1.35169173270668, 103.875953323123",
			"DISTANCE": "7.8",
			"GEOMETRIES": "ujgGat_yR^`@~AfBjBxBv@`AdAlA"
		},
		{
			"BUS_SEQUENCE": 21,
			"START_BUS_STOP": "FOREST WOODS",
			"END_BUS_STOP": "S'GOON STN EXIT B",
			"START_BUS_STOP_NUM": "62149",
			"START_BUS_STOP_LATLNG": "1.35169173270668, 103.875953323123",
			"END_BUS_STOP_NUM": "66351",
			"END_BUS_STOP_LATLNG": "1.35049831450162, 103.873244865217",
			"DISTANCE": "8.1",
			"GEOMETRIES": "k_gGmg_yRt@|@~DlE|ArAh@b@m@f@y@n@m@b@"
		},
		{
			"BUS_SEQUENCE": 22,
			"START_BUS_STOP": "S'GOON STN EXIT B",
			"END_BUS_STOP": "BLK 261",
			"START_BUS_STOP_NUM": "66351",
			"START_BUS_STOP_LATLNG": "1.35049831450162, 103.873244865217",
			"END_BUS_STOP_NUM": "66371",
			"END_BUS_STOP_LATLNG": "1.353767301605, 103.872685432406",
			"DISTANCE": "8.5",
			"GEOMETRIES": "cxfGmw~xR_CdBKH]NOHe@LY?}@?[AwAKuBMyAI"
		},
		{
			"BUS_SEQUENCE": 23,
			"START_BUS_STOP": "BLK 261",
			"END_BUS_STOP": "S'GOON STADIUM",
			"START_BUS_STOP_NUM": "66371",
			"START_BUS_STOP_LATLNG": "1.353767301605, 103.872685432406",
			"END_BUS_STOP_NUM": "63149",
			"END_BUS_STOP_LATLNG": "1.35489972198729, 103.87452555599",
			"DISTANCE": "8.9",
			"GEOMETRIES": "_lgG{s~xR????gAS]Gq@MqBm@oAk@MGFQZs@R[xA{ABA"
		},
		{
			"BUS_SEQUENCE": 24,
			"START_BUS_STOP": "S'GOON STADIUM",
			"END_BUS_STOP": "OPP UPP S'GOON SHOP CTR",
			"START_BUS_STOP_NUM": "63149",
			"START_BUS_STOP_LATLNG": "1.35489972198729, 103.87452555599",
			"END_BUS_STOP_NUM": "63011",
			"END_BUS_STOP_LATLNG": "1.35432115760902, 103.878235759372",
			"DISTANCE": "9.3",
			"GEOMETRIES": "qrgGg~~xRHI~@w@bH_GZm@F]Ee@WYaBmByAgBe@q@a@k@"
		},
		{
			"BUS_SEQUENCE": 25,
			"START_BUS_STOP": "OPP UPP S'GOON SHOP CTR",
			"END_BUS_STOP": "THE HELPING HAND",
			"START_BUS_STOP_NUM": "63011",
			"START_BUS_STOP_LATLNG": "1.35432115760902, 103.878235759372",
			"END_BUS_STOP_NUM": "63021",
			"END_BUS_STOP_LATLNG": "1.3570580828827, 103.881616130876",
			"DISTANCE": "9.9",
			"GEOMETRIES": "aogGiv_yRs@aAc@u@k@uAe@k@u@aAEEEGe@k@cAsAOOKKGG]]kAyA{@aA"
		},
		{
			"BUS_SEQUENCE": 26,
			"START_BUS_STOP": "THE HELPING HAND",
			"END_BUS_STOP": "KOVAN STN EXIT B",
			"START_BUS_STOP_NUM": "63021",
			"START_BUS_STOP_LATLNG": "1.3570580828827, 103.881616130876",
			"END_BUS_STOP_NUM": "63031",
			"END_BUS_STOP_LATLNG": "1.36050444441455, 103.88535194446",
			"DISTANCE": "10.4",
			"GEOMETRIES": "a`hGqk`yRmAsA{@aAaBeBMMm@o@iHyHwAgBIK"
		},
		{
			"BUS_SEQUENCE": 27,
			"START_BUS_STOP": "KOVAN STN EXIT B",
			"END_BUS_STOP": "OPP GLAD TIDINGS CH",
			"START_BUS_STOP_NUM": "63031",
			"START_BUS_STOP_LATLNG": "1.36050444441455, 103.88535194446",
			"END_BUS_STOP_NUM": "63041",
			"END_BUS_STOP_LATLNG": "1.36259166703136, 103.887548056024",
			"DISTANCE": "11",
			"GEOMETRIES": "uuhGybayRi@q@wAcBKKGIy@}@[]y@s@o@u@_@a@g@g@"
		},
		{
			"BUS_SEQUENCE": 28,
			"START_BUS_STOP": "OPP GLAD TIDINGS CH",
			"END_BUS_STOP": "S'GOON JC",
			"START_BUS_STOP_NUM": "63041",
			"START_BUS_STOP_LATLNG": "1.36259166703136, 103.887548056024",
			"END_BUS_STOP_NUM": "63051",
			"END_BUS_STOP_LATLNG": "1.36415166798646, 103.88914278487",
			"DISTANCE": "11.3",
			"GEOMETRIES": "sbiGupayRu@w@IIGG_@a@GG_BaBGGEEyA{A"
		},
		{
			"BUS_SEQUENCE": 29,
			"START_BUS_STOP": "S'GOON JC",
			"END_BUS_STOP": "BLK 708",
			"START_BUS_STOP_NUM": "63051",
			"START_BUS_STOP_LATLNG": "1.36415166798646, 103.88914278487",
			"END_BUS_STOP_NUM": "63349",
			"END_BUS_STOP_LATLNG": "1.36687207146588, 103.889233585203",
			"DISTANCE": "11.5",
			"GEOMETRIES": "kliGuzayRaAmAIMIGqDwD_AGi@?cD|CU\\CB??Q`@IL?@M\\"
		},
		{
			"BUS_SEQUENCE": 30,
			"START_BUS_STOP": "BLK 708",
			"END_BUS_STOP": "HOUGANG SWIM CPLX",
			"START_BUS_STOP_NUM": "63349",
			"START_BUS_STOP_LATLNG": "1.36687207146588, 103.889233585203",
			"END_BUS_STOP_NUM": "63359",
			"END_BUS_STOP_LATLNG": "1.36936804895468, 103.887792336548",
			"DISTANCE": "12",
			"GEOMETRIES": "e_jGi{ayRUn@W`AEN_AhFQ`AIp@ETgAOuA_@i@_@_@c@_AqAAC"
		},
		{
			"BUS_SEQUENCE": 31,
			"START_BUS_STOP": "HOUGANG SWIM CPLX",
			"END_BUS_STOP": "BLK 512",
			"START_BUS_STOP_NUM": "63359",
			"START_BUS_STOP_LATLNG": "1.36936804895468, 103.887792336548",
			"END_BUS_STOP_NUM": "64399",
			"END_BUS_STOP_LATLNG": "1.37121818386817, 103.889257193225",
			"DISTANCE": "12.5",
			"GEOMETRIES": "emjG}qayRgA}A_C{Au@g@{@k@q@e@"
		},
		{
			"BUS_SEQUENCE": 32,
			"START_BUS_STOP": "BLK 512",
			"END_BUS_STOP": "BLK 522",
			"START_BUS_STOP_NUM": "64399",
			"START_BUS_STOP_LATLNG": "1.37121818386817, 103.889257193225",
			"END_BUS_STOP_NUM": "64389",
			"END_BUS_STOP_LATLNG": "1.37313809346006, 103.891568183885",
			"DISTANCE": "12.8",
			"GEOMETRIES": "qxjGq{ayRs@e@AAYWkAgAsDgDYa@KYC[?o@"
		},
		{
			"BUS_SEQUENCE": 33,
			"START_BUS_STOP": "BLK 522",
			"END_BUS_STOP": "BLK 421",
			"START_BUS_STOP_NUM": "64389",
			"START_BUS_STOP_LATLNG": "1.37313809346006, 103.891568183885",
			"END_BUS_STOP_NUM": "64421",
			"END_BUS_STOP_LATLNG": "1.37505042808455, 103.895118292295",
			"DISTANCE": "13.2",
			"GEOMETRIES": "kdkGiibyR?[?eB?iB?U@s@?y@?iB[e@[YkA?[EWK{AmAGEECsAeAQO"
		},
		{
			"BUS_SEQUENCE": 34,
			"START_BUS_STOP": "BLK 421",
			"END_BUS_STOP": "BLK 458",
			"START_BUS_STOP_NUM": "64421",
			"START_BUS_STOP_LATLNG": "1.37505042808455, 103.895118292295",
			"END_BUS_STOP_NUM": "64021",
			"END_BUS_STOP_LATLNG": "1.37788950153352, 103.896638453773",
			"DISTANCE": "13.7",
			"GEOMETRIES": "qpkGc`cyRm@g@MKIEYW_Ak@s@a@g@YOIIE{@e@oAm@]I{BGG?"
		},
		{
			"BUS_SEQUENCE": 35,
			"START_BUS_STOP": "BLK 458",
			"END_BUS_STOP": "OPP THE RIVERVALE",
			"START_BUS_STOP_NUM": "64021",
			"START_BUS_STOP_LATLNG": "1.37788950153352, 103.896638453773",
			"END_BUS_STOP_NUM": "65011",
			"END_BUS_STOP_LATLNG": "1.38159696830765, 103.897209517833",
			"DISTANCE": "14.1",
			"GEOMETRIES": "ublGsicyR_ACU?A?YC}AK}@Ic@C_@C{@GyBSkBYeBY??AA"
		},
		{
			"BUS_SEQUENCE": 36,
			"START_BUS_STOP": "OPP THE RIVERVALE",
			"END_BUS_STOP": "OPP BLK 110",
			"START_BUS_STOP_NUM": "65011",
			"START_BUS_STOP_LATLNG": "1.38159696830765, 103.897209517833",
			"END_BUS_STOP_NUM": "65021",
			"END_BUS_STOP_LATLNG": "1.38403136207098, 103.899613455451",
			"DISTANCE": "14.5",
			"GEOMETRIES": "qylGkmcyRGAqBm@iBmBg@m@UYOU_@i@KOwAuBi@m@"
		},
		{
			"BUS_SEQUENCE": 37,
			"START_BUS_STOP": "OPP BLK 110",
			"END_BUS_STOP": "BLK 227D",
			"START_BUS_STOP_NUM": "65021",
			"START_BUS_STOP_LATLNG": "1.38403136207098, 103.899613455451",
			"END_BUS_STOP_NUM": "65031",
			"END_BUS_STOP_LATLNG": "1.38711144385727, 103.901677608413",
			"DISTANCE": "14.9",
			"GEOMETRIES": "qhmGe|cyRq@s@wAwASSyA{Ay@q@k@_@k@Um@SWIYCk@EcBM"
		},
		{
			"BUS_SEQUENCE": 38,
			"START_BUS_STOP": "BLK 227D",
			"END_BUS_STOP": "BLK 231",
			"START_BUS_STOP_NUM": "65031",
			"START_BUS_STOP_LATLNG": "1.38711144385727, 103.901677608413",
			"END_BUS_STOP_NUM": "65041",
			"END_BUS_STOP_LATLNG": "1.38984412426173, 103.901622657342",
			"DISTANCE": "15.3",
			"GEOMETRIES": "k|mG_idyRq@GQAsEIq@EiDNu@H"
		},
		{
			"BUS_SEQUENCE": 39,
			"START_BUS_STOP": "BLK 231",
			"END_BUS_STOP": "BLK 298A",
			"START_BUS_STOP_NUM": "65041",
			"START_BUS_STOP_LATLNG": "1.38984412426173, 103.901622657342",
			"END_BUS_STOP_NUM": "65061",
			"END_BUS_STOP_LATLNG": "1.394944120499, 103.901916582993",
			"DISTANCE": "15.6",
			"GEOMETRIES": "umnG_idyRA?E@aCXcAL[D_@Fe@Fe@Hs@J{@JsALg@De@B[?QAcAGu@Mm@M_@Ku@e@_@[g@i@"
		},
		{
			"BUS_SEQUENCE": 40,
			"START_BUS_STOP": "BLK 298A",
			"END_BUS_STOP": "OPP BLK 103A",
			"START_BUS_STOP_NUM": "65061",
			"START_BUS_STOP_LATLNG": "1.394944120499, 103.901916582993",
			"END_BUS_STOP_NUM": "65071",
			"END_BUS_STOP_LATLNG": "1.39845074063981, 103.9041638374",
			"DISTANCE": "16.2",
			"GEOMETRIES": "qloGcjdyRAAg@i@WWAAg@g@wAqAm@_@qA{@EC]MkBu@YKIEsBu@}Am@??"
		},
		{
			"BUS_SEQUENCE": 41,
			"START_BUS_STOP": "OPP BLK 103A",
			"END_BUS_STOP": "AFT PUNGGOL RD",
			"START_BUS_STOP_NUM": "65071",
			"START_BUS_STOP_LATLNG": "1.39845074063981, 103.9041638374",
			"END_BUS_STOP_NUM": "65209",
			"END_BUS_STOP_LATLNG": "1.40039133010799, 103.903935774586",
			"DISTANCE": "16.7",
			"GEOMETRIES": "{bpG}xdyRKEoBu@cBq@o@Dm@Lk@j@aAvB"
		},
		{
			"BUS_SEQUENCE": 42,
			"START_BUS_STOP": "AFT PUNGGOL RD",
			"END_BUS_STOP": "PUNGGOL TEMP INT",
			"START_BUS_STOP_NUM": "65209",
			"START_BUS_STOP_LATLNG": "1.40039133010799, 103.903935774586",
			"END_BUS_STOP_NUM": "65009",
			"END_BUS_STOP_LATLNG": "1.40370629859822, 103.902243375753",
			"DISTANCE": "17",
			"GEOMETRIES": "gppGsvdyRCFg@fA_BhEe@hAKTqAm@uFsCkAfCu@J"
		}
	]
}