{
	"BUS_DIRECTION_ONE": [
		{
			"BUS_SEQUENCE": 1,
			"START_BUS_STOP": "PUNGGOL INT",
			"END_BUS_STOP": "OPP BLK 201A",
			"START_BUS_STOP_NUM": "65009",
			"START_BUS_STOP_LATLNG": "1.4037062985982187, 103.90224337575334",
			"END_BUS_STOP_NUM": "65201",
			"END_BUS_STOP_LATLNG": "1.4011238146449505, 103.90297345240674",
			"DISTANCE": "0",
			"GEOMETRIES": "odqGgldyRt@KjAgCtFrC`@A`@AXKd@a@~AiE"
		},
		{
			"BUS_SEQUENCE": 2,
			"START_BUS_STOP": "OPP BLK 201A",
			"END_BUS_STOP": "BLK 102C",
			"START_BUS_STOP_NUM": "65201",
			"START_BUS_STOP_LATLNG": "1.4011238146449505, 103.90297345240674",
			"END_BUS_STOP_NUM": "65079",
			"END_BUS_STOP_LATLNG": "1.3989357451618103, 103.90474802293775",
			"DISTANCE": "0.5",
			"GEOMETRIES": "sqpGctdyRj@oA`AwB`@aARc@^Nr@T`Bn@@@"
		},
		{
			"BUS_SEQUENCE": 3,
			"START_BUS_STOP": "BLK 102C",
			"END_BUS_STOP": "BLK 190C",
			"START_BUS_STOP_NUM": "65079",
			"START_BUS_STOP_LATLNG": "1.3989357451618103, 103.90474802293775",
			"END_BUS_STOP_NUM": "65069",
			"END_BUS_STOP_LATLNG": "1.395043821759657, 103.90236824858535",
			"DISTANCE": "0.8",
			"GEOMETRIES": "wfpGyzdyRnBt@JD|Al@rBt@HDXJjBt@\\LDBpAz@l@^vApAf@f@@@"
		},
		{
			"BUS_SEQUENCE": 4,
			"START_BUS_STOP": "BLK 190C",
			"END_BUS_STOP": "ST. ANNE'S CH",
			"START_BUS_STOP_NUM": "65069",
			"START_BUS_STOP_LATLNG": "1.395043821759657, 103.90236824858535",
			"END_BUS_STOP_NUM": "65059",
			"END_BUS_STOP_LATLNG": "1.3930844083289904, 103.90129355204088",
			"DISTANCE": "1.3",
			"GEOMETRIES": "snoGgldyRVVh@j@f@h@^Zt@d@^Jl@Lt@LbAFN@@?"
		},
		{
			"BUS_SEQUENCE": 5,
			"START_BUS_STOP": "ST. ANNE'S CH",
			"END_BUS_STOP": "BLK 126A",
			"START_BUS_STOP_NUM": "65059",
			"START_BUS_STOP_LATLNG": "1.3930844083289904, 103.90129355204088",
			"END_BUS_STOP_NUM": "65049",
			"END_BUS_STOP_LATLNG": "1.3899349999879163, 103.90187166698631",
			"DISTANCE": "1.6",
			"GEOMETRIES": "yaoGeedyRZ?d@Cf@ErAMz@Kr@Kd@Id@G^GZEbAM`CY"
		},
		{
			"BUS_SEQUENCE": 6,
			"START_BUS_STOP": "BLK 126A",
			"END_BUS_STOP": "BLK 124",
			"START_BUS_STOP_NUM": "65049",
			"START_BUS_STOP_LATLNG": "1.3899349999879163, 103.90187166698631",
			"END_BUS_STOP_NUM": "65039",
			"END_BUS_STOP_LATLNG": "1.3873205898156418, 103.90185567950667",
			"DISTANCE": "2",
			"GEOMETRIES": "}mnG}hdyRDA@?t@IhDOp@DrEHP@"
		},
		{
			"BUS_SEQUENCE": 7,
			"START_BUS_STOP": "BLK 124",
			"END_BUS_STOP": "BLK 111",
			"START_BUS_STOP_NUM": "65039",
			"START_BUS_STOP_LATLNG": "1.3873205898156418, 103.90185567950667",
			"END_BUS_STOP_NUM": "65029",
			"END_BUS_STOP_LATLNG": "1.3846150000319475, 103.90061583298267",
			"DISTANCE": "2.3",
			"GEOMETRIES": "}}mGgidyR@?n@FbBLj@DXBVHl@Rj@Tj@^x@p@xAzA"
		},
		{
			"BUS_SEQUENCE": 8,
			"START_BUS_STOP": "BLK 111",
			"END_BUS_STOP": "OPP BLK 266/THE RIVERVALE",
			"START_BUS_STOP_NUM": "65029",
			"START_BUS_STOP_LATLNG": "1.3846150000319475, 103.90061583298267",
			"END_BUS_STOP_NUM": "65019",
			"END_BUS_STOP_LATLNG": "1.3815140782969653, 103.89749237919405",
			"DISTANCE": "2.6",
			"GEOMETRIES": "ommGeadyRRRvAvAp@r@h@l@vAtBJN^h@NTTXf@l@hBlBpBl@"
		},
		{
			"BUS_SEQUENCE": 9,
			"START_BUS_STOP": "OPP BLK 266/THE RIVERVALE",
			"END_BUS_STOP": "OPP BLK 458",
			"START_BUS_STOP_NUM": "65019",
			"START_BUS_STOP_LATLNG": "1.3815140782969653, 103.89749237919405",
			"END_BUS_STOP_NUM": "64029",
			"END_BUS_STOP_LATLNG": "1.3778161735751102, 103.89688283812272",
			"DISTANCE": "3.1",
			"GEOMETRIES": "yylGmmcyRF@@@dBXjBXxBRz@F^Bb@B|@H|AJXB@?T?~@BF?"
		},
		{
			"BUS_SEQUENCE": 10,
			"START_BUS_STOP": "OPP BLK 458",
			"END_BUS_STOP": "BLK 412",
			"START_BUS_STOP_NUM": "64029",
			"START_BUS_STOP_LATLNG": "1.3778161735751102, 103.89688283812272",
			"END_BUS_STOP_NUM": "64429",
			"END_BUS_STOP_LATLNG": "1.374816899046022, 103.89521956725412",
			"DISTANCE": "3.5",
			"GEOMETRIES": "mblGsicyRzBF\\HnAl@z@d@HDNHf@Xr@`@~@j@XVHDLJl@f@PN"
		},
		{
			"BUS_SEQUENCE": 11,
			"START_BUS_STOP": "BLK 412",
			"END_BUS_STOP": "OPP BLK 521",
			"START_BUS_STOP_NUM": "64429",
			"START_BUS_STOP_LATLNG": "1.374816899046022, 103.89521956725412",
			"END_BUS_STOP_NUM": "64381",
			"END_BUS_STOP_LATLNG": "1.372882451312867, 103.89170384962593",
			"DISTANCE": "3.9",
			"GEOMETRIES": "_pkGs_cyRrAdADBFDzAlAVJZDjA?R?d@?A~@?hB?x@Ar@?T?hB?dB"
		},
		{
			"BUS_SEQUENCE": 12,
			"START_BUS_STOP": "OPP BLK 521",
			"END_BUS_STOP": "BLK 831",
			"START_BUS_STOP_NUM": "64381",
			"START_BUS_STOP_LATLNG": "1.372882451312867, 103.89170384962593",
			"END_BUS_STOP_NUM": "64391",
			"END_BUS_STOP_LATLNG": "1.3714541492906258, 103.88976573946182",
			"DISTANCE": "4.4",
			"GEOMETRIES": "kdkGejbyR?Z?n@BZJXX`@rDfDjAfA"
		},
		{
			"BUS_SEQUENCE": 13,
			"START_BUS_STOP": "BLK 831",
			"END_BUS_STOP": "OPP HOUGANG SWIM CPLX",
			"START_BUS_STOP_NUM": "64391",
			"START_BUS_STOP_LATLNG": "1.3714541492906258, 103.88976573946182",
			"END_BUS_STOP_NUM": "63351",
			"END_BUS_STOP_LATLNG": "1.369226388997111, 103.88786388897049",
			"DISTANCE": "4.7",
			"GEOMETRIES": "a{jGq}ayRXV@@r@d@p@d@z@j@t@f@~BzAfA|A@B"
		},
		{
			"BUS_SEQUENCE": 14,
			"START_BUS_STOP": "OPP HOUGANG SWIM CPLX",
			"END_BUS_STOP": "OPP BLK 709",
			"START_BUS_STOP_NUM": "63351",
			"START_BUS_STOP_LATLNG": "1.369226388997111, 103.88786388897049",
			"END_BUS_STOP_NUM": "63341",
			"END_BUS_STOP_LATLNG": "1.367514028716147, 103.8888298811994",
			"DISTANCE": "5",
			"GEOMETRIES": "cmjGyqayR~@pA^b@h@^tA^vAw@PaA~@iFDO"
		},
		{
			"BUS_SEQUENCE": 15,
			"START_BUS_STOP": "OPP BLK 709",
			"END_BUS_STOP": "OPP S'GOON JC",
			"START_BUS_STOP_NUM": "63341",
			"START_BUS_STOP_LATLNG": "1.367514028716147, 103.8888298811994",
			"END_BUS_STOP_NUM": "63059",
			"END_BUS_STOP_LATLNG": "1.3643766728022062, 103.88984149586429",
			"DISTANCE": "5.4",
			"GEOMETRIES": "s`jGwwayR??VaATo@L]?AHMPa@??BCT]bD}Ct@o@LNd@f@pDvD"
		},
		{
			"BUS_SEQUENCE": 16,
			"START_BUS_STOP": "OPP S'GOON JC",
			"END_BUS_STOP": "GLAD TIDINGS CH",
			"START_BUS_STOP_NUM": "63059",
			"START_BUS_STOP_LATLNG": "1.3643766728022062, 103.88984149586429",
			"END_BUS_STOP_NUM": "63049",
			"END_BUS_STOP_LATLNG": "1.362191666688544, 103.88752277779692",
			"DISTANCE": "5.9",
			"GEOMETRIES": "aoiGy}ayRHFHL`AlAxAzADDFF~A`BFF^`@FFHHt@v@f@f@"
		},
		{
			"BUS_SEQUENCE": 17,
			"START_BUS_STOP": "GLAD TIDINGS CH",
			"END_BUS_STOP": "KOVAN STN EXIT C",
			"START_BUS_STOP_NUM": "63049",
			"START_BUS_STOP_LATLNG": "1.362191666688544, 103.88752277779692",
			"END_BUS_STOP_NUM": "63039",
			"END_BUS_STOP_LATLNG": "1.360036107201993, 103.88520304678315",
			"DISTANCE": "6.3",
			"GEOMETRIES": "kaiGmoayR^`@n@t@x@r@Z\\x@|@FHJJvAbBh@p@HJ"
		},
		{
			"BUS_SEQUENCE": 18,
			"START_BUS_STOP": "KOVAN STN EXIT C",
			"END_BUS_STOP": "OPP THE HELPING HAND",
			"START_BUS_STOP_NUM": "63039",
			"START_BUS_STOP_LATLNG": "1.360036107201993, 103.88520304678315",
			"END_BUS_STOP_NUM": "63029",
			"END_BUS_STOP_LATLNG": "1.357274722002925, 103.88218027802674",
			"DISTANCE": "6.7",
			"GEOMETRIES": "kuhGmbayRvAfBhHxHl@n@LL`BdBz@`A"
		},
		{
			"BUS_SEQUENCE": 19,
			"START_BUS_STOP": "OPP THE HELPING HAND",
			"END_BUS_STOP": "AFT UPP S'GOON SHOP CTR",
			"START_BUS_STOP_NUM": "63029",
			"START_BUS_STOP_LATLNG": "1.357274722002925, 103.88218027802674",
			"END_BUS_STOP_NUM": "63019",
			"END_BUS_STOP_LATLNG": "1.3534796431176326, 103.87800141702434",
			"DISTANCE": "7.2",
			"GEOMETRIES": "obhGen`yRlArAz@`AjAxA\\\\FFJJNNbArAd@j@DFDDt@`Ad@j@pApApA|Az@r@n@p@"
		},
		{
			"BUS_SEQUENCE": 20,
			"START_BUS_STOP": "AFT UPP S'GOON SHOP CTR",
			"END_BUS_STOP": "FOREST WOODS",
			"START_BUS_STOP_NUM": "63019",
			"START_BUS_STOP_LATLNG": "1.3534796431176326, 103.87800141702434",
			"END_BUS_STOP_NUM": "62149",
			"END_BUS_STOP_LATLNG": "1.3516917327066762, 103.87595332312253",
			"DISTANCE": "7.8",
			"GEOMETRIES": "ujgGat_yR^`@~AfBjBxBv@`AdAlA"
		},
		{
			"BUS_SEQUENCE": 21,
			"START_BUS_STOP": "FOREST WOODS",
			"END_BUS_STOP": "S'GOON STN EXIT E",
			"START_BUS_STOP_NUM": "62149",
			"START_BUS_STOP_LATLNG": "1.3516917327066762, 103.87595332312253",
			"END_BUS_STOP_NUM": "66351",
			"END_BUS_STOP_LATLNG": "1.3504983145016174, 103.87324486521683",
			"DISTANCE": "8.1",
			"GEOMETRIES": "k_gGmg_yRt@|@~DlE|ArAh@b@m@f@y@n@m@b@"
		},
		{
			"BUS_SEQUENCE": 22,
			"START_BUS_STOP": "S'GOON STN EXIT E",
			"END_BUS_STOP": "BLK 261",
			"START_BUS_STOP_NUM": "66351",
			"START_BUS_STOP_LATLNG": "1.3504983145016174, 103.87324486521683",
			"END_BUS_STOP_NUM": "66371",
			"END_BUS_STOP_LATLNG": "1.353767301605002, 103.87268543240587",
			"DISTANCE": "8.5",
			"GEOMETRIES": "cxfGmw~xR_CdBKH]NOHe@LY?}@?[AwAKuBMyAI"
		},
		{
			"BUS_SEQUENCE": 23,
			"START_BUS_STOP": "BLK 261",
			"END_BUS_STOP": "S'GOON STADIUM",
			"START_BUS_STOP_NUM": "66371",
			"START_BUS_STOP_LATLNG": "1.353767301605002, 103.87268543240587",
			"END_BUS_STOP_NUM": "63149",
			"END_BUS_STOP_LATLNG": "1.3548997219872865, 103.87452555599006",
			"DISTANCE": "8.9",
			"GEOMETRIES": "_lgG{s~xR????gAS]Gq@MqBm@oAk@MGFQZs@R[xA{ABA"
		},
		{
			"BUS_SEQUENCE": 24,
			"START_BUS_STOP": "S'GOON STADIUM",
			"END_BUS_STOP": "OPP UPP S'GOON SHOP CTR",
			"START_BUS_STOP_NUM": "63149",
			"START_BUS_STOP_LATLNG": "1.3548997219872865, 103.87452555599006",
			"END_BUS_STOP_NUM": "63011",
			"END_BUS_STOP_LATLNG": "1.3543211576090153, 103.87823575937185",
			"DISTANCE": "9.3",
			"GEOMETRIES": "qrgGg~~xRHI~@w@bH_GZm@F]Ee@WYaBmByAgBe@q@a@k@"
		},
		{
			"BUS_SEQUENCE": 25,
			"START_BUS_STOP": "OPP UPP S'GOON SHOP CTR",
			"END_BUS_STOP": "THE HELPING HAND",
			"START_BUS_STOP_NUM": "63011",
			"START_BUS_STOP_LATLNG": "1.3543211576090153, 103.87823575937185",
			"END_BUS_STOP_NUM": "63021",
			"END_BUS_STOP_LATLNG": "1.3570580828826995, 103.88161613087622",
			"DISTANCE": "9.9",
			"GEOMETRIES": "aogGiv_yRs@aAc@u@k@uAe@k@u@aAEEEGe@k@cAsAOOKKGG]]kAyA{@aA"
		},
		{
			"BUS_SEQUENCE": 26,
			"START_BUS_STOP": "THE HELPING HAND",
			"END_BUS_STOP": "KOVAN STN EXIT B",
			"START_BUS_STOP_NUM": "63021",
			"START_BUS_STOP_LATLNG": "1.3570580828826995, 103.88161613087622",
			"END_BUS_STOP_NUM": "63031",
			"END_BUS_STOP_LATLNG": "1.3605044444145493, 103.88535194446018",
			"DISTANCE": "10.4",
			"GEOMETRIES": "a`hGqk`yRmAsA{@aAaBeBMMm@o@iHyHwAgBIK"
		},
		{
			"BUS_SEQUENCE": 27,
			"START_BUS_STOP": "KOVAN STN EXIT B",
			"END_BUS_STOP": "OPP GLAD TIDINGS CH",
			"START_BUS_STOP_NUM": "63031",
			"START_BUS_STOP_LATLNG": "1.3605044444145493, 103.88535194446018",
			"END_BUS_STOP_NUM": "63041",
			"END_BUS_STOP_LATLNG": "1.362591667031362, 103.88754805602413",
			"DISTANCE": "11",
			"GEOMETRIES": "uuhGybayRi@q@wAcBKKGIy@}@[]y@s@o@u@_@a@g@g@"
		},
		{
			"BUS_SEQUENCE": 28,
			"START_BUS_STOP": "OPP GLAD TIDINGS CH",
			"END_BUS_STOP": "S'GOON JC",
			"START_BUS_STOP_NUM": "63041",
			"START_BUS_STOP_LATLNG": "1.362591667031362, 103.88754805602413",
			"END_BUS_STOP_NUM": "63051",
			"END_BUS_STOP_LATLNG": "1.3641516679864591, 103.88914278486952",
			"DISTANCE": "11.3",
			"GEOMETRIES": "sbiGupayRu@w@IIGG_@a@GG_BaBGGEEyA{A"
		},
		{
			"BUS_SEQUENCE": 29,
			"START_BUS_STOP": "S'GOON JC",
			"END_BUS_STOP": "BLK 708",
			"START_BUS_STOP_NUM": "63051",
			"START_BUS_STOP_LATLNG": "1.3641516679864591, 103.88914278486952",
			"END_BUS_STOP_NUM": "63349",
			"END_BUS_STOP_LATLNG": "1.3668720714658813, 103.8892335852027",
			"DISTANCE": "11.5",
			"GEOMETRIES": "kliGuzayRaAmAIMIGqDwD_AGi@?cD|CU\\CB??Q`@IL?@M\\"
		},
		{
			"BUS_SEQUENCE": 30,
			"START_BUS_STOP": "BLK 708",
			"END_BUS_STOP": "HOUGANG SWIM CPLX",
			"START_BUS_STOP_NUM": "63349",
			"START_BUS_STOP_LATLNG": "1.3668720714658813, 103.8892335852027",
			"END_BUS_STOP_NUM": "63359",
			"END_BUS_STOP_LATLNG": "1.3693680489546791, 103.88779233654837",
			"DISTANCE": "12",
			"GEOMETRIES": "e_jGi{ayRUn@W`AEN_AhFQ`AIp@ETgAOuA_@i@_@_@c@_AqAAC"
		},
		{
			"BUS_SEQUENCE": 31,
			"START_BUS_STOP": "HOUGANG SWIM CPLX",
			"END_BUS_STOP": "BLK 512",
			"START_BUS_STOP_NUM": "63359",
			"START_BUS_STOP_LATLNG": "1.3693680489546791, 103.88779233654837",
			"END_BUS_STOP_NUM": "64399",
			"END_BUS_STOP_LATLNG": "1.3712181838681747, 103.88925719322482",
			"DISTANCE": "12.5",
			"GEOMETRIES": "emjG}qayRgA}A_C{Au@g@{@k@q@e@"
		},
		{
			"BUS_SEQUENCE": 32,
			"START_BUS_STOP": "BLK 512",
			"END_BUS_STOP": "BLK 522",
			"START_BUS_STOP_NUM": "64399",
			"START_BUS_STOP_LATLNG": "1.3712181838681747, 103.88925719322482",
			"END_BUS_STOP_NUM": "64389",
			"END_BUS_STOP_LATLNG": "1.3731380934600592, 103.89156818388481",
			"DISTANCE": "12.8",
			"GEOMETRIES": "qxjGq{ayRs@e@AAYWkAgAsDgDYa@KYC[?o@"
		},
		{
			"BUS_SEQUENCE": 33,
			"START_BUS_STOP": "BLK 522",
			"END_BUS_STOP": "BLK 421",
			"START_BUS_STOP_NUM": "64389",
			"START_BUS_STOP_LATLNG": "1.3731380934600592, 103.89156818388481",
			"END_BUS_STOP_NUM": "64421",
			"END_BUS_STOP_LATLNG": "1.3750504280845501, 103.89511829229478",
			"DISTANCE": "13.2",
			"GEOMETRIES": "kdkGiibyR?[?eB?iB?U@s@?y@?iB[e@[YkA?[EWK{AmAGEECsAeAQO"
		},
		{
			"BUS_SEQUENCE": 34,
			"START_BUS_STOP": "BLK 421",
			"END_BUS_STOP": "BLK 458",
			"START_BUS_STOP_NUM": "64421",
			"START_BUS_STOP_LATLNG": "1.3750504280845501, 103.89511829229478",
			"END_BUS_STOP_NUM": "64021",
			"END_BUS_STOP_LATLNG": "1.3778895015335164, 103.89663845377326",
			"DISTANCE": "13.7",
			"GEOMETRIES": "qpkGc`cyRm@g@MKIEYW_Ak@s@a@g@YOIIE{@e@oAm@]I{BGG?"
		},
		{
			"BUS_SEQUENCE": 35,
			"START_BUS_STOP": "BLK 458",
			"END_BUS_STOP": "BLK 266/OPP THE RIVERVALE",
			"START_BUS_STOP_NUM": "64021",
			"START_BUS_STOP_LATLNG": "1.3778895015335164, 103.89663845377326",
			"END_BUS_STOP_NUM": "65011",
			"END_BUS_STOP_LATLNG": "1.3815969683076492, 103.89720951783346",
			"DISTANCE": "14.1",
			"GEOMETRIES": "ublGsicyR_ACU?A?YC}AK}@Ic@C_@C{@GyBSkBYeBY??AA"
		},
		{
			"BUS_SEQUENCE": 36,
			"START_BUS_STOP": "BLK 266/OPP THE RIVERVALE",
			"END_BUS_STOP": "OPP BLK 110",
			"START_BUS_STOP_NUM": "65011",
			"START_BUS_STOP_LATLNG": "1.3815969683076492, 103.89720951783346",
			"END_BUS_STOP_NUM": "65021",
			"END_BUS_STOP_LATLNG": "1.3840313620709817, 103.89961345545083",
			"DISTANCE": "14.5",
			"GEOMETRIES": "qylGkmcyRGAqBm@iBmBg@m@UYOU_@i@KOwAuBi@m@"
		},
		{
			"BUS_SEQUENCE": 37,
			"START_BUS_STOP": "OPP BLK 110",
			"END_BUS_STOP": "BLK 227D",
			"START_BUS_STOP_NUM": "65021",
			"START_BUS_STOP_LATLNG": "1.3840313620709817, 103.89961345545083",
			"END_BUS_STOP_NUM": "65031",
			"END_BUS_STOP_LATLNG": "1.3871114438572707, 103.90167760841292",
			"DISTANCE": "14.9",
			"GEOMETRIES": "qhmGe|cyRq@s@wAwASSyA{Ay@q@k@_@k@Um@SWIYCk@EcBM"
		},
		{
			"BUS_SEQUENCE": 38,
			"START_BUS_STOP": "BLK 227D",
			"END_BUS_STOP": "BLK 231",
			"START_BUS_STOP_NUM": "65031",
			"START_BUS_STOP_LATLNG": "1.3871114438572707, 103.90167760841292",
			"END_BUS_STOP_NUM": "65041",
			"END_BUS_STOP_LATLNG": "1.389844124261725, 103.90162265734196",
			"DISTANCE": "15.3",
			"GEOMETRIES": "k|mG_idyRq@GQAsEIq@EiDNu@H"
		},
		{
			"BUS_SEQUENCE": 39,
			"START_BUS_STOP": "BLK 231",
			"END_BUS_STOP": "BLK 298A",
			"START_BUS_STOP_NUM": "65041",
			"START_BUS_STOP_LATLNG": "1.389844124261725, 103.90162265734196",
			"END_BUS_STOP_NUM": "65061",
			"END_BUS_STOP_LATLNG": "1.394944120499, 103.90191658299334",
			"DISTANCE": "15.6",
			"GEOMETRIES": "umnG_idyRA?E@aCXcAL[D_@Fe@Fe@Hs@J{@JsALg@De@B[?QAcAGu@Mm@M_@Ku@e@_@[g@i@"
		},
		{
			"BUS_SEQUENCE": 40,
			"START_BUS_STOP": "BLK 298A",
			"END_BUS_STOP": "BLK 203A",
			"START_BUS_STOP_NUM": "65061",
			"START_BUS_STOP_LATLNG": "1.394944120499, 103.90191658299334",
			"END_BUS_STOP_NUM": "65071",
			"END_BUS_STOP_LATLNG": "1.3984507406398141, 103.90416383740008",
			"DISTANCE": "16.2",
			"GEOMETRIES": "qloGcjdyRAAg@i@WWAAg@g@wAqAm@_@qA{@EC]MkBu@YKIEsBu@}Am@??"
		},
		{
			"BUS_SEQUENCE": 41,
			"START_BUS_STOP": "BLK 203A",
			"END_BUS_STOP": "BLK 201A",
			"START_BUS_STOP_NUM": "65071",
			"START_BUS_STOP_LATLNG": "1.3984507406398141, 103.90416383740008",
			"END_BUS_STOP_NUM": "65209",
			"END_BUS_STOP_LATLNG": "1.4003913301079847, 103.90393577458606",
			"DISTANCE": "16.7",
			"GEOMETRIES": "{bpG}xdyRKEoBu@cBq@o@Dm@Lk@j@aAvB"
		},
		{
			"BUS_SEQUENCE": 42,
			"START_BUS_STOP": "BLK 201A",
			"END_BUS_STOP": "PUNGGOL INT",
			"START_BUS_STOP_NUM": "65209",
			"START_BUS_STOP_LATLNG": "1.4003913301079847, 103.90393577458606",
			"END_BUS_STOP_NUM": "65009",
			"END_BUS_STOP_LATLNG": "1.4037062985982187, 103.90224337575334",
			"DISTANCE": "17",
			"GEOMETRIES": "gppGsvdyRCFg@fA_BhEe@hAKTqAm@uFsCkAfCu@J"
		}
	]
}