{
	"BUS_DIRECTION_ONE": [
		{
			"BUS_SEQUENCE": 1,
			"START_BUS_STOP": "YISHUN INT",
			"END_BUS_STOP": "OPP BLK 757",
			"START_BUS_STOP_NUM": "59009",
			"START_BUS_STOP_LATLNG": "1.42831117417874, 103.836146194677",
			"END_BUS_STOP_NUM": "59069",
			"END_BUS_STOP_LATLNG": "1.42657294826877, 103.835369572595",
			"DISTANCE": "0",
			"GEOMETRIES": "a|uGcmwxRIvB`@@dGL"
		},
		{
			"BUS_SEQUENCE": 2,
			"START_BUS_STOP": "OPP BLK 757",
			"END_BUS_STOP": "BLK 608",
			"START_BUS_STOP_NUM": "59069",
			"START_BUS_STOP_LATLNG": "1.42657294826877, 103.835369572595",
			"END_BUS_STOP_NUM": "59059",
			"END_BUS_STOP_LATLNG": "1.42054602879781, 103.834979423249",
			"DISTANCE": "0.2",
			"GEOMETRIES": "csuG{hwxRnGLdA@R@T?h@@fFHp@@Z@X@|@DpFJJ@dAFp@J"
		},
		{
			"BUS_SEQUENCE": 3,
			"START_BUS_STOP": "BLK 608",
			"END_BUS_STOP": "OPP KHATIB STN",
			"START_BUS_STOP_NUM": "59059",
			"START_BUS_STOP_LATLNG": "1.42054602879781, 103.834979423249",
			"END_BUS_STOP_NUM": "59049",
			"END_BUS_STOP_LATLNG": "1.41700998157675, 103.833399840738",
			"DISTANCE": "0.8",
			"GEOMETRIES": "umtGofwxRRBdCn@bI~CPFfEbB"
		},
		{
			"BUS_SEQUENCE": 4,
			"START_BUS_STOP": "OPP KHATIB STN",
			"END_BUS_STOP": "YISHUN SPORTS HALL",
			"START_BUS_STOP_NUM": "59049",
			"START_BUS_STOP_LATLNG": "1.41700998157675, 103.833399840738",
			"END_BUS_STOP_NUM": "59039",
			"END_BUS_STOP_LATLNG": "1.41342871609658, 103.83156300557",
			"DISTANCE": "1.3",
			"GEOMETRIES": "}wsGo|vxR`S|HlAf@"
		},
		{
			"BUS_SEQUENCE": 5,
			"START_BUS_STOP": "YISHUN SPORTS HALL",
			"END_BUS_STOP": "AFT YISHUN AVE 1",
			"START_BUS_STOP_NUM": "59039",
			"START_BUS_STOP_LATLNG": "1.41342871609658, 103.83156300557",
			"END_BUS_STOP_NUM": "59029",
			"END_BUS_STOP_LATLNG": "1.40885843406387, 103.829247691158",
			"DISTANCE": "1.7",
			"GEOMETRIES": "masGiqvxRlPtGpBt@LFNDnAf@hCbA"
		},
		{
			"BUS_SEQUENCE": 6,
			"START_BUS_STOP": "AFT YISHUN AVE 1",
			"END_BUS_STOP": "AFT SG SELETAR BRIDGE",
			"START_BUS_STOP_NUM": "59029",
			"START_BUS_STOP_LATLNG": "1.40885843406387, 103.829247691158",
			"END_BUS_STOP_NUM": "59019",
			"END_BUS_STOP_LATLNG": "1.40212911387597, 103.827677949753",
			"DISTANCE": "2.4",
			"GEOMETRIES": "udrGccvxRxFzBjCdAxC`Av@NjGt@pAFhH@nBQ"
		},
		{
			"BUS_SEQUENCE": 7,
			"START_BUS_STOP": "AFT SG SELETAR BRIDGE",
			"END_BUS_STOP": "OPP BULLION PK CONDO",
			"START_BUS_STOP_NUM": "59019",
			"START_BUS_STOP_LATLNG": "1.40212911387597, 103.827677949753",
			"END_BUS_STOP_NUM": "55269",
			"END_BUS_STOP_LATLNG": "1.39252554978737, 103.836916458856",
			"DISTANCE": "3.1",
			"GEOMETRIES": "ezpGayuxRlFe@nD{@`GuB@A`@SbB_Ad@W??zBiBbE{EpC}EjC_Fv@wAfCuEFMn@iA`AiBxAmCpA_C"
		},
		{
			"BUS_SEQUENCE": 8,
			"START_BUS_STOP": "OPP BULLION PK CONDO",
			"END_BUS_STOP": "OPP COUNTRYSIDE EST",
			"START_BUS_STOP_NUM": "55269",
			"START_BUS_STOP_LATLNG": "1.39252554978737, 103.836916458856",
			"END_BUS_STOP_NUM": "55259",
			"END_BUS_STOP_LATLNG": "1.39129210965934, 103.838854859913",
			"DISTANCE": "4.6",
			"GEOMETRIES": "s}nGiswxRpBqDz@}AhAsB"
		},
		{
			"BUS_SEQUENCE": 9,
			"START_BUS_STOP": "OPP COUNTRYSIDE EST",
			"END_BUS_STOP": "BEF YIO CHU KANG RD",
			"START_BUS_STOP_NUM": "55259",
			"START_BUS_STOP_LATLNG": "1.39129210965934, 103.838854859913",
			"END_BUS_STOP_NUM": "55249",
			"END_BUS_STOP_LATLNG": "1.38936424723839, 103.841054260206",
			"DISTANCE": "4.8",
			"GEOMETRIES": "{unGm_xxRjC{ExA_BpAcAj@]TM"
		},
		{
			"BUS_SEQUENCE": 10,
			"START_BUS_STOP": "BEF YIO CHU KANG RD",
			"END_BUS_STOP": "OPP NCS HUB",
			"START_BUS_STOP_NUM": "55249",
			"START_BUS_STOP_LATLNG": "1.38936424723839, 103.841054260206",
			"END_BUS_STOP_NUM": "55031",
			"END_BUS_STOP_LATLNG": "1.38944774212221, 103.843603311625",
			"DISTANCE": "5.1",
			"GEOMETRIES": "ajnGylxxRbAg@zBo@RURk@Ho@Uy@oAeBmCaE"
		},
		{
			"BUS_SEQUENCE": 11,
			"START_BUS_STOP": "OPP NCS HUB",
			"END_BUS_STOP": "OPP UE BIZHUB CTRL",
			"START_BUS_STOP_NUM": "55031",
			"START_BUS_STOP_LATLNG": "1.38944774212221, 103.843603311625",
			"END_BUS_STOP_NUM": "55041",
			"END_BUS_STOP_LATLNG": "1.39122406741106, 103.846027995237",
			"DISTANCE": "5.6",
			"GEOMETRIES": "cjnGe~xxReEqGGKIKOWk@s@iAcBAE"
		},
		{
			"BUS_SEQUENCE": 12,
			"START_BUS_STOP": "OPP UE BIZHUB CTRL",
			"END_BUS_STOP": "OPP ST ELECTRONICS",
			"START_BUS_STOP_NUM": "55041",
			"START_BUS_STOP_LATLNG": "1.39122406741106, 103.846027995237",
			"END_BUS_STOP_NUM": "55051",
			"END_BUS_STOP_LATLNG": "1.3923998014128, 103.848962393601",
			"DISTANCE": "5.9",
			"GEOMETRIES": "cunGemyxRiBoE{@cCe@oBG]CQQmA"
		},
		{
			"BUS_SEQUENCE": 13,
			"START_BUS_STOP": "OPP ST ELECTRONICS",
			"END_BUS_STOP": "BEF ECON MEDICARE CTR",
			"START_BUS_STOP_NUM": "55051",
			"START_BUS_STOP_LATLNG": "1.3923998014128, 103.848962393601",
			"END_BUS_STOP_NUM": "55071",
			"END_BUS_STOP_LATLNG": "1.39254007335645, 103.851743830483",
			"DISTANCE": "6.3",
			"GEOMETRIES": "m|nGg_zxR??SyAMoBAc@AO?OCiA?qB@W?OBo@"
		},
		{
			"BUS_SEQUENCE": 14,
			"START_BUS_STOP": "BEF ECON MEDICARE CTR",
			"END_BUS_STOP": "OPP SUNRISE GDNS",
			"START_BUS_STOP_NUM": "55071",
			"START_BUS_STOP_LATLNG": "1.39254007335645, 103.851743830483",
			"END_BUS_STOP_NUM": "55081",
			"END_BUS_STOP_LATLNG": "1.39177133420779, 103.855973282797",
			"DISTANCE": "6.7",
			"GEOMETRIES": "q}nGipzxRD_ALwAL{@X}BHk@R{Ab@kDBUd@kD"
		},
		{
			"BUS_SEQUENCE": 15,
			"START_BUS_STOP": "OPP SUNRISE GDNS",
			"END_BUS_STOP": "ST. ANDREW'S VILLAGE",
			"START_BUS_STOP_NUM": "55081",
			"START_BUS_STOP_LATLNG": "1.39177133420779, 103.855973282797",
			"END_BUS_STOP_NUM": "60081",
			"END_BUS_STOP_LATLNG": "1.32931226062177, 103.866291046163",
			"DISTANCE": "7.1",
			"GEOMETRIES": "ixnGqj{xR\\sCx@_Hl@U\\Sp@WnBOhHd@l^YhUNnADt@BbDEzDORCzCYrEo@pEgAdJyCdA[rE{AhA[fAQ~AW|BQvC?hBLvAP`B\\pDx@tp@zPtBh@nB`@|C\\vDPvAClBA|DSzASnDu@z]yIpFuAbG{A|BgAjAa@j@]t@_@`AWlFkAzAa@vGaBr@I`@AfD[jCKbBCvGKnJIzEU`AK`AC|CGt@Gd@Id@S`@Y\\g@Tc@dAmCd@cA~@gC~@wCZoA"
		},
		{
			"BUS_SEQUENCE": 17,
			"START_BUS_STOP": "ST. ANDREW'S VILLAGE",
			"END_BUS_STOP": "MOM SVCS CTR",
			"START_BUS_STOP_NUM": "60081",
			"START_BUS_STOP_LATLNG": "1.32931226062177, 103.866291046163",
			"END_BUS_STOP_NUM": "60179",
			"END_BUS_STOP_LATLNG": "1.3260452033739, 103.868364045857",
			"DISTANCE": "14.7",
			"GEOMETRIES": "orbGak}xRNo@Lk@d@oCRw@Tw@Rg@Xq@LY^{@PQHGTBPN`Ax@l@^lAXdDV"
		},
		{
			"BUS_SEQUENCE": 18,
			"START_BUS_STOP": "MOM SVCS CTR",
			"END_BUS_STOP": "BLK 54",
			"START_BUS_STOP_NUM": "60179",
			"START_BUS_STOP_LATLNG": "1.3260452033739, 103.868364045857",
			"END_BUS_STOP_NUM": "60159",
			"END_BUS_STOP_LATLNG": "1.32409476572475, 103.867641960029",
			"DISTANCE": "15.3",
			"GEOMETRIES": "}~aGgw}xRrBNdARvBn@|@`@NH"
		},
		{
			"BUS_SEQUENCE": 19,
			"START_BUS_STOP": "BLK 54",
			"END_BUS_STOP": "BLK 44",
			"START_BUS_STOP_NUM": "60159",
			"START_BUS_STOP_LATLNG": "1.32409476572475, 103.867641960029",
			"END_BUS_STOP_NUM": "60139",
			"END_BUS_STOP_LATLNG": "1.32204861560134, 103.86628982238",
			"DISTANCE": "15.5",
			"GEOMETRIES": "}raGgs}xRnEfCdAl@bCtA"
		},
		{
			"BUS_SEQUENCE": 20,
			"START_BUS_STOP": "BLK 44",
			"END_BUS_STOP": "OPP BOON KENG STN",
			"START_BUS_STOP_NUM": "60139",
			"START_BUS_STOP_LATLNG": "1.32204861560134, 103.86628982238",
			"END_BUS_STOP_NUM": "60119",
			"END_BUS_STOP_LATLNG": "1.31880431510648, 103.864097078764",
			"DISTANCE": "15.8",
			"GEOMETRIES": "cfaG{j}xRz@f@nDrB~@h@xAz@nAt@j@\\hC|A"
		},
		{
			"BUS_SEQUENCE": 21,
			"START_BUS_STOP": "OPP BOON KENG STN",
			"END_BUS_STOP": "BEF LAVENDER ST",
			"START_BUS_STOP_NUM": "60119",
			"START_BUS_STOP_LATLNG": "1.31880431510648, 103.864097078764",
			"END_BUS_STOP_NUM": "60099",
			"END_BUS_STOP_LATLNG": "1.3153030306096, 103.861407162545",
			"DISTANCE": "16.3",
			"GEOMETRIES": "wq`Gg}|xRRLz@h@~B`Bv@l@zBxALLd@^~CvBbBnA"
		},
		{
			"BUS_SEQUENCE": 22,
			"START_BUS_STOP": "BEF LAVENDER ST",
			"END_BUS_STOP": "HOA NAM BLDG",
			"START_BUS_STOP_NUM": "60099",
			"START_BUS_STOP_LATLNG": "1.3153030306096, 103.861407162545",
			"END_BUS_STOP_NUM": "07329",
			"END_BUS_STOP_LATLNG": "1.31284472583438, 103.859890882885",
			"DISTANCE": "16.8",
			"GEOMETRIES": "{{_Gol|xRhAx@LHlDhC`Al@^Vf@RvAPD@"
		},
		{
			"BUS_SEQUENCE": 23,
			"START_BUS_STOP": "HOA NAM BLDG",
			"END_BUS_STOP": "AFT ALLENBY RD",
			"START_BUS_STOP_NUM": "07329",
			"START_BUS_STOP_LATLNG": "1.31284472583438, 103.859890882885",
			"END_BUS_STOP_NUM": "07319",
			"END_BUS_STOP_LATLNG": "1.31038833299803, 103.85870666697",
			"DISTANCE": "17.1",
			"GEOMETRIES": "ml_Gsb|xR`C`@ZFl@JdB`A|@h@pBhA"
		},
		{
			"BUS_SEQUENCE": 24,
			"START_BUS_STOP": "AFT ALLENBY RD",
			"END_BUS_STOP": "OPP VEERASAMY RD",
			"START_BUS_STOP_NUM": "07319",
			"START_BUS_STOP_LATLNG": "1.31038833299803, 103.85870666697",
			"END_BUS_STOP_NUM": "07419",
			"END_BUS_STOP_LATLNG": "1.30653024120879, 103.856163024931",
			"DISTANCE": "17.4",
			"GEOMETRIES": "k}~Fg{{xRjBfA|BrAhBbAnBdAdAj@pAr@l@\\r@d@fAn@"
		},
		{
			"BUS_SEQUENCE": 25,
			"START_BUS_STOP": "OPP VEERASAMY RD",
			"END_BUS_STOP": "JLN BESAR STN EXIT A",
			"START_BUS_STOP_NUM": "07419",
			"START_BUS_STOP_LATLNG": "1.30653024120879, 103.856163024931",
			"END_BUS_STOP_NUM": "07529",
			"END_BUS_STOP_LATLNG": "1.30453628055254, 103.854788655981",
			"DISTANCE": "17.9",
			"GEOMETRIES": "ee~Fmk{xRd@Vb@TVN~@f@bBbAnBdA^T"
		},
		{
			"BUS_SEQUENCE": 26,
			"START_BUS_STOP": "JLN BESAR STN EXIT A",
			"END_BUS_STOP": "OPP NAFA CAMPUS 3",
			"START_BUS_STOP_NUM": "07529",
			"START_BUS_STOP_LATLNG": "1.30453628055254, 103.854788655981",
			"END_BUS_STOP_NUM": "07518",
			"END_BUS_STOP_LATLNG": "1.30095828368506, 103.852111750348",
			"DISTANCE": "18.2",
			"GEOMETRIES": "ox}Fgc{xRf@Xj@^tAj@|@j@~@h@^^vB`BrB`BtCvB"
		},
		{
			"BUS_SEQUENCE": 27,
			"START_BUS_STOP": "OPP NAFA CAMPUS 3",
			"END_BUS_STOP": "OPP BENCOOLEN STN EXIT B",
			"START_BUS_STOP_NUM": "07518",
			"START_BUS_STOP_LATLNG": "1.30095828368506, 103.852111750348",
			"END_BUS_STOP_NUM": "04019",
			"END_BUS_STOP_LATLNG": "1.29819114214543, 103.849817939059",
			"DISTANCE": "18.7",
			"GEOMETRIES": "eb}ForzxRNL~AlAbClBnFhEbAx@"
		},
		{
			"BUS_SEQUENCE": 28,
			"START_BUS_STOP": "OPP BENCOOLEN STN EXIT B",
			"END_BUS_STOP": "AFT BRAS BASAH STN EXIT A",
			"START_BUS_STOP_NUM": "04019",
			"START_BUS_STOP_LATLNG": "1.29819114214543, 103.849817939059",
			"END_BUS_STOP_NUM": "04179",
			"END_BUS_STOP_LATLNG": "1.29647916306741, 103.851471644872",
			"DISTANCE": "19.1",
			"GEOMETRIES": "}p|FadzxRv@l@`C}CxBwCv@_A"
		},
		{
			"BUS_SEQUENCE": 29,
			"START_BUS_STOP": "AFT BRAS BASAH STN EXIT A",
			"END_BUS_STOP": "RAFFLES HOTEL",
			"START_BUS_STOP_NUM": "04179",
			"START_BUS_STOP_LATLNG": "1.29647916306741, 103.851471644872",
			"END_BUS_STOP_NUM": "02049",
			"END_BUS_STOP_LATLNG": "1.29452091230981, 103.854021555052",
			"DISTANCE": "19.4",
			"GEOMETRIES": "qe|FinzxRvAgBhDmF`CkD"
		},
		{
			"BUS_SEQUENCE": 30,
			"START_BUS_STOP": "RAFFLES HOTEL",
			"END_BUS_STOP": "SUNTEC CONVENTION CTR",
			"START_BUS_STOP_NUM": "02049",
			"START_BUS_STOP_LATLNG": "1.29452091230981, 103.854021555052",
			"END_BUS_STOP_NUM": "02151",
			"END_BUS_STOP_LATLNG": "1.29317776320814, 103.85784623004",
			"DISTANCE": "19.8",
			"GEOMETRIES": "my{Fk~zxRh@u@`AuAr@y@j@eAt@cBR]p@kAx@aBZs@F[A[IQKMq@[qAm@"
		},
		{
			"BUS_SEQUENCE": 32,
			"START_BUS_STOP": "SUNTEC CONVENTION CTR",
			"END_BUS_STOP": "PROMENADE STN",
			"START_BUS_STOP_NUM": "02151",
			"START_BUS_STOP_LATLNG": "1.29317776320814, 103.85784623004",
			"END_BUS_STOP_NUM": "02161",
			"END_BUS_STOP_LATLNG": "1.29268553508737, 103.860931561882",
			"DISTANCE": "20.4",
			"GEOMETRIES": "cq{F}v{xRmAm@kAi@eB{@SN[J]?OCUKSQEYAUFWBKDITMNI\\CZDvBcE^q@DEJKLQ\\SZERCpBE@?"
		}
	]
}