{
	"BUS_DIRECTION_ONE": [
		{
			"BUS_SEQUENCE": 1,
			"START_BUS_STOP": "YISHUN INT",
			"END_BUS_STOP": "BET BLKS 201/202",
			"START_BUS_STOP_NUM": "59009",
			"START_BUS_STOP_LATLNG": "1.42831117417874, 103.836146194677",
			"END_BUS_STOP_NUM": "59169",
			"END_BUS_STOP_LATLNG": "1.43040941914409, 103.83769654656",
			"DISTANCE": "0",
			"GEOMETRIES": "a|uGcmwxRIvBQA_CEaACwDGm@AY?@]?g@@gADkDDuC"
		},
		{
			"BUS_SEQUENCE": 2,
			"START_BUS_STOP": "BET BLKS 201/202",
			"END_BUS_STOP": "BLK 241",
			"START_BUS_STOP_NUM": "59169",
			"START_BUS_STOP_LATLNG": "1.43040941914409, 103.83769654656",
			"END_BUS_STOP_NUM": "59179",
			"END_BUS_STOP_LATLNG": "1.43221439515231, 103.839883316889",
			"DISTANCE": "0.7",
			"GEOMETRIES": "ojvGqxwxR@q@JgAVsAiEiA_Ac@YSwAuAYY"
		},
		{
			"BUS_SEQUENCE": 3,
			"START_BUS_STOP": "BLK 241",
			"END_BUS_STOP": "OPP BLK 314",
			"START_BUS_STOP_NUM": "59179",
			"START_BUS_STOP_LATLNG": "1.43221439515231, 103.839883316889",
			"END_BUS_STOP_NUM": "59389",
			"END_BUS_STOP_LATLNG": "1.43202071867504, 103.842082464423",
			"DISTANCE": "1.1",
			"GEOMETRIES": "_vvGqfxxRcDqDpB_C~AkB"
		},
		{
			"BUS_SEQUENCE": 4,
			"START_BUS_STOP": "OPP BLK 314",
			"END_BUS_STOP": "OPP BLK 367",
			"START_BUS_STOP_NUM": "59389",
			"START_BUS_STOP_LATLNG": "1.43202071867504, 103.842082464423",
			"END_BUS_STOP_NUM": "59399",
			"END_BUS_STOP_LATLNG": "1.43026750784845, 103.845520628725",
			"DISTANCE": "1.4",
			"GEOMETRIES": "qtvGosxxR??z@cAd@k@LOJQNg@Fi@AcDBa@DY@ARi@f@o@NOtB}B"
		},
		{
			"BUS_SEQUENCE": 5,
			"START_BUS_STOP": "OPP BLK 367",
			"END_BUS_STOP": "EVANGEL FAMILY CH",
			"START_BUS_STOP_NUM": "59399",
			"START_BUS_STOP_LATLNG": "1.43026750784845, 103.845520628725",
			"END_BUS_STOP_NUM": "59409",
			"END_BUS_STOP_LATLNG": "1.42663883088373, 103.846406166229",
			"DISTANCE": "1.9",
			"GEOMETRIES": "qivG}hyxRfAmAp@m@j@QPEXCjAA~EIdEG"
		},
		{
			"BUS_SEQUENCE": 6,
			"START_BUS_STOP": "EVANGEL FAMILY CH",
			"END_BUS_STOP": "BLK 413",
			"START_BUS_STOP_NUM": "59409",
			"START_BUS_STOP_LATLNG": "1.42663883088373, 103.846406166229",
			"END_BUS_STOP_NUM": "59419",
			"END_BUS_STOP_LATLNG": "1.42525968028764, 103.845980274304",
			"DISTANCE": "2.3",
			"GEOMETRIES": "msuGinyxR^?|@Cb@B@?b@Fj@Xn@h@"
		},
		{
			"BUS_SEQUENCE": 7,
			"START_BUS_STOP": "BLK 413",
			"END_BUS_STOP": "BET BLKS 445/449",
			"START_BUS_STOP_NUM": "59419",
			"START_BUS_STOP_LATLNG": "1.42525968028764, 103.845980274304",
			"END_BUS_STOP_NUM": "59639",
			"END_BUS_STOP_LATLNG": "1.42318166665872, 103.844123888931",
			"DISTANCE": "2.5",
			"GEOMETRIES": "ikuG}kyxRdDrC^\\HFt@p@hC~BRH"
		},
		{
			"BUS_SEQUENCE": 8,
			"START_BUS_STOP": "BET BLKS 445/449",
			"END_BUS_STOP": "BLK 456",
			"START_BUS_STOP_NUM": "59639",
			"START_BUS_STOP_LATLNG": "1.42318166665872, 103.844123888931",
			"END_BUS_STOP_NUM": "59579",
			"END_BUS_STOP_LATLNG": "1.4203023713689, 103.843950848138",
			"DISTANCE": "2.8",
			"GEOMETRIES": "e~tGg`yxRh@Xr@Pr@F^BZ?jAAlBC|DG@?"
		},
		{
			"BUS_SEQUENCE": 9,
			"START_BUS_STOP": "BLK 456",
			"END_BUS_STOP": "BLK 504C",
			"START_BUS_STOP_NUM": "59579",
			"START_BUS_STOP_LATLNG": "1.4203023713689, 103.843950848138",
			"END_BUS_STOP_NUM": "59761",
			"END_BUS_STOP_LATLNG": "1.41849608053432, 103.843267403857",
			"DISTANCE": "3.1",
			"GEOMETRIES": "}ktG}~xxRx@@v@H\\DdAT~@`@d@T`@\\"
		},
		{
			"BUS_SEQUENCE": 10,
			"START_BUS_STOP": "BLK 504C",
			"END_BUS_STOP": "OPP BLK 672C",
			"START_BUS_STOP_NUM": "59761",
			"START_BUS_STOP_LATLNG": "1.41849608053432, 103.843267403857",
			"END_BUS_STOP_NUM": "59719",
			"END_BUS_STOP_LATLNG": "1.41756544907262, 103.842004972269",
			"DISTANCE": "3.3",
			"GEOMETRIES": "_atG_{xxRNLLJdAfAz@rAX|@"
		},
		{
			"BUS_SEQUENCE": 11,
			"START_BUS_STOP": "OPP BLK 672C",
			"END_BUS_STOP": "BLK 858",
			"START_BUS_STOP_NUM": "59719",
			"START_BUS_STOP_LATLNG": "1.41756544907262, 103.842004972269",
			"END_BUS_STOP_NUM": "59439",
			"END_BUS_STOP_LATLNG": "1.41782451621848, 103.838378197512",
			"DISTANCE": "3.5",
			"GEOMETRIES": "e{sGksxxRBJBd@@LEdASx@q@rBy@hCKl@A^D^^jAFR^lA"
		},
		{
			"BUS_SEQUENCE": 12,
			"START_BUS_STOP": "BLK 858",
			"END_BUS_STOP": "BLK 846",
			"START_BUS_STOP_NUM": "59439",
			"START_BUS_STOP_LATLNG": "1.41782451621848, 103.838378197512",
			"END_BUS_STOP_NUM": "59429",
			"END_BUS_STOP_LATLNG": "1.41743564532293, 103.835040079122",
			"DISTANCE": "3.9",
			"GEOMETRIES": "a}sGq|wxRX`A`A|C~@|CH^@`@E`@KZABaAfC"
		},
		{
			"BUS_SEQUENCE": 13,
			"START_BUS_STOP": "BLK 846",
			"END_BUS_STOP": "BLK 790",
			"START_BUS_STOP_NUM": "59429",
			"START_BUS_STOP_LATLNG": "1.41743564532293, 103.835040079122",
			"END_BUS_STOP_NUM": "59051",
			"END_BUS_STOP_LATLNG": "1.41964225098964, 103.834330056809",
			"DISTANCE": "4.3",
			"GEOMETRIES": "ozsGghwxRa@`AeBhEuGiC"
		},
		{
			"BUS_SEQUENCE": 14,
			"START_BUS_STOP": "BLK 790",
			"END_BUS_STOP": "BLK 776",
			"START_BUS_STOP_NUM": "59051",
			"START_BUS_STOP_LATLNG": "1.41964225098964, 103.834330056809",
			"END_BUS_STOP_NUM": "59339",
			"END_BUS_STOP_LATLNG": "1.42273567302859, 103.833784111944",
			"DISTANCE": "4.6",
			"GEOMETRIES": "mgtGedwxRm@UeCo@eAOeAGKAqFK]NYRa@f@B`D"
		},
		{
			"BUS_SEQUENCE": 15,
			"START_BUS_STOP": "BLK 776",
			"END_BUS_STOP": "KHATIB CAMP",
			"START_BUS_STOP_NUM": "59339",
			"START_BUS_STOP_LATLNG": "1.42273567302859, 103.833784111944",
			"END_BUS_STOP_NUM": "59549",
			"END_BUS_STOP_LATLNG": "1.42313912325939, 103.830526057113",
			"DISTANCE": "5.1",
			"GEOMETRIES": "a|tGc`wxR@zADbFCbBCLGXGh@e@fBQ`@"
		},
		{
			"BUS_SEQUENCE": 16,
			"START_BUS_STOP": "KHATIB CAMP",
			"END_BUS_STOP": "OPP BLK 722",
			"START_BUS_STOP_NUM": "59549",
			"START_BUS_STOP_LATLNG": "1.42313912325939, 103.830526057113",
			"END_BUS_STOP_NUM": "59559",
			"END_BUS_STOP_LATLNG": "1.42511776424343, 103.828213089092",
			"DISTANCE": "5.5",
			"GEOMETRIES": "i~tGclvxRITa@r@u@`AcH|H"
		},
		{
			"BUS_SEQUENCE": 17,
			"START_BUS_STOP": "OPP BLK 722",
			"END_BUS_STOP": "KHATIB CAMP",
			"START_BUS_STOP_NUM": "59559",
			"START_BUS_STOP_LATLNG": "1.42511776424343, 103.828213089092",
			"END_BUS_STOP_NUM": "57079",
			"END_BUS_STOP_LATLNG": "1.42443860227619, 103.825667930618",
			"DISTANCE": "5.8",
			"GEOMETRIES": "ojuGy}uxRAB{A|Bo@rAo@rB?n@Ll@lAd@`@NdAf@tAVt@H"
		},
		{
			"BUS_SEQUENCE": 18,
			"START_BUS_STOP": "KHATIB CAMP",
			"END_BUS_STOP": "OPP DIEPPE BARRACKS",
			"START_BUS_STOP_NUM": "57079",
			"START_BUS_STOP_LATLNG": "1.42443860227619, 103.825667930618",
			"END_BUS_STOP_NUM": "57069",
			"END_BUS_STOP_LATLNG": "1.4189659270404, 103.824605513336",
			"DISTANCE": "6.3",
			"GEOMETRIES": "}euGqluxR|C^dE`@h@DRB^DjFh@jGx@jC`@"
		},
		{
			"BUS_SEQUENCE": 19,
			"START_BUS_STOP": "OPP DIEPPE BARRACKS",
			"END_BUS_STOP": "OPP SEMBAWANG AIR BASE",
			"START_BUS_STOP_NUM": "57069",
			"START_BUS_STOP_LATLNG": "1.4189659270404, 103.824605513336",
			"END_BUS_STOP_NUM": "57059",
			"END_BUS_STOP_LATLNG": "1.41472777811863, 103.823565497444",
			"DISTANCE": "6.9",
			"GEOMETRIES": "wctGyeuxRfNvBTDpInA"
		},
		{
			"BUS_SEQUENCE": 20,
			"START_BUS_STOP": "OPP SEMBAWANG AIR BASE",
			"END_BUS_STOP": "OPP NEE SOON HQ 22 SIB",
			"START_BUS_STOP_NUM": "57059",
			"START_BUS_STOP_LATLNG": "1.41472777811863, 103.823565497444",
			"END_BUS_STOP_NUM": "57049",
			"END_BUS_STOP_LATLNG": "1.41082027802703, 103.822335277988",
			"DISTANCE": "7.4",
			"GEOMETRIES": "gisGk_uxRtATF@D@PBd@F`BZPBNBxAXdAJxBd@xDpAPH"
		},
		{
			"BUS_SEQUENCE": 21,
			"START_BUS_STOP": "OPP NEE SOON HQ 22 SIB",
			"END_BUS_STOP": "SPIRITUAL GRACE PRESBY CH",
			"START_BUS_STOP_NUM": "57049",
			"START_BUS_STOP_LATLNG": "1.41082027802703, 103.822335277988",
			"END_BUS_STOP_NUM": "57039",
			"END_BUS_STOP_LATLNG": "1.40611750000192, 103.819987222019",
			"DISTANCE": "7.9",
			"GEOMETRIES": "aqrGywtxRdBr@hM`Ff@RLDNFxBz@jBr@nAl@"
		},
		{
			"BUS_SEQUENCE": 22,
			"START_BUS_STOP": "SPIRITUAL GRACE PRESBY CH",
			"END_BUS_STOP": "AFT THE SPRINGSIDE",
			"START_BUS_STOP_NUM": "57039",
			"START_BUS_STOP_LATLNG": "1.40611750000192, 103.819987222019",
			"END_BUS_STOP_NUM": "57029",
			"END_BUS_STOP_LATLNG": "1.40396290628178, 103.818622613435",
			"DISTANCE": "8.5",
			"GEOMETRIES": "usqGcitxRPHNFLFxCrAlAt@PJVNb@JjAx@"
		},
		{
			"BUS_SEQUENCE": 23,
			"START_BUS_STOP": "AFT THE SPRINGSIDE",
			"END_BUS_STOP": "SPRINGLEAF NATURE PK",
			"START_BUS_STOP_NUM": "57029",
			"START_BUS_STOP_LATLNG": "1.40396290628178, 103.818622613435",
			"END_BUS_STOP_NUM": "57019",
			"END_BUS_STOP_LATLNG": "1.40056260892652, 103.817344658818",
			"DISTANCE": "8.8",
			"GEOMETRIES": "cfqG}`txR|@n@^Vp@X~B|@hBn@`Bd@b@Fd@FZBn@Ap@CRE"
		},
		{
			"BUS_SEQUENCE": 24,
			"START_BUS_STOP": "SPRINGLEAF NATURE PK",
			"END_BUS_STOP": "SPRINGLEAF STN EXIT 2",
			"START_BUS_STOP_NUM": "57019",
			"START_BUS_STOP_LATLNG": "1.40056260892652, 103.817344658818",
			"END_BUS_STOP_NUM": "56099",
			"END_BUS_STOP_LATLNG": "1.39606817759915, 103.818829921849",
			"DISTANCE": "9.2",
			"GEOMETRIES": "kppG_ysxRz@Qf@Ex@Fz@Fd@@^ElCu@tCw@PMRQVUh@i@`@[b@SJCbCS"
		},
		{
			"BUS_SEQUENCE": 25,
			"START_BUS_STOP": "SPRINGLEAF STN EXIT 2",
			"END_BUS_STOP": "AFT SLE",
			"START_BUS_STOP_NUM": "56099",
			"START_BUS_STOP_LATLNG": "1.39606817759915, 103.818829921849",
			"END_BUS_STOP_NUM": "56089",
			"END_BUS_STOP_LATLNG": "1.39205091187219, 103.818611074367",
			"DISTANCE": "9.6",
			"GEOMETRIES": "itoGabtxRxCUtCKdACz@D`BJfG|@"
		},
		{
			"BUS_SEQUENCE": 26,
			"START_BUS_STOP": "AFT SLE",
			"END_BUS_STOP": "AFT OLD UPP THOMSON RD",
			"START_BUS_STOP_NUM": "56089",
			"START_BUS_STOP_LATLNG": "1.39205091187219, 103.818611074367",
			"END_BUS_STOP_NUM": "56079",
			"END_BUS_STOP_LATLNG": "1.38756640996273, 103.819597912999",
			"DISTANCE": "10.2",
			"GEOMETRIES": "m{nGw`txRvFx@zARt@DdBA|@Iv@Ov@Yn@W~@m@n@m@f@o@^u@JS"
		},
		{
			"BUS_SEQUENCE": 27,
			"START_BUS_STOP": "AFT OLD UPP THOMSON RD",
			"END_BUS_STOP": "BEF TAGORE DR",
			"START_BUS_STOP_NUM": "56079",
			"START_BUS_STOP_LATLNG": "1.38756640996273, 103.819597912999",
			"END_BUS_STOP_NUM": "56069",
			"END_BUS_STOP_LATLNG": "1.38530499508514, 103.823208798655",
			"DISTANCE": "10.8",
			"GEOMETRIES": "{~mGggtxRt@sA~A_Dt@uANWhFmJ"
		},
		{
			"BUS_SEQUENCE": 28,
			"START_BUS_STOP": "BEF TAGORE DR",
			"END_BUS_STOP": "BEF TAGORE RD",
			"START_BUS_STOP_NUM": "56069",
			"START_BUS_STOP_LATLNG": "1.38530499508514, 103.823208798655",
			"END_BUS_STOP_NUM": "56059",
			"END_BUS_STOP_LATLNG": "1.38268805765919, 103.826045473551",
			"DISTANCE": "11.3",
			"GEOMETRIES": "upmGw}txR~DoHpAaB|@u@r@a@`CeA"
		},
		{
			"BUS_SEQUENCE": 29,
			"START_BUS_STOP": "BEF TAGORE RD",
			"END_BUS_STOP": "MEADOWS @ PEIRCE",
			"START_BUS_STOP_NUM": "56059",
			"START_BUS_STOP_LATLNG": "1.38268805765919, 103.826045473551",
			"END_BUS_STOP_NUM": "56049",
			"END_BUS_STOP_LATLNG": "1.37945638898658, 103.827688332988",
			"DISTANCE": "11.7",
			"GEOMETRIES": "o`mGgouxRBAhBw@~CsA~EsBtCiA"
		},
		{
			"BUS_SEQUENCE": 30,
			"START_BUS_STOP": "MEADOWS @ PEIRCE",
			"END_BUS_STOP": "TEACHERS' HOUSING EST",
			"START_BUS_STOP_NUM": "56049",
			"START_BUS_STOP_LATLNG": "1.37945638898658, 103.827688332988",
			"END_BUS_STOP_NUM": "56191",
			"END_BUS_STOP_LATLNG": "1.37879833302094, 103.829440833024",
			"DISTANCE": "12.1",
			"GEOMETRIES": "kllGsyuxRf@SbC_Aj@g@Ra@@k@WkA}@yAGI"
		},
		{
			"BUS_SEQUENCE": 31,
			"START_BUS_STOP": "TEACHERS' HOUSING EST",
			"END_BUS_STOP": "AFT MUNSHI ABDULLAH AVE",
			"START_BUS_STOP_NUM": "56191",
			"START_BUS_STOP_LATLNG": "1.37879833302094, 103.829440833024",
			"END_BUS_STOP_NUM": "56201",
			"END_BUS_STOP_LATLNG": "1.38059381566563, 103.83224759401",
			"DISTANCE": "12.4",
			"GEOMETRIES": "{glGmevxRCEa@m@g@y@}DaHGKGQu@cBG["
		},
		{
			"BUS_SEQUENCE": 32,
			"START_BUS_STOP": "AFT MUNSHI ABDULLAH AVE",
			"END_BUS_STOP": "BLK 604",
			"START_BUS_STOP_NUM": "56201",
			"START_BUS_STOP_LATLNG": "1.38059381566563, 103.83224759401",
			"END_BUS_STOP_NUM": "55129",
			"END_BUS_STOP_LATLNG": "1.37944237504344, 103.835481541596",
			"DISTANCE": "12.8",
			"GEOMETRIES": "urlG{vvxRi@aC[{BIi@S{@I_@XQr@e@|B{AJIx@g@l@a@"
		},
		{
			"BUS_SEQUENCE": 33,
			"START_BUS_STOP": "BLK 604",
			"END_BUS_STOP": "BLK 617",
			"START_BUS_STOP_NUM": "55129",
			"START_BUS_STOP_LATLNG": "1.37944237504344, 103.835481541596",
			"END_BUS_STOP_NUM": "55119",
			"END_BUS_STOP_LATLNG": "1.37728530731209, 103.837847063111",
			"DISTANCE": "13.2",
			"GEOMETRIES": "cllGgjwxRnD_CpA{@RO`Ay@r@aA^{@XmA@S"
		},
		{
			"BUS_SEQUENCE": 34,
			"START_BUS_STOP": "BLK 617",
			"END_BUS_STOP": "BLK 643",
			"START_BUS_STOP_NUM": "55119",
			"START_BUS_STOP_LATLNG": "1.37728530731209, 103.837847063111",
			"END_BUS_STOP_NUM": "54451",
			"END_BUS_STOP_LATLNG": "1.37723501808517, 103.840596452064",
			"DISTANCE": "13.6",
			"GEOMETRIES": "{}kGmywxRBy@?oG?O?OA_E"
		},
		{
			"BUS_SEQUENCE": 35,
			"START_BUS_STOP": "BLK 643",
			"END_BUS_STOP": "BLK 649",
			"START_BUS_STOP_NUM": "54451",
			"START_BUS_STOP_LATLNG": "1.37723501808517, 103.840596452064",
			"END_BUS_STOP_NUM": "54461",
			"END_BUS_STOP_LATLNG": "1.37747997146347, 103.843399387771",
			"DISTANCE": "13.9",
			"GEOMETRIES": "y}kGwjxxR?M?{@Cm@QeDQeDG{A?O"
		},
		{
			"BUS_SEQUENCE": 36,
			"START_BUS_STOP": "BLK 649",
			"END_BUS_STOP": "OPP ANDERSON JC",
			"START_BUS_STOP_NUM": "54461",
			"START_BUS_STOP_LATLNG": "1.37747997146347, 103.843399387771",
			"END_BUS_STOP_NUM": "55201",
			"END_BUS_STOP_LATLNG": "1.37859113966821, 103.844377726812",
			"DISTANCE": "14.3",
			"GEOMETRIES": "i_lGg|xxRCwDQ]OOUKYEiDR"
		},
		{
			"BUS_SEQUENCE": 37,
			"START_BUS_STOP": "OPP ANDERSON JC",
			"END_BUS_STOP": "YIO CHU KANG INT",
			"START_BUS_STOP_NUM": "55201",
			"START_BUS_STOP_LATLNG": "1.37859113966821, 103.844377726812",
			"END_BUS_STOP_NUM": "55509",
			"END_BUS_STOP_LATLNG": "1.38113241525166, 103.845555881697",
			"DISTANCE": "14.5",
			"GEOMETRIES": "iglGkcyxRaDRcAHgBJcAJWB?a@DuBDg@@OuBG"
		}
	]
}