{
	"BUS_DIRECTION_ONE": [
		{
			"BUS_SEQUENCE": 1,
			"START_BUS_STOP": "Tengah Int",
			"END_BUS_STOP": "BLK 238",
			"START_BUS_STOP_NUM": "41009",
			"START_BUS_STOP_LATLNG": "1.3626639913996283, 103.73563911642279",
			"END_BUS_STOP_NUM": "40441",
			"END_BUS_STOP_LATLNG": "1.3618735691877086, 103.73348881028005",
			"DISTANCE": "0",
			"GEOMETRIES": [
				[
					103.73577,
					1.3628
				],
				[
					103.73536,
					1.36319
				],
				[
					103.73483,
					1.3635
				],
				[
					103.73499,
					1.36377
				],
				[
					103.73557,
					1.36344
				],
				[
					103.7359,
					1.36314
				],
				[
					103.736,
					1.36291
				],
				[
					103.73586,
					1.36271
				],
				[
					103.73635,
					1.36225
				],
				[
					103.73488,
					1.36075
				],
				[
					103.73393,
					1.36172
				]
			],
			"roadName": "Tengah Int"
		},
		{
			"BUS_SEQUENCE": 2,
			"START_BUS_STOP": "BLK 238",
			"END_BUS_STOP": "BLK 237A",
			"START_BUS_STOP_NUM": "40441",
			"START_BUS_STOP_LATLNG": "1.3618735691877086, 103.73348881028005",
			"END_BUS_STOP_NUM": "40431",
			"END_BUS_STOP_LATLNG": "1.3614283281463393, 103.73162643080987",
			"DISTANCE": "0.8",
			"GEOMETRIES": [
				[
					103.73356,
					1.36198
				],
				[
					103.73341,
					1.36208
				],
				[
					103.73341,
					1.36208
				],
				[
					103.73296,
					1.36224
				],
				[
					103.73233,
					1.36233
				],
				[
					103.7319,
					1.3622
				],
				[
					103.73151,
					1.36149
				]
			],
			"roadName": "BLK 238"
		},
		{
			"BUS_SEQUENCE": 3,
			"START_BUS_STOP": "BLK 237A",
			"END_BUS_STOP": "BLK 220A",
			"START_BUS_STOP_NUM": "40431",
			"START_BUS_STOP_LATLNG": "1.3614283281463393, 103.73162643080987",
			"END_BUS_STOP_NUM": "40421",
			"END_BUS_STOP_LATLNG": "1.359378810243779, 103.7296903196952",
			"DISTANCE": "1.1",
			"GEOMETRIES": [
				[
					103.73151,
					1.36149
				],
				[
					103.73145,
					1.36137
				],
				[
					103.73056,
					1.36042
				],
				[
					103.7296,
					1.35947
				]
			],
			"roadName": "BLK 237A"
		},
		{
			"BUS_SEQUENCE": 4,
			"START_BUS_STOP": "BLK 220A",
			"END_BUS_STOP": "BLK 224A",
			"START_BUS_STOP_NUM": "40421",
			"START_BUS_STOP_LATLNG": "1.359378810243779, 103.7296903196952",
			"END_BUS_STOP_NUM": "40401",
			"END_BUS_STOP_LATLNG": "1.3572945021868648, 103.73117549782003",
			"DISTANCE": "1.5",
			"GEOMETRIES": [
				[
					103.7296,
					1.35947
				],
				[
					103.72846,
					1.35833
				],
				[
					103.73041,
					1.35624
				],
				[
					103.73133,
					1.35713
				]
			],
			"roadName": "BLK 220A"
		},
		{
			"BUS_SEQUENCE": 5,
			"START_BUS_STOP": "BLK 224A",
			"END_BUS_STOP": "BLK 119",
			"START_BUS_STOP_NUM": "40401",
			"START_BUS_STOP_LATLNG": "1.3572945021868648, 103.73117549782003",
			"END_BUS_STOP_NUM": "40389",
			"END_BUS_STOP_LATLNG": "1.3565194550447053, 103.73447504729988",
			"DISTANCE": "2.1",
			"GEOMETRIES": [
				[
					103.73133,
					1.35713
				],
				[
					103.73171,
					1.3575
				],
				[
					103.73246,
					1.35823
				],
				[
					103.73323,
					1.35746
				],
				[
					103.73431,
					1.35641
				],
				[
					103.73434,
					1.35638
				]
			],
			"roadName": "BLK 224A"
		},
		{
			"BUS_SEQUENCE": 6,
			"START_BUS_STOP": "BLK 119",
			"END_BUS_STOP": "OPP BLK 443D",
			"START_BUS_STOP_NUM": "40389",
			"START_BUS_STOP_LATLNG": "1.3565194550447053, 103.73447504729988",
			"END_BUS_STOP_NUM": "43751",
			"END_BUS_STOP_LATLNG": "1.3558055559742035, 103.73652916703307",
			"DISTANCE": "2.6",
			"GEOMETRIES": [
				[
					103.73434,
					1.35638
				],
				[
					103.73504,
					1.3557
				],
				[
					103.73534,
					1.35527
				],
				[
					103.73658,
					1.35514
				],
				[
					103.7366,
					1.35538
				],
				[
					103.73669,
					1.35577
				]
			],
			"roadName": "BLK 119"
		},
		{
			"BUS_SEQUENCE": 7,
			"START_BUS_STOP": "OPP BLK 443D",
			"END_BUS_STOP": "BLK 439C",
			"START_BUS_STOP_NUM": "43751",
			"START_BUS_STOP_LATLNG": "1.3558055559742035, 103.73652916703307",
			"END_BUS_STOP_NUM": "40311",
			"END_BUS_STOP_LATLNG": "1.3573045691826773, 103.73890781029748",
			"DISTANCE": "3",
			"GEOMETRIES": [
				[
					103.73669,
					1.35577
				],
				[
					103.73674,
					1.356
				],
				[
					103.73698,
					1.35658
				],
				[
					103.73719,
					1.35695
				],
				[
					103.73744,
					1.35729
				],
				[
					103.73802,
					1.3579
				],
				[
					103.7388,
					1.35718
				]
			],
			"roadName": "OPP BLK 443D"
		},
		{
			"BUS_SEQUENCE": 8,
			"START_BUS_STOP": "BLK 439C",
			"END_BUS_STOP": "OPP BLK 461C",
			"START_BUS_STOP_NUM": "40311",
			"START_BUS_STOP_LATLNG": "1.3573045691826773, 103.73890781029748",
			"END_BUS_STOP_NUM": "40359",
			"END_BUS_STOP_LATLNG": "1.3554021897045114, 103.74090581028908",
			"DISTANCE": "3.4",
			"GEOMETRIES": [
				[
					103.7388,
					1.35718
				],
				[
					103.74006,
					1.35603
				],
				[
					103.74083,
					1.35532
				]
			],
			"roadName": "BLK 439C"
		},
		{
			"BUS_SEQUENCE": 9,
			"START_BUS_STOP": "OPP BLK 461C",
			"END_BUS_STOP": "OPP BLK 532",
			"START_BUS_STOP_NUM": "40359",
			"START_BUS_STOP_LATLNG": "1.3554021897045114, 103.74090581028908",
			"END_BUS_STOP_NUM": "43601",
			"END_BUS_STOP_LATLNG": "1.3566434085955623, 103.74950528201235",
			"DISTANCE": "3.7",
			"GEOMETRIES": [
				[
					103.74083,
					1.35532
				],
				[
					103.74109,
					1.35509
				],
				[
					103.74172,
					1.35452
				],
				[
					103.7425,
					1.35538
				],
				[
					103.7428,
					1.3556
				],
				[
					103.74293,
					1.35566
				],
				[
					103.74361,
					1.35596
				],
				[
					103.74386,
					1.35612
				],
				[
					103.744,
					1.35625
				],
				[
					103.74409,
					1.35632
				],
				[
					103.74452,
					1.35683
				],
				[
					103.74494,
					1.35661
				],
				[
					103.74532,
					1.35649
				],
				[
					103.74582,
					1.35641
				],
				[
					103.74732,
					1.35644
				],
				[
					103.74913,
					1.35652
				],
				[
					103.74951,
					1.35654
				]
			],
			"roadName": "OPP BLK 461C"
		},
		{
			"BUS_SEQUENCE": 10,
			"START_BUS_STOP": "OPP BLK 532",
			"END_BUS_STOP": "BT GOMBAK STADIUM",
			"START_BUS_STOP_NUM": "43601",
			"START_BUS_STOP_LATLNG": "1.3566434085955623, 103.74950528201235",
			"END_BUS_STOP_NUM": "43569",
			"END_BUS_STOP_LATLNG": "1.357412038992939, 103.75311063706323",
			"DISTANCE": "4.8",
			"GEOMETRIES": [
				[
					103.74951,
					1.35654
				],
				[
					103.74963,
					1.35655
				],
				[
					103.74977,
					1.35657
				],
				[
					103.74989,
					1.35662
				],
				[
					103.74999,
					1.35665
				],
				[
					103.75022,
					1.35679
				],
				[
					103.75041,
					1.35696
				],
				[
					103.75146,
					1.3581
				],
				[
					103.75237,
					1.35786
				],
				[
					103.75262,
					1.35773
				],
				[
					103.75279,
					1.35758
				],
				[
					103.7529,
					1.35748
				],
				[
					103.75304,
					1.35734
				]
			],
			"roadName": "OPP BLK 532"
		},
		{
			"BUS_SEQUENCE": 11,
			"START_BUS_STOP": "BT GOMBAK STADIUM",
			"END_BUS_STOP": "BLK 514",
			"START_BUS_STOP_NUM": "43569",
			"START_BUS_STOP_LATLNG": "1.357412038992939, 103.75311063706323",
			"END_BUS_STOP_NUM": "43809",
			"END_BUS_STOP_LATLNG": "1.3543712928865728, 103.75187086993861",
			"DISTANCE": "5.3",
			"GEOMETRIES": [
				[
					103.75304,
					1.35734
				],
				[
					103.75319,
					1.35719
				],
				[
					103.7533,
					1.35702
				],
				[
					103.75334,
					1.35688
				],
				[
					103.75335,
					1.35673
				],
				[
					103.75334,
					1.35659
				],
				[
					103.75326,
					1.35636
				],
				[
					103.75293,
					1.35647
				],
				[
					103.7529,
					1.35648
				],
				[
					103.75253,
					1.35646
				],
				[
					103.75246,
					1.35646
				],
				[
					103.7519,
					1.35643
				],
				[
					103.7518,
					1.35637
				],
				[
					103.75175,
					1.35624
				],
				[
					103.75176,
					1.35575
				],
				[
					103.75179,
					1.35521
				],
				[
					103.75181,
					1.35462
				],
				[
					103.75183,
					1.35437
				]
			],
			"roadName": "BT GOMBAK STADIUM"
		},
		{
			"BUS_SEQUENCE": 12,
			"START_BUS_STOP": "BLK 514",
			"END_BUS_STOP": "REGENT HTS",
			"START_BUS_STOP_NUM": "43809",
			"START_BUS_STOP_LATLNG": "1.3543712928865728, 103.75187086993861",
			"END_BUS_STOP_NUM": "43549",
			"END_BUS_STOP_LATLNG": "1.352540747397124, 103.75549198596347",
			"DISTANCE": "5.8",
			"GEOMETRIES": [
				[
					103.75183,
					1.35437
				],
				[
					103.75186,
					1.35369
				],
				[
					103.75187,
					1.35347
				],
				[
					103.75226,
					1.35298
				],
				[
					103.75237,
					1.35281
				],
				[
					103.75252,
					1.35258
				],
				[
					103.75265,
					1.35247
				],
				[
					103.75284,
					1.3524
				],
				[
					103.75296,
					1.35239
				],
				[
					103.75311,
					1.35242
				],
				[
					103.75325,
					1.35248
				],
				[
					103.75335,
					1.35257
				],
				[
					103.75357,
					1.3528
				],
				[
					103.7538,
					1.35305
				],
				[
					103.75389,
					1.35313
				],
				[
					103.75402,
					1.35318
				],
				[
					103.75429,
					1.3532
				],
				[
					103.75493,
					1.35323
				],
				[
					103.75496,
					1.35309
				],
				[
					103.75504,
					1.35292
				],
				[
					103.75509,
					1.35287
				],
				[
					103.75535,
					1.35259
				],
				[
					103.75541,
					1.35251
				],
				[
					103.75542,
					1.35251
				]
			],
			"roadName": "BLK 514"
		},
		{
			"BUS_SEQUENCE": 13,
			"START_BUS_STOP": "REGENT HTS",
			"END_BUS_STOP": "BLK 240",
			"START_BUS_STOP_NUM": "43549",
			"START_BUS_STOP_LATLNG": "1.352540747397124, 103.75549198596347",
			"END_BUS_STOP_NUM": "43429",
			"END_BUS_STOP_LATLNG": "1.3510869253047506, 103.75389074656302",
			"DISTANCE": "6.4",
			"GEOMETRIES": [
				[
					103.75542,
					1.35251
				],
				[
					103.75549,
					1.35234
				],
				[
					103.75552,
					1.35216
				],
				[
					103.75555,
					1.35124
				],
				[
					103.75464,
					1.35121
				],
				[
					103.75402,
					1.35119
				],
				[
					103.75394,
					1.35118
				],
				[
					103.75387,
					1.35115
				]
			],
			"roadName": "REGENT HTS"
		},
		{
			"BUS_SEQUENCE": 14,
			"START_BUS_STOP": "BLK 240",
			"END_BUS_STOP": "BLK 231",
			"START_BUS_STOP_NUM": "43429",
			"START_BUS_STOP_LATLNG": "1.3510869253047506, 103.75389074656302",
			"END_BUS_STOP_NUM": "43179",
			"END_BUS_STOP_LATLNG": "1.3489707828043975, 103.75430345301594",
			"DISTANCE": "6.8",
			"GEOMETRIES": [
				[
					103.75387,
					1.35115
				],
				[
					103.75372,
					1.35109
				],
				[
					103.75365,
					1.35105
				],
				[
					103.75359,
					1.351
				],
				[
					103.75347,
					1.35086
				],
				[
					103.75287,
					1.34971
				],
				[
					103.75276,
					1.34953
				],
				[
					103.75288,
					1.34946
				],
				[
					103.75349,
					1.34912
				],
				[
					103.75397,
					1.34895
				],
				[
					103.75424,
					1.34883
				]
			],
			"roadName": "BLK 240"
		},
		{
			"BUS_SEQUENCE": 15,
			"START_BUS_STOP": "BLK 231",
			"END_BUS_STOP": "BLK 283",
			"START_BUS_STOP_NUM": "43179",
			"START_BUS_STOP_LATLNG": "1.3489707828043975, 103.75430345301594",
			"END_BUS_STOP_NUM": "43189",
			"END_BUS_STOP_LATLNG": "1.3469688853648416, 103.75677820727147",
			"DISTANCE": "7.2",
			"GEOMETRIES": [
				[
					103.75424,
					1.34883
				],
				[
					103.75451,
					1.34871
				],
				[
					103.75463,
					1.34867
				],
				[
					103.7549,
					1.34859
				],
				[
					103.7551,
					1.34849
				],
				[
					103.7553,
					1.34837
				],
				[
					103.75534,
					1.34835
				],
				[
					103.75569,
					1.34809
				],
				[
					103.75603,
					1.34778
				],
				[
					103.75607,
					1.34773
				],
				[
					103.75617,
					1.34762
				],
				[
					103.75626,
					1.3475
				],
				[
					103.75634,
					1.34739
				],
				[
					103.75645,
					1.34725
				],
				[
					103.75662,
					1.34701
				],
				[
					103.75668,
					1.34691
				]
			],
			"roadName": "BLK 231"
		},
		{
			"BUS_SEQUENCE": 16,
			"START_BUS_STOP": "BLK 283",
			"END_BUS_STOP": "CH OF ST. MARY",
			"START_BUS_STOP_NUM": "43189",
			"START_BUS_STOP_LATLNG": "1.3469688853648416, 103.75677820727147",
			"END_BUS_STOP_NUM": "43199",
			"END_BUS_STOP_LATLNG": "1.3466340908388472, 103.75920055445127",
			"DISTANCE": "7.6",
			"GEOMETRIES": [
				[
					103.75668,
					1.34691
				],
				[
					103.75685,
					1.34663
				],
				[
					103.75691,
					1.34655
				],
				[
					103.75711,
					1.34626
				],
				[
					103.75731,
					1.34597
				],
				[
					103.75754,
					1.34581
				],
				[
					103.75766,
					1.34576
				],
				[
					103.75799,
					1.3458
				],
				[
					103.75823,
					1.346
				],
				[
					103.7586,
					1.34625
				],
				[
					103.75921,
					1.34652
				],
				[
					103.75923,
					1.34652
				]
			],
			"roadName": "BLK 283"
		},
		{
			"BUS_SEQUENCE": 17,
			"START_BUS_STOP": "CH OF ST. MARY",
			"END_BUS_STOP": "AUTOBACS",
			"START_BUS_STOP_NUM": "43199",
			"START_BUS_STOP_LATLNG": "1.3466340908388472, 103.75920055445127",
			"END_BUS_STOP_NUM": "43209",
			"END_BUS_STOP_LATLNG": "1.3469799743197395, 103.76384248905434",
			"DISTANCE": "8",
			"GEOMETRIES": [
				[
					103.75923,
					1.34652
				],
				[
					103.75928,
					1.34653
				],
				[
					103.7598,
					1.34665
				],
				[
					103.7605,
					1.34664
				],
				[
					103.76072,
					1.34664
				],
				[
					103.76087,
					1.34664
				],
				[
					103.76099,
					1.34664
				],
				[
					103.7613,
					1.34665
				],
				[
					103.76186,
					1.34665
				],
				[
					103.76244,
					1.34665
				],
				[
					103.76265,
					1.34664
				],
				[
					103.76279,
					1.34664
				],
				[
					103.76347,
					1.34675
				],
				[
					103.76371,
					1.34682
				],
				[
					103.76388,
					1.34686
				]
			],
			"roadName": "CH OF ST. MARY"
		},
		{
			"BUS_SEQUENCE": 18,
			"START_BUS_STOP": "AUTOBACS",
			"END_BUS_STOP": "AFT BT BATOK EAST AVE 6",
			"START_BUS_STOP_NUM": "43209",
			"START_BUS_STOP_LATLNG": "1.3469799743197395, 103.76384248905434",
			"END_BUS_STOP_NUM": "42199",
			"END_BUS_STOP_LATLNG": "1.3460766669812376, 103.76760722200576",
			"DISTANCE": "8.5",
			"GEOMETRIES": [
				[
					103.76388,
					1.34686
				],
				[
					103.76461,
					1.34708
				],
				[
					103.76463,
					1.34708
				],
				[
					103.76527,
					1.34725
				],
				[
					103.76589,
					1.34725
				],
				[
					103.76647,
					1.34722
				],
				[
					103.76656,
					1.34722
				],
				[
					103.76661,
					1.34711
				],
				[
					103.76683,
					1.34672
				],
				[
					103.76704,
					1.3465
				],
				[
					103.76728,
					1.34626
				],
				[
					103.76751,
					1.34602
				],
				[
					103.76753,
					1.346
				]
			],
			"roadName": "AUTOBACS"
		},
		{
			"BUS_SEQUENCE": 19,
			"START_BUS_STOP": "AFT BT BATOK EAST AVE 6",
			"END_BUS_STOP": "THE HILLFORD",
			"START_BUS_STOP_NUM": "42199",
			"START_BUS_STOP_LATLNG": "1.3460766669812376, 103.76760722200576",
			"END_BUS_STOP_NUM": "42189",
			"END_BUS_STOP_LATLNG": "1.3437885369749307, 103.76960174742555",
			"DISTANCE": "9",
			"GEOMETRIES": [
				[
					103.76753,
					1.346
				],
				[
					103.76814,
					1.34537
				],
				[
					103.76858,
					1.3449
				],
				[
					103.76889,
					1.3445
				],
				[
					103.76909,
					1.34421
				],
				[
					103.76913,
					1.34416
				],
				[
					103.76918,
					1.3441
				],
				[
					103.76932,
					1.34394
				],
				[
					103.76935,
					1.34389
				],
				[
					103.76951,
					1.34371
				]
			],
			"roadName": "AFT BT BATOK EAST AVE 6"
		},
		{
			"BUS_SEQUENCE": 20,
			"START_BUS_STOP": "THE HILLFORD",
			"END_BUS_STOP": "AFT CHUN TIN RD",
			"START_BUS_STOP_NUM": "42189",
			"START_BUS_STOP_LATLNG": "1.3437885369749307, 103.76960174742555",
			"END_BUS_STOP_NUM": "42179",
			"END_BUS_STOP_LATLNG": "1.3419783330034487, 103.77100805601951",
			"DISTANCE": "9.3",
			"GEOMETRIES": [
				[
					103.76951,
					1.34371
				],
				[
					103.76952,
					1.3437
				],
				[
					103.76989,
					1.34325
				],
				[
					103.77004,
					1.34309
				],
				[
					103.77014,
					1.34298
				],
				[
					103.77018,
					1.34292
				],
				[
					103.77034,
					1.3427
				],
				[
					103.77035,
					1.34268
				],
				[
					103.7707,
					1.34218
				],
				[
					103.77097,
					1.34194
				]
			],
			"roadName": "THE HILLFORD"
		},
		{
			"BUS_SEQUENCE": 21,
			"START_BUS_STOP": "AFT CHUN TIN RD",
			"END_BUS_STOP": "OPP BLK 19",
			"START_BUS_STOP_NUM": "42179",
			"START_BUS_STOP_LATLNG": "1.3419783330034487, 103.77100805601951",
			"END_BUS_STOP_NUM": "42169",
			"END_BUS_STOP_LATLNG": "1.3403857568129676, 103.77366130505683",
			"DISTANCE": "9.6",
			"GEOMETRIES": [
				[
					103.77097,
					1.34194
				],
				[
					103.77131,
					1.34164
				],
				[
					103.77179,
					1.34116
				],
				[
					103.77187,
					1.34108
				],
				[
					103.77193,
					1.34102
				],
				[
					103.77216,
					1.34078
				],
				[
					103.77228,
					1.34068
				],
				[
					103.77234,
					1.34063
				],
				[
					103.77241,
					1.34059
				],
				[
					103.77271,
					1.34041
				],
				[
					103.77285,
					1.34038
				],
				[
					103.77355,
					1.3403
				],
				[
					103.77366,
					1.3403
				]
			],
			"roadName": "AFT CHUN TIN RD"
		},
		{
			"BUS_SEQUENCE": 22,
			"START_BUS_STOP": "OPP BLK 19",
			"END_BUS_STOP": "OPP BEAUTY WORLD STN",
			"START_BUS_STOP_NUM": "42169",
			"START_BUS_STOP_LATLNG": "1.3403857568129676, 103.77366130505683",
			"END_BUS_STOP_NUM": "42159",
			"END_BUS_STOP_LATLNG": "1.3403680532981213, 103.77530898996659",
			"DISTANCE": "10",
			"GEOMETRIES": [
				[
					103.77366,
					1.3403
				],
				[
					103.77366,
					1.3403
				],
				[
					103.7738,
					1.34029
				],
				[
					103.77394,
					1.34029
				],
				[
					103.77419,
					1.34028
				],
				[
					103.77428,
					1.34028
				],
				[
					103.77435,
					1.34027
				],
				[
					103.77457,
					1.34027
				],
				[
					103.77527,
					1.34025
				],
				[
					103.77531,
					1.34025
				]
			],
			"roadName": "OPP BLK 19"
		},
		{
			"BUS_SEQUENCE": 23,
			"START_BUS_STOP": "OPP BEAUTY WORLD STN",
			"END_BUS_STOP": "OPP PEI HWA PRESBY PR SCH",
			"START_BUS_STOP_NUM": "42159",
			"START_BUS_STOP_LATLNG": "1.3403680532981213, 103.77530898996659",
			"END_BUS_STOP_NUM": "42079",
			"END_BUS_STOP_LATLNG": "1.3392573794342537, 103.77699237947897",
			"DISTANCE": "10.2",
			"GEOMETRIES": [
				[
					103.77531,
					1.34025
				],
				[
					103.77532,
					1.34025
				],
				[
					103.77534,
					1.34025
				],
				[
					103.77559,
					1.34025
				],
				[
					103.77605,
					1.34027
				],
				[
					103.7762,
					1.34018
				],
				[
					103.77627,
					1.34006
				],
				[
					103.77639,
					1.33991
				],
				[
					103.77664,
					1.33958
				],
				[
					103.77691,
					1.3392
				]
			],
			"roadName": "OPP BEAUTY WORLD STN"
		},
		{
			"BUS_SEQUENCE": 24,
			"START_BUS_STOP": "OPP PEI HWA PRESBY PR SCH",
			"END_BUS_STOP": "BEAUTY WORLD STN EXIT C",
			"START_BUS_STOP_NUM": "42079",
			"START_BUS_STOP_LATLNG": "1.3392573794342537, 103.77699237947897",
			"END_BUS_STOP_NUM": "42151",
			"END_BUS_STOP_LATLNG": "1.340092549811707, 103.77531978477354",
			"DISTANCE": "10.5",
			"GEOMETRIES": [
				[
					103.77691,
					1.3392
				],
				[
					103.77735,
					1.33856
				],
				[
					103.77749,
					1.33838
				],
				[
					103.77761,
					1.33825
				],
				[
					103.77776,
					1.33812
				],
				[
					103.77794,
					1.33802
				],
				[
					103.77817,
					1.33792
				],
				[
					103.77839,
					1.33783
				],
				[
					103.77873,
					1.33769
				],
				[
					103.77902,
					1.3376
				],
				[
					103.77897,
					1.33747
				],
				[
					103.77874,
					1.33755
				],
				[
					103.77846,
					1.33759
				],
				[
					103.7781,
					1.33773
				],
				[
					103.77789,
					1.33786
				],
				[
					103.77758,
					1.33809
				],
				[
					103.77739,
					1.33829
				],
				[
					103.7773,
					1.33841
				],
				[
					103.77685,
					1.33902
				],
				[
					103.77662,
					1.33934
				],
				[
					103.77646,
					1.33957
				],
				[
					103.77636,
					1.33972
				],
				[
					103.77616,
					1.33985
				],
				[
					103.77584,
					1.34015
				],
				[
					103.77559,
					1.34025
				],
				[
					103.77532,
					1.34025
				]
			],
			"roadName": "OPP PEI HWA PRESBY PR SCH"
		},
		{
			"BUS_SEQUENCE": 25,
			"START_BUS_STOP": "BEAUTY WORLD STN EXIT C",
			"END_BUS_STOP": "BLK 18",
			"START_BUS_STOP_NUM": "42151",
			"START_BUS_STOP_LATLNG": "1.340092549811707, 103.77531978477354",
			"END_BUS_STOP_NUM": "42161",
			"END_BUS_STOP_LATLNG": "1.3402766921203528, 103.77264625507587",
			"DISTANCE": "11.6",
			"GEOMETRIES": [
				[
					103.77532,
					1.34025
				],
				[
					103.77531,
					1.34025
				],
				[
					103.77527,
					1.34025
				],
				[
					103.77457,
					1.34027
				],
				[
					103.77435,
					1.34027
				],
				[
					103.77428,
					1.34028
				],
				[
					103.77419,
					1.34028
				],
				[
					103.77394,
					1.34029
				],
				[
					103.7738,
					1.34029
				],
				[
					103.77366,
					1.3403
				],
				[
					103.77355,
					1.3403
				],
				[
					103.77285,
					1.34038
				],
				[
					103.77271,
					1.34041
				]
			],
			"roadName": "BEAUTY WORLD STN EXIT C"
		},
		{
			"BUS_SEQUENCE": 26,
			"START_BUS_STOP": "BLK 18",
			"END_BUS_STOP": "SIGNATURE PK CONDO",
			"START_BUS_STOP_NUM": "42161",
			"START_BUS_STOP_LATLNG": "1.3402766921203528, 103.77264625507587",
			"END_BUS_STOP_NUM": "42171",
			"END_BUS_STOP_LATLNG": "1.342618333021811, 103.77026361103133",
			"DISTANCE": "11.9",
			"GEOMETRIES": [
				[
					103.77271,
					1.34041
				],
				[
					103.77241,
					1.34059
				],
				[
					103.77234,
					1.34063
				],
				[
					103.77228,
					1.34068
				],
				[
					103.77216,
					1.34078
				],
				[
					103.77193,
					1.34102
				],
				[
					103.77187,
					1.34108
				],
				[
					103.77179,
					1.34116
				],
				[
					103.77131,
					1.34164
				],
				[
					103.77097,
					1.34194
				],
				[
					103.7707,
					1.34218
				],
				[
					103.77035,
					1.34268
				]
			],
			"roadName": "BLK 18"
		},
		{
			"BUS_SEQUENCE": 27,
			"START_BUS_STOP": "SIGNATURE PK CONDO",
			"END_BUS_STOP": "OPP THE HILLFORD",
			"START_BUS_STOP_NUM": "42171",
			"START_BUS_STOP_LATLNG": "1.342618333021811, 103.77026361103133",
			"END_BUS_STOP_NUM": "42181",
			"END_BUS_STOP_LATLNG": "1.3436280559856992, 103.76943333300858",
			"DISTANCE": "12.3",
			"GEOMETRIES": [
				[
					103.77035,
					1.34268
				],
				[
					103.77034,
					1.3427
				],
				[
					103.77018,
					1.34292
				],
				[
					103.77014,
					1.34298
				],
				[
					103.77004,
					1.34309
				],
				[
					103.76989,
					1.34325
				],
				[
					103.76952,
					1.3437
				]
			],
			"roadName": "SIGNATURE PK CONDO"
		},
		{
			"BUS_SEQUENCE": 28,
			"START_BUS_STOP": "OPP THE HILLFORD",
			"END_BUS_STOP": "BEF BT BATOK EAST AVE 6",
			"START_BUS_STOP_NUM": "42181",
			"START_BUS_STOP_LATLNG": "1.3436280559856992, 103.76943333300858",
			"END_BUS_STOP_NUM": "42191",
			"END_BUS_STOP_LATLNG": "1.3464294440263733, 103.76696388898719",
			"DISTANCE": "12.6",
			"GEOMETRIES": [
				[
					103.76952,
					1.3437
				],
				[
					103.76951,
					1.34371
				],
				[
					103.76935,
					1.34389
				],
				[
					103.76932,
					1.34394
				],
				[
					103.76918,
					1.3441
				],
				[
					103.76913,
					1.34416
				],
				[
					103.76909,
					1.34421
				],
				[
					103.76889,
					1.3445
				],
				[
					103.76858,
					1.3449
				],
				[
					103.76814,
					1.34537
				],
				[
					103.76753,
					1.346
				],
				[
					103.76751,
					1.34602
				],
				[
					103.76728,
					1.34626
				],
				[
					103.76704,
					1.3465
				]
			],
			"roadName": "OPP THE HILLFORD"
		},
		{
			"BUS_SEQUENCE": 29,
			"START_BUS_STOP": "BEF BT BATOK EAST AVE 6",
			"END_BUS_STOP": "PARK NATURA",
			"START_BUS_STOP_NUM": "42191",
			"START_BUS_STOP_LATLNG": "1.3464294440263733, 103.76696388898719",
			"END_BUS_STOP_NUM": "43201",
			"END_BUS_STOP_LATLNG": "1.3469449999820375, 103.76464638897036",
			"DISTANCE": "13",
			"GEOMETRIES": [
				[
					103.76704,
					1.3465
				],
				[
					103.76683,
					1.34672
				],
				[
					103.76663,
					1.34687
				],
				[
					103.76635,
					1.34706
				],
				[
					103.76614,
					1.34717
				],
				[
					103.76589,
					1.34725
				],
				[
					103.76527,
					1.34725
				],
				[
					103.76463,
					1.34708
				],
				[
					103.76461,
					1.34708
				]
			],
			"roadName": "BEF BT BATOK EAST AVE 6"
		},
		{
			"BUS_SEQUENCE": 30,
			"START_BUS_STOP": "PARK NATURA",
			"END_BUS_STOP": "BLK 288C",
			"START_BUS_STOP_NUM": "43201",
			"START_BUS_STOP_LATLNG": "1.3469449999820375, 103.76464638897036",
			"END_BUS_STOP_NUM": "43191",
			"END_BUS_STOP_LATLNG": "1.346384927904352, 103.75931336284917",
			"DISTANCE": "13.3",
			"GEOMETRIES": [
				[
					103.76461,
					1.34708
				],
				[
					103.76388,
					1.34686
				],
				[
					103.76371,
					1.34682
				],
				[
					103.76347,
					1.34675
				],
				[
					103.76279,
					1.34664
				],
				[
					103.76265,
					1.34664
				],
				[
					103.76244,
					1.34665
				],
				[
					103.76186,
					1.34665
				],
				[
					103.7613,
					1.34665
				],
				[
					103.76099,
					1.34664
				],
				[
					103.76087,
					1.34664
				],
				[
					103.76072,
					1.34664
				],
				[
					103.7605,
					1.34664
				],
				[
					103.7598,
					1.34665
				],
				[
					103.75928,
					1.34653
				]
			],
			"roadName": "PARK NATURA"
		},
		{
			"BUS_SEQUENCE": 31,
			"START_BUS_STOP": "BLK 288C",
			"END_BUS_STOP": "KEMING PR SCH",
			"START_BUS_STOP_NUM": "43191",
			"START_BUS_STOP_LATLNG": "1.346384927904352, 103.75931336284917",
			"END_BUS_STOP_NUM": "43181",
			"END_BUS_STOP_LATLNG": "1.3464894440117756, 103.75681722199708",
			"DISTANCE": "13.9",
			"GEOMETRIES": [
				[
					103.75928,
					1.34653
				],
				[
					103.75923,
					1.34652
				],
				[
					103.75921,
					1.34652
				],
				[
					103.7586,
					1.34625
				],
				[
					103.75823,
					1.346
				],
				[
					103.75799,
					1.3458
				],
				[
					103.75795,
					1.34577
				],
				[
					103.75774,
					1.34557
				],
				[
					103.75763,
					1.34546
				],
				[
					103.75754,
					1.3456
				],
				[
					103.75737,
					1.34588
				],
				[
					103.75731,
					1.34597
				],
				[
					103.75711,
					1.34626
				],
				[
					103.75691,
					1.34655
				]
			],
			"roadName": "BLK 288C"
		},
		{
			"BUS_SEQUENCE": 32,
			"START_BUS_STOP": "KEMING PR SCH",
			"END_BUS_STOP": "BLK 229",
			"START_BUS_STOP_NUM": "43181",
			"START_BUS_STOP_LATLNG": "1.3464894440117756, 103.75681722199708",
			"END_BUS_STOP_NUM": "43171",
			"END_BUS_STOP_LATLNG": "1.3485964447318295, 103.75460496382077",
			"DISTANCE": "14.3",
			"GEOMETRIES": [
				[
					103.75691,
					1.34655
				],
				[
					103.75685,
					1.34663
				],
				[
					103.75668,
					1.34691
				],
				[
					103.75662,
					1.34701
				],
				[
					103.75645,
					1.34725
				],
				[
					103.75634,
					1.34739
				],
				[
					103.75626,
					1.3475
				],
				[
					103.75617,
					1.34762
				],
				[
					103.75607,
					1.34773
				],
				[
					103.75603,
					1.34778
				],
				[
					103.75569,
					1.34809
				],
				[
					103.75534,
					1.34835
				],
				[
					103.7553,
					1.34837
				],
				[
					103.7551,
					1.34849
				],
				[
					103.7549,
					1.34859
				],
				[
					103.75463,
					1.34867
				]
			],
			"roadName": "KEMING PR SCH"
		},
		{
			"BUS_SEQUENCE": 33,
			"START_BUS_STOP": "BLK 229",
			"END_BUS_STOP": "BLK 503",
			"START_BUS_STOP_NUM": "43171",
			"START_BUS_STOP_LATLNG": "1.3485964447318295, 103.75460496382077",
			"END_BUS_STOP_NUM": "43421",
			"END_BUS_STOP_LATLNG": "1.3510927885086885, 103.75362047618978",
			"DISTANCE": "14.7",
			"GEOMETRIES": [
				[
					103.75463,
					1.34867
				],
				[
					103.75451,
					1.34871
				],
				[
					103.75424,
					1.34883
				],
				[
					103.75397,
					1.34895
				],
				[
					103.75349,
					1.34912
				],
				[
					103.75288,
					1.34946
				],
				[
					103.75276,
					1.34953
				],
				[
					103.75287,
					1.34971
				],
				[
					103.75347,
					1.35086
				],
				[
					103.75359,
					1.351
				],
				[
					103.75365,
					1.35105
				]
			],
			"roadName": "BLK 229"
		},
		{
			"BUS_SEQUENCE": 34,
			"START_BUS_STOP": "BLK 503",
			"END_BUS_STOP": "BLK 510",
			"START_BUS_STOP_NUM": "43421",
			"START_BUS_STOP_LATLNG": "1.3510927885086885, 103.75362047618978",
			"END_BUS_STOP_NUM": "43541",
			"END_BUS_STOP_LATLNG": "1.3528306793563443, 103.7550516656566",
			"DISTANCE": "15.1",
			"GEOMETRIES": [
				[
					103.75365,
					1.35105
				],
				[
					103.75372,
					1.35109
				],
				[
					103.75387,
					1.35115
				],
				[
					103.75394,
					1.35118
				],
				[
					103.75402,
					1.35119
				],
				[
					103.75464,
					1.35121
				],
				[
					103.75555,
					1.35124
				],
				[
					103.75552,
					1.35216
				],
				[
					103.75549,
					1.35234
				],
				[
					103.75542,
					1.35251
				],
				[
					103.75541,
					1.35251
				],
				[
					103.75535,
					1.35259
				],
				[
					103.75509,
					1.35287
				]
			],
			"roadName": "BLK 503"
		},
		{
			"BUS_SEQUENCE": 35,
			"START_BUS_STOP": "BLK 510",
			"END_BUS_STOP": "REN CI @ BT BATOK ST 52",
			"START_BUS_STOP_NUM": "43541",
			"START_BUS_STOP_LATLNG": "1.3528306793563443, 103.7550516656566",
			"END_BUS_STOP_NUM": "43801",
			"END_BUS_STOP_LATLNG": "1.3552079256982776, 103.75173377561003",
			"DISTANCE": "15.5",
			"GEOMETRIES": [
				[
					103.75509,
					1.35287
				],
				[
					103.75504,
					1.35292
				],
				[
					103.75496,
					1.35309
				],
				[
					103.75493,
					1.35323
				],
				[
					103.75429,
					1.3532
				],
				[
					103.75402,
					1.35318
				],
				[
					103.75389,
					1.35313
				],
				[
					103.7538,
					1.35305
				],
				[
					103.75357,
					1.3528
				],
				[
					103.75335,
					1.35257
				],
				[
					103.75325,
					1.35248
				],
				[
					103.75311,
					1.35242
				],
				[
					103.75296,
					1.35239
				],
				[
					103.75284,
					1.3524
				],
				[
					103.75265,
					1.35247
				],
				[
					103.75252,
					1.35258
				],
				[
					103.75237,
					1.35281
				],
				[
					103.75226,
					1.35298
				],
				[
					103.75187,
					1.35347
				],
				[
					103.75186,
					1.35369
				],
				[
					103.75183,
					1.35437
				],
				[
					103.75181,
					1.35462
				],
				[
					103.75179,
					1.35521
				]
			],
			"roadName": "BLK 510"
		},
		{
			"BUS_SEQUENCE": 36,
			"START_BUS_STOP": "REN CI @ BT BATOK ST 52",
			"END_BUS_STOP": "OPP BT GOMBAK STADIUM",
			"START_BUS_STOP_NUM": "43801",
			"START_BUS_STOP_LATLNG": "1.3552079256982776, 103.75173377561003",
			"END_BUS_STOP_NUM": "43561",
			"END_BUS_STOP_LATLNG": "1.3574516347902836, 103.75287425796094",
			"DISTANCE": "16.2",
			"GEOMETRIES": [
				[
					103.75179,
					1.35521
				],
				[
					103.75176,
					1.35575
				],
				[
					103.75175,
					1.35624
				],
				[
					103.7518,
					1.35637
				],
				[
					103.7519,
					1.35643
				],
				[
					103.75246,
					1.35646
				],
				[
					103.75253,
					1.35646
				],
				[
					103.7529,
					1.35648
				],
				[
					103.75293,
					1.35647
				],
				[
					103.75326,
					1.35636
				],
				[
					103.75334,
					1.35659
				],
				[
					103.75335,
					1.35673
				],
				[
					103.75334,
					1.35688
				],
				[
					103.7533,
					1.35702
				],
				[
					103.75319,
					1.35719
				],
				[
					103.75304,
					1.35734
				],
				[
					103.7529,
					1.35748
				]
			],
			"roadName": "REN CI @ BT BATOK ST 52"
		},
		{
			"BUS_SEQUENCE": 37,
			"START_BUS_STOP": "OPP BT GOMBAK STADIUM",
			"END_BUS_STOP": "BLK 531",
			"START_BUS_STOP_NUM": "43561",
			"START_BUS_STOP_LATLNG": "1.3574516347902836, 103.75287425796094",
			"END_BUS_STOP_NUM": "43609",
			"END_BUS_STOP_LATLNG": "1.3565356192714244, 103.74992425404375",
			"DISTANCE": "16.6",
			"GEOMETRIES": [
				[
					103.7529,
					1.35748
				],
				[
					103.75279,
					1.35758
				],
				[
					103.75262,
					1.35773
				],
				[
					103.75237,
					1.35786
				],
				[
					103.75146,
					1.3581
				],
				[
					103.75041,
					1.35696
				],
				[
					103.75022,
					1.35679
				],
				[
					103.74999,
					1.35665
				],
				[
					103.74989,
					1.35662
				]
			],
			"roadName": "OPP BT GOMBAK STADIUM"
		},
		{
			"BUS_SEQUENCE": 38,
			"START_BUS_STOP": "BLK 531",
			"END_BUS_STOP": "BLK 461C",
			"START_BUS_STOP_NUM": "43609",
			"START_BUS_STOP_LATLNG": "1.3565356192714244, 103.74992425404375",
			"END_BUS_STOP_NUM": "40351",
			"END_BUS_STOP_LATLNG": "1.3549965691781412, 103.74100218973972",
			"DISTANCE": "17",
			"GEOMETRIES": [
				[
					103.74989,
					1.35662
				],
				[
					103.74977,
					1.35657
				],
				[
					103.74963,
					1.35655
				],
				[
					103.74951,
					1.35654
				],
				[
					103.74913,
					1.35652
				],
				[
					103.74732,
					1.35644
				],
				[
					103.74582,
					1.35641
				],
				[
					103.74532,
					1.35649
				],
				[
					103.74494,
					1.35661
				],
				[
					103.74452,
					1.35683
				],
				[
					103.74409,
					1.35632
				],
				[
					103.744,
					1.35625
				],
				[
					103.74386,
					1.35612
				],
				[
					103.74361,
					1.35596
				],
				[
					103.74293,
					1.35566
				],
				[
					103.7428,
					1.3556
				],
				[
					103.7425,
					1.35538
				],
				[
					103.74172,
					1.35452
				],
				[
					103.74109,
					1.35509
				]
			],
			"roadName": "BLK 531"
		},
		{
			"BUS_SEQUENCE": 39,
			"START_BUS_STOP": "BLK 461C",
			"END_BUS_STOP": "BLK 111",
			"START_BUS_STOP_NUM": "40351",
			"START_BUS_STOP_LATLNG": "1.3549965691781412, 103.74100218973972",
			"END_BUS_STOP_NUM": "40381",
			"END_BUS_STOP_LATLNG": "1.3563005134923312, 103.73420900645114",
			"DISTANCE": "18.1",
			"GEOMETRIES": [
				[
					103.74109,
					1.35509
				],
				[
					103.74083,
					1.35532
				],
				[
					103.74006,
					1.35603
				],
				[
					103.7388,
					1.35718
				],
				[
					103.73802,
					1.3579
				],
				[
					103.73744,
					1.35729
				],
				[
					103.73719,
					1.35695
				],
				[
					103.73698,
					1.35658
				],
				[
					103.73674,
					1.356
				],
				[
					103.73669,
					1.35577
				],
				[
					103.7366,
					1.35538
				],
				[
					103.73658,
					1.35514
				],
				[
					103.73534,
					1.35527
				],
				[
					103.73504,
					1.3557
				],
				[
					103.73434,
					1.35638
				],
				[
					103.73431,
					1.35641
				]
			],
			"roadName": "BLK 461C"
		},
		{
			"BUS_SEQUENCE": 40,
			"START_BUS_STOP": "BLK 111",
			"END_BUS_STOP": "Blk 132B",
			"START_BUS_STOP_NUM": "40381",
			"START_BUS_STOP_LATLNG": "1.3563005134923312, 103.73420900645114",
			"END_BUS_STOP_NUM": "40409",
			"END_BUS_STOP_LATLNG": "1.3573535491495639, 103.73185886094763",
			"DISTANCE": "19.2",
			"GEOMETRIES": [
				[
					103.73431,
					1.35641
				],
				[
					103.73323,
					1.35746
				],
				[
					103.73246,
					1.35823
				],
				[
					103.73171,
					1.3575
				]
			],
			"roadName": "BLK 111"
		},
		{
			"BUS_SEQUENCE": 41,
			"START_BUS_STOP": "Blk 132B",
			"END_BUS_STOP": "Blk 242",
			"START_BUS_STOP_NUM": "40409",
			"START_BUS_STOP_LATLNG": "1.3573535491495639, 103.73185886094763",
			"END_BUS_STOP_NUM": "40429",
			"END_BUS_STOP_LATLNG": "1.3594003139414337, 103.72929729346133",
			"DISTANCE": "19.6",
			"GEOMETRIES": [
				[
					103.73133,
					1.35713
				],
				[
					103.73041,
					1.35624
				],
				[
					103.72846,
					1.35833
				],
				[
					103.7296,
					1.35947
				]
			],
			"roadName": "Blk 132B"
		},
		{
			"BUS_SEQUENCE": 42,
			"START_BUS_STOP": "Blk 242",
			"END_BUS_STOP": "Opposite Blk 236A",
			"START_BUS_STOP_NUM": "40429",
			"START_BUS_STOP_LATLNG": "1.3594003139414337, 103.72929729346133",
			"END_BUS_STOP_NUM": "40439",
			"END_BUS_STOP_LATLNG": "1.3611030536252209, 103.73099635148706",
			"DISTANCE": "20.3",
			"GEOMETRIES": [
				[
					103.7296,
					1.35947
				],
				[
					103.72978,
					1.35964
				],
				[
					103.73056,
					1.36042
				],
				[
					103.73145,
					1.36137
				],
				[
					103.73151,
					1.36149
				]
			],
			"roadName": "Blk 242"
		},
		{
			"BUS_SEQUENCE": 43,
			"START_BUS_STOP": "Opposite Blk 236A",
			"END_BUS_STOP": "Blk 324B",
			"START_BUS_STOP_NUM": "40439",
			"START_BUS_STOP_LATLNG": "1.3611030536252209, 103.73099635148706",
			"END_BUS_STOP_NUM": "40449",
			"END_BUS_STOP_LATLNG": "1.362203569216484, 103.73349643077702",
			"DISTANCE": "20.6",
			"GEOMETRIES": [
				[
					103.73151,
					1.36149
				],
				[
					103.7319,
					1.3622
				],
				[
					103.73233,
					1.36233
				],
				[
					103.73296,
					1.36224
				],
				[
					103.73341,
					1.36208
				],
				[
					103.73341,
					1.36208
				],
				[
					103.73356,
					1.36198
				]
			],
			"roadName": "Opposite Blk 236A"
		},
		{
			"BUS_SEQUENCE": 44,
			"START_BUS_STOP": "Blk 324B",
			"END_BUS_STOP": "Tengah Int",
			"START_BUS_STOP_NUM": "40449",
			"START_BUS_STOP_LATLNG": "1.362203569216484, 103.73349643077702",
			"END_BUS_STOP_NUM": "41009",
			"END_BUS_STOP_LATLNG": "1.3626639913996283, 103.73563911642279",
			"DISTANCE": "21",
			"GEOMETRIES": [
				[
					103.73356,
					1.36198
				],
				[
					103.73393,
					1.36172
				],
				[
					103.73488,
					1.36075
				],
				[
					103.73635,
					1.36225
				],
				[
					103.73586,
					1.36271
				],
				[
					103.73577,
					1.3628
				]
			],
			"roadName": "Blk 324B"
		}
	],
	"BUS_DIRECTION_TWO": null
}