{
	"BUS_DIRECTION_ONE": [
		{
			"BUS_SEQUENCE": 1,
			"START_BUS_STOP": "CLEMENTI INT",
			"END_BUS_STOP": "NTUC FAIRPRICE",
			"START_BUS_STOP_NUM": "17009",
			"START_BUS_STOP_LATLNG": "1.3149157287062903, 103.76412225438477",
			"END_BUS_STOP_NUM": "17239",
			"END_BUS_STOP_LATLNG": "1.3124375948772897, 103.76584889459802",
			"DISTANCE": "0",
			"GEOMETRIES": "iu_GijixRGv@hBAdA@DAD?N?ZGTKJEDCDAPSDE@A??LM??@?RSHKXW@CBA`@a@bCeC@C@C@I?EAECKo@o@WU_A_A"
		},
		{
			"BUS_SEQUENCE": 2,
			"START_BUS_STOP": "NTUC FAIRPRICE",
			"END_BUS_STOP": "BLK 365",
			"START_BUS_STOP_NUM": "17239",
			"START_BUS_STOP_LATLNG": "1.3124375948772897, 103.76584889459802",
			"END_BUS_STOP_NUM": "17159",
			"END_BUS_STOP_LATLNG": "1.3119747991226098, 103.7698155512791",
			"DISTANCE": "0.6",
			"GEOMETRIES": "uh_GswixR??]_@i@g@SUQQQO`@i@??@?\\e@BEBC@A????v@_BHWJ[@A@C@G@C???A@???BI?C@C??BMH_@DSJi@Fm@B[?c@?u@?[Ak@???M?A????AC?A"
		},
		{
			"BUS_SEQUENCE": 3,
			"START_BUS_STOP": "BLK 365",
			"END_BUS_STOP": "UTown - Cendana",
			"START_BUS_STOP_NUM": "17159",
			"START_BUS_STOP_LATLNG": "1.3119747991226098, 103.7698155512791",
			"END_BUS_STOP_NUM": "17099",
			"END_BUS_STOP_LATLNG": "1.3078304704809023, 103.7716527444556",
			"DISTANCE": "1.1",
			"GEOMETRIES": "cf_GwojxR?CC[G_AQgDCc@GqAAg@Cs@?G?G????AE?ENA@?D?N?LAX?f@D\\B~APrAT??|@L\\@J@J@V@ZDD???B@F?B@D?^D`AN@?pBZVBr@H@@??"
		},
		{
			"BUS_SEQUENCE": 4,
			"START_BUS_STOP": "UTown - Cendana",
			"END_BUS_STOP": "COLL OF DESIGN & ENGRG",
			"START_BUS_STOP_NUM": "17099",
			"START_BUS_STOP_LATLNG": "1.3078304704809023, 103.7716527444556",
			"END_BUS_STOP_NUM": "16159",
			"END_BUS_STOP_LATLNG": "1.3006033338565126, 103.7701703267985",
			"DISTANCE": "1.8",
			"GEOMETRIES": "cn~F}zjxR??@?RBdALxAPp@DrALrADdA@n@?f@?dAAvB?f@?nA?rBRj@LTDPDTFb@LLDRF|@ZTJPHRHFBFB@@`@LRHlBr@DB"
		},
		{
			"BUS_SEQUENCE": 5,
			"START_BUS_STOP": "COLL OF DESIGN & ENGRG",
			"END_BUS_STOP": "SDE3",
			"START_BUS_STOP_NUM": "16159",
			"START_BUS_STOP_LATLNG": "1.3006033338565126, 103.7701703267985",
			"END_BUS_STOP_NUM": "16149",
			"END_BUS_STOP_LATLNG": "1.2978183340264609, 103.7699402700314",
			"DISTANCE": "2.6",
			"GEOMETRIES": "e`}FwqjxRB@@?@?BB@?B@l@P`@FvBF^@\\?`E@tAF@@B?"
		},
		{
			"BUS_SEQUENCE": 6,
			"START_BUS_STOP": "SDE3",
			"END_BUS_STOP": "AFT ARCHITECTURE DR",
			"START_BUS_STOP_NUM": "16149",
			"START_BUS_STOP_LATLNG": "1.2978183340264609, 103.7699402700314",
			"END_BUS_STOP_NUM": "16199",
			"END_BUS_STOP_LATLNG": "1.2963930358342368, 103.77072917887466",
			"DISTANCE": "2.9",
			"GEOMETRIES": "on|F_pjxR@?@?|CN`ADd@@RMPITUBOBGOaAAEIe@Ce@"
		},
		{
			"BUS_SEQUENCE": 7,
			"START_BUS_STOP": "AFT ARCHITECTURE DR",
			"END_BUS_STOP": "INFORMATION TECHNOLOGY",
			"START_BUS_STOP_NUM": "16199",
			"START_BUS_STOP_LATLNG": "1.2963930358342368, 103.77072917887466",
			"END_BUS_STOP_NUM": "16189",
			"END_BUS_STOP_LATLNG": "1.2973610000182745, 103.77284799997703",
			"DISTANCE": "3.2",
			"GEOMETRIES": "ae|FavjxR?CAUAM@MDoBEcAOu@]o@GEe@e@[Qk@Ug@O"
		},
		{
			"BUS_SEQUENCE": 8,
			"START_BUS_STOP": "INFORMATION TECHNOLOGY",
			"END_BUS_STOP": "OPP YUSOF ISHAK HSE",
			"START_BUS_STOP_NUM": "16189",
			"START_BUS_STOP_LATLNG": "1.2973610000182745, 103.77284799997703",
			"END_BUS_STOP_NUM": "16179",
			"END_BUS_STOP_LATLNG": "1.2989816422709946, 103.77417732725281",
			"DISTANCE": "3.4",
			"GEOMETRIES": "ok|FuckxR??CAQE}@U]UUY{@{Ai@k@k@c@_@S"
		},
		{
			"BUS_SEQUENCE": 9,
			"START_BUS_STOP": "OPP YUSOF ISHAK HSE",
			"END_BUS_STOP": "NUS RAFFLES HALL",
			"START_BUS_STOP_NUM": "16179",
			"START_BUS_STOP_LATLNG": "1.2989816422709946, 103.77417732725281",
			"END_BUS_STOP_NUM": "16169",
			"END_BUS_STOP_LATLNG": "1.3009833329799187, 103.77270416701658",
			"DISTANCE": "3.7",
			"GEOMETRIES": "iu|FclkxRIEAA{@W[C[ESSY@_@?A@e@Fi@Vy@t@s@xAELQp@C\\AL?N@dA??"
		},
		{
			"BUS_SEQUENCE": 10,
			"START_BUS_STOP": "NUS RAFFLES HALL",
			"END_BUS_STOP": "AFT CLEMENTI AVE 1",
			"START_BUS_STOP_NUM": "16169",
			"START_BUS_STOP_LATLNG": "1.3009833329799187, 103.77270416701658",
			"END_BUS_STOP_NUM": "17091",
			"END_BUS_STOP_LATLNG": "1.309048051614258, 103.77157783850735",
			"DISTANCE": "4.1",
			"GEOMETRIES": "sb}FkbkxR@z@?v@@RKx@GRCLENQn@[pAITKZ?@??CH?@CFGCSIQIUK}@[SGMEc@MUGQEUEk@MsBSoA?g@?wB?eA@g@?o@?eAAsAEsAMq@EyAQeAMSCA???AAs@IWCqB[A?"
		},
		{
			"BUS_SEQUENCE": 11,
			"START_BUS_STOP": "AFT CLEMENTI AVE 1",
			"END_BUS_STOP": "BLK 410",
			"START_BUS_STOP_NUM": "17091",
			"START_BUS_STOP_LATLNG": "1.309048051614258, 103.77157783850735",
			"END_BUS_STOP_NUM": "17151",
			"END_BUS_STOP_LATLNG": "1.3116951935352212, 103.76960993525368",
			"DISTANCE": "5.2",
			"GEOMETRIES": "et~Fi|jxRaAO_@EE?CAG?CA??E?[EWAKAKA]A}@M??sAU_BQWBA@o@HMDOLMNIRABKd@FpABb@PfDF~@BZ?B?@@B?????@?L"
		},
		{
			"BUS_SEQUENCE": 12,
			"START_BUS_STOP": "BLK 410",
			"END_BUS_STOP": "BLK 455",
			"START_BUS_STOP_NUM": "17151",
			"START_BUS_STOP_LATLNG": "1.3116951935352212, 103.76960993525368",
			"END_BUS_STOP_NUM": "17161",
			"END_BUS_STOP_LATLNG": "1.3124099360360528, 103.76685476875126",
			"DISTANCE": "5.8",
			"GEOMETRIES": "af_GaojxR??@j@?Z?t@?b@CZGl@Kh@ERI^CL??AB?BCH??A??@??ABAFABA@KZIVw@~A????"
		},
		{
			"BUS_SEQUENCE": 13,
			"START_BUS_STOP": "BLK 455",
			"END_BUS_STOP": "Clementi Stn Exit A/Mall",
			"START_BUS_STOP_NUM": "17161",
			"START_BUS_STOP_LATLNG": "1.3124099360360528, 103.76685476875126",
			"END_BUS_STOP_NUM": "17171",
			"END_BUS_STOP_LATLNG": "1.3153338869524653, 103.76486111466619",
			"DISTANCE": "6.1",
			"GEOMETRIES": "ij_Go~ixRA@CBCD]d@A???a@h@MLMLCBCBSPy@j@mAn@aA^uAd@uAb@"
		},
		{
			"BUS_SEQUENCE": 14,
			"START_BUS_STOP": "Clementi Stn Exit A/Mall",
			"END_BUS_STOP": "CLEMENTI INT",
			"START_BUS_STOP_NUM": "17171",
			"START_BUS_STOP_LATLNG": "1.3153338869524653, 103.76486111466619",
			"END_BUS_STOP_NUM": "17009",
			"END_BUS_STOP_LATLNG": "1.3149157287062903, 103.76412225438477",
			"DISTANCE": "6.5",
			"GEOMETRIES": "cz_GwsixR[LiA\\c@L}@^pAjBnAu@"
		}
	]
}