{
	"BUS_DIRECTION_ONE": [
		{
			"BUS_SEQUENCE": 1,
			"START_BUS_STOP": "CLEMENTI INT",
			"END_BUS_STOP": "NTUC FAIRPRICE",
			"START_BUS_STOP_NUM": "17009",
			"START_BUS_STOP_LATLNG": "1.31491572870629, 103.764122254385",
			"END_BUS_STOP_NUM": "17239",
			"END_BUS_STOP_LATLNG": "1.31243759487729, 103.765848894598",
			"DISTANCE": "0",
			"GEOMETRIES": "iu_GijixRGv@hBAdA@DAD?N?ZGTKJEDCDAPSDE@A??LM??@?RSHKXW@CBA`@a@bCeC@C@C@I?EAECKo@o@WU_A_A"
		},
		{
			"BUS_SEQUENCE": 2,
			"START_BUS_STOP": "NTUC FAIRPRICE",
			"END_BUS_STOP": "BLK 365",
			"START_BUS_STOP_NUM": "17239",
			"START_BUS_STOP_LATLNG": "1.31243759487729, 103.765848894598",
			"END_BUS_STOP_NUM": "17159",
			"END_BUS_STOP_LATLNG": "1.31197479912261, 103.769815551279",
			"DISTANCE": "0.6",
			"GEOMETRIES": "uh_GswixR??]_@i@g@SUQQQO`@i@??@?\\e@BEBC@A????v@_BHWJ[@A@C@G@C???A@???BI?C@C??BMH_@DSJi@Fm@B[?c@?u@?[Ak@???M?A????AC?A"
		},
		{
			"BUS_SEQUENCE": 3,
			"START_BUS_STOP": "BLK 365",
			"END_BUS_STOP": "YALE-NUS COLLEGE",
			"START_BUS_STOP_NUM": "17159",
			"START_BUS_STOP_LATLNG": "1.31197479912261, 103.769815551279",
			"END_BUS_STOP_NUM": "17099",
			"END_BUS_STOP_LATLNG": "1.3078304704809, 103.771652744456",
			"DISTANCE": "1.1",
			"GEOMETRIES": "cf_GwojxR?CC[G_AQgDCc@GqAAg@Cs@?G?G????AE?ENA@?D?N?LAX?f@D\\B~APrAT??|@L\\@J@J@V@ZDD???B@F?B@D?^D`AN@?pBZVBr@H@@??"
		},
		{
			"BUS_SEQUENCE": 4,
			"START_BUS_STOP": "YALE-NUS COLLEGE",
			"END_BUS_STOP": "COLL OF DESIGN & ENGRG",
			"START_BUS_STOP_NUM": "17099",
			"START_BUS_STOP_LATLNG": "1.3078304704809, 103.771652744456",
			"END_BUS_STOP_NUM": "16159",
			"END_BUS_STOP_LATLNG": "1.30060333385651, 103.770170326799",
			"DISTANCE": "1.8",
			"GEOMETRIES": "cn~F}zjxR??@?RBdALxAPp@DrALrADdA@n@?f@?dAAvB?f@?nA?rBRj@LTDPDTFb@LLDRF|@ZTJPHRHFBFB@@`@LRHlBr@DB"
		},
		{
			"BUS_SEQUENCE": 5,
			"START_BUS_STOP": "COLL OF DESIGN & ENGRG",
			"END_BUS_STOP": "SDE3",
			"START_BUS_STOP_NUM": "16159",
			"START_BUS_STOP_LATLNG": "1.30060333385651, 103.770170326799",
			"END_BUS_STOP_NUM": "16149",
			"END_BUS_STOP_LATLNG": "1.29781833402646, 103.769940270031",
			"DISTANCE": "2.6",
			"GEOMETRIES": "e`}FwqjxRB@@?@?BB@?B@l@P`@FvBF^@\\?`E@tAF@@B?"
		},
		{
			"BUS_SEQUENCE": 6,
			"START_BUS_STOP": "SDE3",
			"END_BUS_STOP": "BEF ARCHITECTURE DR",
			"START_BUS_STOP_NUM": "16149",
			"START_BUS_STOP_LATLNG": "1.29781833402646, 103.769940270031",
			"END_BUS_STOP_NUM": "16199",
			"END_BUS_STOP_LATLNG": "1.29639303583424, 103.770729178875",
			"DISTANCE": "2.9",
			"GEOMETRIES": "on|F_pjxR@?@?|CN`ADd@@RMPITUBOBGOaAAEIe@Ce@"
		},
		{
			"BUS_SEQUENCE": 7,
			"START_BUS_STOP": "BEF ARCHITECTURE DR",
			"END_BUS_STOP": "INFORMATION TECHNOLOGY",
			"START_BUS_STOP_NUM": "16199",
			"START_BUS_STOP_LATLNG": "1.29639303583424, 103.770729178875",
			"END_BUS_STOP_NUM": "16189",
			"END_BUS_STOP_LATLNG": "1.29736100001828, 103.772847999977",
			"DISTANCE": "3.2",
			"GEOMETRIES": "ae|FavjxR?CAUAM@MDoBEcAOu@]o@GEe@e@[Qk@Ug@O"
		},
		{
			"BUS_SEQUENCE": 8,
			"START_BUS_STOP": "INFORMATION TECHNOLOGY",
			"END_BUS_STOP": "OPP YUSOF ISHAK HSE",
			"START_BUS_STOP_NUM": "16189",
			"START_BUS_STOP_LATLNG": "1.29736100001828, 103.772847999977",
			"END_BUS_STOP_NUM": "16179",
			"END_BUS_STOP_LATLNG": "1.298981642271, 103.774177327253",
			"DISTANCE": "3.4",
			"GEOMETRIES": "ok|FuckxR??CAQE}@U]UUY{@{Ai@k@k@c@_@S"
		},
		{
			"BUS_SEQUENCE": 9,
			"START_BUS_STOP": "OPP YUSOF ISHAK HSE",
			"END_BUS_STOP": "NUS RAFFLES HALL",
			"START_BUS_STOP_NUM": "16179",
			"START_BUS_STOP_LATLNG": "1.298981642271, 103.774177327253",
			"END_BUS_STOP_NUM": "16169",
			"END_BUS_STOP_LATLNG": "1.30098333297992, 103.772704167017",
			"DISTANCE": "3.7",
			"GEOMETRIES": "iu|FclkxRIEAA{@W[C[ESSY@_@?A@e@Fi@Vy@t@s@xAELQp@C\\AL?N@dA??"
		},
		{
			"BUS_SEQUENCE": 10,
			"START_BUS_STOP": "NUS RAFFLES HALL",
			"END_BUS_STOP": "AFT CLEMENTI AVE 1",
			"START_BUS_STOP_NUM": "16169",
			"START_BUS_STOP_LATLNG": "1.30098333297992, 103.772704167017",
			"END_BUS_STOP_NUM": "17091",
			"END_BUS_STOP_LATLNG": "1.30904805161426, 103.771577838507",
			"DISTANCE": "4.1",
			"GEOMETRIES": "sb}FkbkxR@z@?v@@RKx@GRCLENQn@[pAITKZ?@??CH?@CFGCSIQIUK}@[SGMEc@MUGQEUEk@MsBSoA?g@?wB?eA@g@?o@?eAAsAEsAMq@EyAQeAMSCA???AAs@IWCqB[A?"
		},
		{
			"BUS_SEQUENCE": 11,
			"START_BUS_STOP": "AFT CLEMENTI AVE 1",
			"END_BUS_STOP": "BLK 410",
			"START_BUS_STOP_NUM": "17091",
			"START_BUS_STOP_LATLNG": "1.30904805161426, 103.771577838507",
			"END_BUS_STOP_NUM": "17151",
			"END_BUS_STOP_LATLNG": "1.31169519353522, 103.769609935254",
			"DISTANCE": "5.2",
			"GEOMETRIES": "et~Fi|jxRaAO_@EE?CAG?CA??E?[EWAKAKA]A}@M??sAU_BQWBA@o@HMDOLMNIRABKd@FpABb@PfDF~@BZ?B?@@B?????@?L"
		},
		{
			"BUS_SEQUENCE": 12,
			"START_BUS_STOP": "BLK 410",
			"END_BUS_STOP": "BLK 455",
			"START_BUS_STOP_NUM": "17151",
			"START_BUS_STOP_LATLNG": "1.31169519353522, 103.769609935254",
			"END_BUS_STOP_NUM": "17161",
			"END_BUS_STOP_LATLNG": "1.31240993603605, 103.766854768751",
			"DISTANCE": "5.8",
			"GEOMETRIES": "af_GaojxR??@j@?Z?t@?b@CZGl@Kh@ERI^CL??AB?BCH??A??@??ABAFABA@KZIVw@~A????"
		},
		{
			"BUS_SEQUENCE": 13,
			"START_BUS_STOP": "BLK 455",
			"END_BUS_STOP": "CLEMENTI STN EXIT A",
			"START_BUS_STOP_NUM": "17161",
			"START_BUS_STOP_LATLNG": "1.31240993603605, 103.766854768751",
			"END_BUS_STOP_NUM": "17171",
			"END_BUS_STOP_LATLNG": "1.31497399268611, 103.765026982644",
			"DISTANCE": "6.1",
			"GEOMETRIES": "ij_Go~ixRA@CBCD]d@A???a@h@MLMLCBCBSPy@j@mAn@aA^uAd@uAb@"
		},
		{
			"BUS_SEQUENCE": 14,
			"START_BUS_STOP": "CLEMENTI STN EXIT A",
			"END_BUS_STOP": "CLEMENTI INT",
			"START_BUS_STOP_NUM": "17171",
			"START_BUS_STOP_LATLNG": "1.31497399268611, 103.765026982644",
			"END_BUS_STOP_NUM": "17009",
			"END_BUS_STOP_LATLNG": "1.31491572870629, 103.764122254385",
			"DISTANCE": "6.5",
			"GEOMETRIES": "cz_GwsixR[LiA\\c@L}@^pAjBnAu@"
		}
	]
}