{
	"BUS_DIRECTION_ONE": [
		{
			"BUS_SEQUENCE": 1,
			"START_BUS_STOP": "WOODLANDS TEMP INT",
			"END_BUS_STOP": "W'LANDS STN EXIT 5",
			"START_BUS_STOP_NUM": "46009",
			"START_BUS_STOP_LATLNG": "1.43762790090815, 103.78649999639",
			"END_BUS_STOP_NUM": "46631",
			"END_BUS_STOP_LATLNG": "1.43689297551872, 103.789152642917",
			"DISTANCE": "10",
			"GEOMETRIES": "mywGusmxRw@TgAwD@m@Va@rC{@cAuDGU[eBG[\\Il@KTC|@AfABB@H@"
		},
		{
			"BUS_SEQUENCE": 2,
			"START_BUS_STOP": "W'LANDS STN EXIT 5",
			"END_BUS_STOP": "BLK 894C",
			"START_BUS_STOP_NUM": "46631",
			"START_BUS_STOP_LATLNG": "1.43689297551872, 103.789152642917",
			"END_BUS_STOP_NUM": "46641",
			"END_BUS_STOP_LATLNG": "1.43537882843176, 103.790026593695",
			"DISTANCE": "0.6",
			"GEOMETRIES": "yswGehnxRlG~@v@KRIJQPu@Y{AKyA"
		},
		{
			"BUS_SEQUENCE": 3,
			"START_BUS_STOP": "BLK 894C",
			"END_BUS_STOP": "OPP BLK 521",
			"START_BUS_STOP_NUM": "46641",
			"START_BUS_STOP_LATLNG": "1.43537882843176, 103.790026593695",
			"END_BUS_STOP_NUM": "47581",
			"END_BUS_STOP_LATLNG": "1.43464494959345, 103.793526745369",
			"DISTANCE": "0.9",
			"GEOMETRIES": "giwGynnxRAGAEAy@Am@?c@@g@@QLsBh@uCJ_@XaA??\\y@Xo@"
		},
		{
			"BUS_SEQUENCE": 4,
			"START_BUS_STOP": "OPP BLK 521",
			"END_BUS_STOP": "BLK 618",
			"START_BUS_STOP_NUM": "47581",
			"START_BUS_STOP_LATLNG": "1.43464494959345, 103.793526745369",
			"END_BUS_STOP_NUM": "47571",
			"END_BUS_STOP_LATLNG": "1.43349024051919, 103.796397155856",
			"DISTANCE": "1.3",
			"GEOMETRIES": "udwGcdoxR~AyD\\gAL_@Ja@Po@h@iCLs@@E@M"
		},
		{
			"BUS_SEQUENCE": 5,
			"START_BUS_STOP": "BLK 618",
			"END_BUS_STOP": "BLK 620",
			"START_BUS_STOP_NUM": "47571",
			"START_BUS_STOP_LATLNG": "1.43349024051919, 103.796397155856",
			"END_BUS_STOP_NUM": "47561",
			"END_BUS_STOP_LATLNG": "1.43320820124698, 103.798851636269",
			"DISTANCE": "1.7",
			"GEOMETRIES": "o}vGivoxR`@qDRyD@qB?C?M"
		},
		{
			"BUS_SEQUENCE": 6,
			"START_BUS_STOP": "BLK 620",
			"END_BUS_STOP": "BLK 630",
			"START_BUS_STOP_NUM": "47561",
			"START_BUS_STOP_LATLNG": "1.43320820124698, 103.798851636269",
			"END_BUS_STOP_NUM": "47551",
			"END_BUS_STOP_LATLNG": "1.43472623786722, 103.801887552333",
			"DISTANCE": "2",
			"GEOMETRIES": "w{vGyepxR@}AA_J]u@IMIIo@Su@AOAOCYG[IYKAAQIQKMKAA"
		},
		{
			"BUS_SEQUENCE": 7,
			"START_BUS_STOP": "BLK 630",
			"END_BUS_STOP": "BLK 639",
			"START_BUS_STOP_NUM": "47551",
			"START_BUS_STOP_LATLNG": "1.43472623786722, 103.801887552333",
			"END_BUS_STOP_NUM": "47541",
			"END_BUS_STOP_LATLNG": "1.43789201937501, 103.803341628302",
			"DISTANCE": "2.4",
			"GEOMETRIES": "uewGeypxRAAqAaA}DcDWSIIWQ]Q]MOEYG_@CSAS?U?SBS@WF]HQFKD"
		},
		{
			"BUS_SEQUENCE": 8,
			"START_BUS_STOP": "BLK 639",
			"END_BUS_STOP": "BEF ADMIRALTY STN/BLK 680",
			"START_BUS_STOP_NUM": "47541",
			"START_BUS_STOP_LATLNG": "1.43789201937501, 103.803341628302",
			"END_BUS_STOP_NUM": "47591",
			"END_BUS_STOP_LATLNG": "1.43964354846218, 103.802589017486",
			"DISTANCE": "2.9",
			"GEOMETRIES": "azwGkbqxRKBc@NaCz@_ErA"
		},
		{
			"BUS_SEQUENCE": 9,
			"START_BUS_STOP": "BEF ADMIRALTY STN/BLK 680",
			"END_BUS_STOP": "BLK 793",
			"START_BUS_STOP_NUM": "47591",
			"START_BUS_STOP_LATLNG": "1.43964354846218, 103.802589017486",
			"END_BUS_STOP_NUM": "47601",
			"END_BUS_STOP_LATLNG": "1.44211880036977, 103.803049119764",
			"DISTANCE": "3.1",
			"GEOMETRIES": "sexGg}pxRUHQFmBn@wBr@_AXGSWw@eA{CEM"
		},
		{
			"BUS_SEQUENCE": 10,
			"START_BUS_STOP": "BLK 793",
			"END_BUS_STOP": "WOODSVALE CONDO",
			"START_BUS_STOP_NUM": "47601",
			"START_BUS_STOP_LATLNG": "1.44211880036977, 103.803049119764",
			"END_BUS_STOP_NUM": "47611",
			"END_BUS_STOP_LATLNG": "1.44388706173517, 103.806222843898",
			"DISTANCE": "3.5",
			"GEOMETRIES": "msxGm`qxRCIKWe@kBmAeDKYKU{@kBeBkCWYMM"
		},
		{
			"BUS_SEQUENCE": 11,
			"START_BUS_STOP": "WOODSVALE CONDO",
			"END_BUS_STOP": "AFT GAMBAS AVE",
			"START_BUS_STOP_NUM": "47611",
			"START_BUS_STOP_LATLNG": "1.44388706173517, 103.806222843898",
			"END_BUS_STOP_NUM": "47621",
			"END_BUS_STOP_LATLNG": "1.44689218119453, 103.809827700587",
			"DISTANCE": "3.9",
			"GEOMETRIES": "q~xGqtqxR??u@}@mAkAuCwCeAaAYWQUy@eAg@w@c@u@e@y@]y@EK"
		},
		{
			"BUS_SEQUENCE": 12,
			"START_BUS_STOP": "AFT GAMBAS AVE",
			"END_BUS_STOP": "BLK 469B",
			"START_BUS_STOP_NUM": "47621",
			"START_BUS_STOP_LATLNG": "1.44689218119453, 103.809827700587",
			"END_BUS_STOP_NUM": "58381",
			"END_BUS_STOP_LATLNG": "1.44797049342873, 103.813377873525",
			"DISTANCE": "4.4",
			"GEOMETRIES": "mqyGwjrxREKKSOe@KYUo@w@_ESgAI_@OiAk@}D"
		},
		{
			"BUS_SEQUENCE": 13,
			"START_BUS_STOP": "BLK 469B",
			"END_BUS_STOP": "BLK 335",
			"START_BUS_STOP_NUM": "58381",
			"START_BUS_STOP_LATLNG": "1.44797049342873, 103.813377873525",
			"END_BUS_STOP_NUM": "58271",
			"END_BUS_STOP_LATLNG": "1.44702783502401, 103.814706541833",
			"DISTANCE": "4.8",
			"GEOMETRIES": "cxyGw`sxRAOCIc@gDES\\?hD]NC"
		},
		{
			"BUS_SEQUENCE": 14,
			"START_BUS_STOP": "BLK 335",
			"END_BUS_STOP": "SEMBAWANG SEC SCH",
			"START_BUS_STOP_NUM": "58271",
			"START_BUS_STOP_LATLNG": "1.44702783502401, 103.814706541833",
			"END_BUS_STOP_NUM": "58281",
			"END_BUS_STOP_LATLNG": "1.4450136750226, 103.816266613386",
			"DISTANCE": "5",
			"GEOMETRIES": "{ryGohsxRx@IfBQFAn@Ox@a@f@i@NU\\_AHUf@wA?A"
		},
		{
			"BUS_SEQUENCE": 15,
			"START_BUS_STOP": "SEMBAWANG SEC SCH",
			"END_BUS_STOP": "BET BLKS 325/326",
			"START_BUS_STOP_NUM": "58281",
			"START_BUS_STOP_LATLNG": "1.4450136750226, 103.816266613386",
			"END_BUS_STOP_NUM": "58371",
			"END_BUS_STOP_LATLNG": "1.44449009584233, 103.819089531901",
			"DISTANCE": "5.3",
			"GEOMETRIES": "_fyGorsxRDKh@{APe@z@_CPi@No@B_@Ag@Ge@a@mAK["
		},
		{
			"BUS_SEQUENCE": 16,
			"START_BUS_STOP": "BET BLKS 325/326",
			"END_BUS_STOP": "BLK 328",
			"START_BUS_STOP_NUM": "58371",
			"START_BUS_STOP_LATLNG": "1.44449009584233, 103.819089531901",
			"END_BUS_STOP_NUM": "58299",
			"END_BUS_STOP_LATLNG": "1.44582915331137, 103.819684633829",
			"DISTANCE": "5.7",
			"GEOMETRIES": "sbyGodtxR]eA}@sCcDfAI@WJ"
		},
		{
			"BUS_SEQUENCE": 17,
			"START_BUS_STOP": "BLK 328",
			"END_BUS_STOP": "OPP SUN PLAZA",
			"START_BUS_STOP_NUM": "58299",
			"START_BUS_STOP_LATLNG": "1.44582915331137, 103.819684633829",
			"END_BUS_STOP_NUM": "58259",
			"END_BUS_STOP_LATLNG": "1.44777267175187, 103.81895151566",
			"DISTANCE": "6",
			"GEOMETRIES": "ukyGshtxRgCx@}Ad@aBf@m@RIB"
		},
		{
			"BUS_SEQUENCE": 18,
			"START_BUS_STOP": "OPP SUN PLAZA",
			"END_BUS_STOP": "BLK 357C",
			"START_BUS_STOP_NUM": "58259",
			"START_BUS_STOP_LATLNG": "1.44777267175187, 103.81895151566",
			"END_BUS_STOP_NUM": "58319",
			"END_BUS_STOP_LATLNG": "1.44976933938251, 103.81802192152",
			"DISTANCE": "6.2",
			"GEOMETRIES": "uwyGsctxRIDSFk@Pk@PeA^{@XkA^oA`@"
		},
		{
			"BUS_SEQUENCE": 19,
			"START_BUS_STOP": "BLK 357C",
			"END_BUS_STOP": "BLK 478",
			"START_BUS_STOP_NUM": "58319",
			"START_BUS_STOP_LATLNG": "1.44976933938251, 103.81802192152",
			"END_BUS_STOP_NUM": "58349",
			"END_BUS_STOP_LATLNG": "1.45273139537549, 103.816423432077",
			"DISTANCE": "6.5",
			"GEOMETRIES": "idzGe~sxROFq@TiCz@sA\\gCv@s@TGBa@PQJKJKLGH]|@"
		},
		{
			"BUS_SEQUENCE": 20,
			"START_BUS_STOP": "BLK 478",
			"END_BUS_STOP": "OPP BLK 484A CP",
			"START_BUS_STOP_NUM": "58349",
			"START_BUS_STOP_LATLNG": "1.45273139537549, 103.816423432077",
			"END_BUS_STOP_NUM": "58359",
			"END_BUS_STOP_LATLNG": "1.45619440004203, 103.814654114212",
			"DISTANCE": "6.9",
			"GEOMETRIES": "_wzG{ssxRKVg@rAUl@MXIJSRk@Tq@NgCXsBT_D\\_@D[D"
		},
		{
			"BUS_SEQUENCE": 21,
			"START_BUS_STOP": "OPP BLK 484A CP",
			"END_BUS_STOP": "BEF HEAVY VEH PK",
			"START_BUS_STOP_NUM": "58359",
			"START_BUS_STOP_LATLNG": "1.45619440004203, 103.814654114212",
			"END_BUS_STOP_NUM": "58459",
			"END_BUS_STOP_LATLNG": "1.45994030687762, 103.81514063372",
			"DISTANCE": "7.4",
			"GEOMETRIES": "kl{GgisxRSBoFl@iAHq@A_AMgCy@yCiA"
		},
		{
			"BUS_SEQUENCE": 22,
			"START_BUS_STOP": "BEF HEAVY VEH PK",
			"END_BUS_STOP": "BEF ACACIA HME",
			"START_BUS_STOP_NUM": "58459",
			"START_BUS_STOP_LATLNG": "1.45994030687762, 103.81514063372",
			"END_BUS_STOP_NUM": "58369",
			"END_BUS_STOP_LATLNG": "1.46077451756536, 103.812061446672",
			"DISTANCE": "7.9",
			"GEOMETRIES": "mc|G_lsxRKGSGaE_B]@UFSNe@lBSpA?n@@n@JbADTFRX|@x@tBf@nAPh@FN"
		},
		{
			"BUS_SEQUENCE": 23,
			"START_BUS_STOP": "BEF ACACIA HME",
			"END_BUS_STOP": "NORTH LINK BLDG",
			"START_BUS_STOP_NUM": "58369",
			"START_BUS_STOP_LATLNG": "1.46077451756536, 103.812061446672",
			"END_BUS_STOP_NUM": "58361",
			"END_BUS_STOP_LATLNG": "1.46118688481447, 103.812707089971",
			"DISTANCE": "8.5",
			"GEOMETRIES": "_i|GixrxRFPJXa@PAEGMAOBIL_@Qi@c@iACE"
		},
		{
			"BUS_SEQUENCE": 24,
			"START_BUS_STOP": "NORTH LINK BLDG",
			"END_BUS_STOP": "AFT HEAVY VEH PK",
			"START_BUS_STOP_NUM": "58361",
			"START_BUS_STOP_LATLNG": "1.46118688481447, 103.812707089971",
			"END_BUS_STOP_NUM": "58451",
			"END_BUS_STOP_LATLNG": "1.46002660309429, 103.815372415238",
			"DISTANCE": "8.7",
			"GEOMETRIES": "ak|Gs|rxRy@uBY}@GSEUKcAAo@?o@RqAd@mBXo@l@T`E~A"
		},
		{
			"BUS_SEQUENCE": 25,
			"START_BUS_STOP": "AFT HEAVY VEH PK",
			"END_BUS_STOP": "BLK 483",
			"START_BUS_STOP_NUM": "58451",
			"START_BUS_STOP_LATLNG": "1.46002660309429, 103.815372415238",
			"END_BUS_STOP_NUM": "58351",
			"END_BUS_STOP_LATLNG": "1.45593548683251, 103.81491062256",
			"DISTANCE": "9.2",
			"GEOMETRIES": "md|GolsxRRFJFxChAfCx@~@Lp@@hAIbGq@ZE\\C@A"
		},
		{
			"BUS_SEQUENCE": 26,
			"START_BUS_STOP": "BLK 483",
			"END_BUS_STOP": "BLK 405",
			"START_BUS_STOP_NUM": "58351",
			"START_BUS_STOP_LATLNG": "1.45593548683251, 103.81491062256",
			"END_BUS_STOP_NUM": "58341",
			"END_BUS_STOP_LATLNG": "1.45267992935187, 103.81687772159",
			"DISTANCE": "9.7",
			"GEOMETRIES": "oj{GsisxR~C]rBUfCYp@Oj@URSHKLYTm@Xu@Xu@\\}@FI"
		},
		{
			"BUS_SEQUENCE": 27,
			"START_BUS_STOP": "BLK 405",
			"END_BUS_STOP": "BLK 354 CP",
			"START_BUS_STOP_NUM": "58341",
			"START_BUS_STOP_LATLNG": "1.45267992935187, 103.81687772159",
			"END_BUS_STOP_NUM": "58311",
			"END_BUS_STOP_LATLNG": "1.4501979542693, 103.818104594221",
			"DISTANCE": "10.1",
			"GEOMETRIES": "yuzGcvsxRJMJKPK`@QFCr@UfCw@rA]hC{@"
		},
		{
			"BUS_SEQUENCE": 28,
			"START_BUS_STOP": "BLK 354 CP",
			"END_BUS_STOP": "SUN PLAZA/SEMBAWANG STN",
			"START_BUS_STOP_NUM": "58311",
			"START_BUS_STOP_LATLNG": "1.4501979542693, 103.818104594221",
			"END_BUS_STOP_NUM": "58251",
			"END_BUS_STOP_LATLNG": "1.44803148822713, 103.818952074868",
			"DISTANCE": "10.5",
			"GEOMETRIES": "kfzGg}sxRHEv@WnAa@jA_@z@YdA_@j@Q\\K"
		},
		{
			"BUS_SEQUENCE": 29,
			"START_BUS_STOP": "SUN PLAZA/SEMBAWANG STN",
			"END_BUS_STOP": "BLK 317",
			"START_BUS_STOP_NUM": "58251",
			"START_BUS_STOP_LATLNG": "1.44803148822713, 103.818952074868",
			"END_BUS_STOP_NUM": "58291",
			"END_BUS_STOP_LATLNG": "1.44579319988216, 103.81994491731",
			"DISTANCE": "10.8",
			"GEOMETRIES": "ayyG_ctxR`@M`A]`Bg@|Ae@fCy@VK"
		},
		{
			"BUS_SEQUENCE": 30,
			"START_BUS_STOP": "BLK 317",
			"END_BUS_STOP": "OPP BLK 325",
			"START_BUS_STOP_NUM": "58291",
			"START_BUS_STOP_LATLNG": "1.44579319988216, 103.81994491731",
			"END_BUS_STOP_NUM": "58379",
			"END_BUS_STOP_LATLNG": "1.4441382148315, 103.818871862449",
			"DISTANCE": "11.1",
			"GEOMETRIES": "}jyG_itxRNE|CcA|@rC\\dAJZ"
		},
		{
			"BUS_SEQUENCE": 31,
			"START_BUS_STOP": "OPP BLK 325",
			"END_BUS_STOP": "OPP SEMBAWANG SEC SCH",
			"START_BUS_STOP_NUM": "58379",
			"START_BUS_STOP_LATLNG": "1.4441382148315, 103.818871862449",
			"END_BUS_STOP_NUM": "58289",
			"END_BUS_STOP_LATLNG": "1.44485960840447, 103.816271626796",
			"DISTANCE": "11.4",
			"GEOMETRIES": "gbyGsctxRL^Rl@Fd@@f@C^On@Qh@{@~BQd@i@zA"
		},
		{
			"BUS_SEQUENCE": 32,
			"START_BUS_STOP": "OPP SEMBAWANG SEC SCH",
			"END_BUS_STOP": "OPP BLK 336A CP",
			"START_BUS_STOP_NUM": "58289",
			"START_BUS_STOP_LATLNG": "1.44485960840447, 103.816271626796",
			"END_BUS_STOP_NUM": "58279",
			"END_BUS_STOP_LATLNG": "1.44658462255674, 103.814569186537",
			"DISTANCE": "11.7",
			"GEOMETRIES": "yeyG{rsxREJELa@jAIT]~@OTg@h@y@`@o@NG@gBP"
		},
		{
			"BUS_SEQUENCE": 33,
			"START_BUS_STOP": "OPP BLK 336A CP",
			"END_BUS_STOP": "OPP BLK 469B",
			"START_BUS_STOP_NUM": "58279",
			"START_BUS_STOP_LATLNG": "1.44658462255674, 103.814569186537",
			"END_BUS_STOP_NUM": "58389",
			"END_BUS_STOP_LATLNG": "1.44773992017207, 103.813566681487",
			"DISTANCE": "12",
			"GEOMETRIES": "aqyGyhsxRy@HyD`@]?DRb@fD"
		},
		{
			"BUS_SEQUENCE": 34,
			"START_BUS_STOP": "OPP BLK 469B",
			"END_BUS_STOP": "SEAGATE",
			"START_BUS_STOP_NUM": "58389",
			"START_BUS_STOP_LATLNG": "1.44773992017207, 103.813566681487",
			"END_BUS_STOP_NUM": "47629",
			"END_BUS_STOP_LATLNG": "1.44667808186871, 103.809857368455",
			"DISTANCE": "12.3",
			"GEOMETRIES": "ixyGqasxRDV?@j@|DNhAH^RfAv@~DTn@JXNd@P^DJ"
		},
		{
			"BUS_SEQUENCE": 35,
			"START_BUS_STOP": "SEAGATE",
			"END_BUS_STOP": "OPP WOODSVALE CONDO",
			"START_BUS_STOP_NUM": "47629",
			"START_BUS_STOP_LATLNG": "1.44667808186871, 103.809857368455",
			"END_BUS_STOP_NUM": "47619",
			"END_BUS_STOP_LATLNG": "1.44430697551185, 103.807137844599",
			"DISTANCE": "12.7",
			"GEOMETRIES": "gqyGkjrxR\\x@d@x@b@t@f@v@x@dAPTXVdA`ArCtC@@"
		},
		{
			"BUS_SEQUENCE": 36,
			"START_BUS_STOP": "OPP WOODSVALE CONDO",
			"END_BUS_STOP": "OPP BLK 793",
			"START_BUS_STOP_NUM": "47619",
			"START_BUS_STOP_LATLNG": "1.44430697551185, 103.807137844599",
			"END_BUS_STOP_NUM": "47609",
			"END_BUS_STOP_LATLNG": "1.44184941782685, 103.803094685774",
			"DISTANCE": "13.1",
			"GEOMETRIES": "ubyG{xqxRlAjAt@|@LLVXdBjCz@jBJTJXlAdDd@jBN`@DL"
		},
		{
			"BUS_SEQUENCE": 37,
			"START_BUS_STOP": "OPP BLK 793",
			"END_BUS_STOP": "BLK 683A",
			"START_BUS_STOP_NUM": "47609",
			"START_BUS_STOP_LATLNG": "1.44184941782685, 103.803094685774",
			"END_BUS_STOP_NUM": "47599",
			"END_BUS_STOP_LATLNG": "1.4399264222862, 103.802631497349",
			"DISTANCE": "13.6",
			"GEOMETRIES": "gsxG_`qxR?@dAxCt@f@h@HvBs@lBo@PG"
		},
		{
			"BUS_SEQUENCE": 38,
			"START_BUS_STOP": "BLK 683A",
			"END_BUS_STOP": "OPP BLK 639",
			"START_BUS_STOP_NUM": "47599",
			"START_BUS_STOP_LATLNG": "1.4399264222862, 103.802631497349",
			"END_BUS_STOP_NUM": "47549",
			"END_BUS_STOP_LATLNG": "1.4379048516895, 103.803523525738",
			"DISTANCE": "13.9",
			"GEOMETRIES": "ifxG}|pxRTI~DsA`C{@n@SFCBA"
		},
		{
			"BUS_SEQUENCE": 39,
			"START_BUS_STOP": "OPP BLK 639",
			"END_BUS_STOP": "OPP BLK 630",
			"START_BUS_STOP_NUM": "47549",
			"START_BUS_STOP_LATLNG": "1.4379048516895, 103.803523525738",
			"END_BUS_STOP_NUM": "47559",
			"END_BUS_STOP_LATLNG": "1.43461254485308, 103.80204564159",
			"DISTANCE": "14.1",
			"GEOMETRIES": "uywGqbqxRPG\\IVGRARCT?R?R@^BXFND\\L\\PVPHHVR|DbDpA`A"
		},
		{
			"BUS_SEQUENCE": 40,
			"START_BUS_STOP": "OPP BLK 630",
			"END_BUS_STOP": "OPP BLK 620",
			"START_BUS_STOP_NUM": "47559",
			"START_BUS_STOP_LATLNG": "1.43461254485308, 103.80204564159",
			"END_BUS_STOP_NUM": "47569",
			"END_BUS_STOP_LATLNG": "1.43291945534759, 103.798780389748",
			"DISTANCE": "14.5",
			"GEOMETRIES": "wewGgypxR@@@@LJPJJDFDXJZHXFNBN@t@@~AB?^@|@@tH?h@A|A?L"
		},
		{
			"BUS_SEQUENCE": 41,
			"START_BUS_STOP": "OPP BLK 620",
			"END_BUS_STOP": "BLK 556",
			"START_BUS_STOP_NUM": "47569",
			"START_BUS_STOP_LATLNG": "1.43291945534759, 103.798780389748",
			"END_BUS_STOP_NUM": "47579",
			"END_BUS_STOP_LATLNG": "1.4333134741952, 103.795970197705",
			"DISTANCE": "14.9",
			"GEOMETRIES": "w{vGkepxRAtBSxDa@pDCRCPI`@"
		},
		{
			"BUS_SEQUENCE": 42,
			"START_BUS_STOP": "BLK 556",
			"END_BUS_STOP": "BLK 519A CP",
			"START_BUS_STOP_NUM": "47579",
			"START_BUS_STOP_LATLNG": "1.4333134741952, 103.795970197705",
			"END_BUS_STOP_NUM": "47589",
			"END_BUS_STOP_LATLNG": "1.43479106906247, 103.792544443113",
			"DISTANCE": "15.3",
			"GEOMETRIES": "a~vGatoxRi@hCQn@K`@M^]fA_BxDw@hB??Sn@EP"
		},
		{
			"BUS_SEQUENCE": 43,
			"START_BUS_STOP": "BLK 519A CP",
			"END_BUS_STOP": "BLK 515",
			"START_BUS_STOP_NUM": "47589",
			"START_BUS_STOP_LATLNG": "1.43479106906247, 103.792544443113",
			"END_BUS_STOP_NUM": "46649",
			"END_BUS_STOP_LATLNG": "1.43513571565336, 103.790421340841",
			"DISTANCE": "15.7",
			"GEOMETRIES": "ggwGw~nxRK^i@tCMrBAPAf@?b@@l@"
		},
		{
			"BUS_SEQUENCE": 44,
			"START_BUS_STOP": "BLK 515",
			"END_BUS_STOP": "W'LANDS STN EXIT 4",
			"START_BUS_STOP_NUM": "46649",
			"START_BUS_STOP_LATLNG": "1.43513571565336, 103.790421340841",
			"END_BUS_STOP_NUM": "46639",
			"END_BUS_STOP_LATLNG": "1.43702205360453, 103.788849196788",
			"DISTANCE": "16",
			"GEOMETRIES": "miwGaqnxR??@x@BLJxAXzAHd@NdADXi@Ms@Mk@KmG_AIA"
		},
		{
			"BUS_SEQUENCE": 45,
			"START_BUS_STOP": "W'LANDS STN EXIT 4",
			"END_BUS_STOP": "WOODLANDS TEMP INT",
			"START_BUS_STOP_NUM": "46639",
			"START_BUS_STOP_LATLNG": "1.43702205360453, 103.788849196788",
			"END_BUS_STOP_NUM": "46009",
			"END_BUS_STOP_LATLNG": "1.43762790090815, 103.78649999639",
			"DISTANCE": "16.5",
			"GEOMETRIES": "ctwGghnxRCAE?aAC}@@UBm@J]H_@HSDs@ZgBxASTg@x@oAjChDrBqCzFjHnE|A_@Lq@iA}Dv@U"
		}
	]
}