{
	"type": "FeatureCollection",
	"features": [
		{
			"type": "Feature",
			"id": "10009",
			"properties": {
				"number": "10009",
				"name": "Bt Merah Int",
				"road": "Bt Merah Ctrl",
				"services": [
					"123",
					"131",
					"132",
					"139",
					"153",
					"16",
					"167",
					"16M",
					"176",
					"198",
					"272",
					"273",
					"5",
					"57",
					"851"
				]
			},
			"geometry": {
				"type": "Point",
				"coordinates": [
					103.81722480263163,
					1.28210155945393
				]
			}
		},
		{
			"type": "Feature",
			"id": "10011",
			"properties": {
				"number": "10011",
				"name": "Bef Neil Rd",
				"road": "New Bridge Rd",
				"services": [
					"12",
					"121",
					"122",
					"124",
					"12e",
					"143",
					"147",
					"174",
					"174e",
					"190",
					"2",
					"54",
					"961",
					"961M"
				]
			},
			"geometry": {
				"type": "Point",
				"coordinates": [
					103.83749709165197,
					1.2777380589964
				]
			}
		},
		{
			"type": "Feature",
			"id": "10017",
			"properties": {
				"number": "10017",
				"name": "Aft Hosp Dr",
				"road": "Eu Tong Sen St",
				"services": [
					"12",
					"121",
					"122",
					"124",
					"12e",
					"143",
					"147",
					"166",
					"167",
					"174",
					"174e",
					"190",
					"196",
					"197",
					"2",
					"2A",
					"54",
					"61",
					"961",
					"961M"
				]
			},
			"geometry": {
				"type": "Point",
				"coordinates": [
					103.83762574759974,
					1.27832046633393
				]
			}
		},
		{
			"type": "Feature",
			"id": "10018",
			"properties": {
				"number": "10018",
				"name": "Outram Pk Stn Exit 6/SGH",
				"road": "Eu Tong Sen St",
				"services": [
					"124",
					"143",
					"147",
					"166",
					"197",
					"61",
					"961",
					"961M"
				]
			},
			"geometry": {
				"type": "Point",
				"coordinates": [
					103.83860360621959,
					1.27900819665099
				]
			}
		},
		{
			"type": "Feature",
			"id": "10021",
			"properties": {
				"number": "10021",
				"name": "Blk 3",
				"road": "Neil Rd",
				"services": [
					"166",
					"167",
					"196",
					"197",
					"61"
				]
			},
			"geometry": {
				"type": "Point",
				"coordinates": [
					103.83838894560753,
					1.27744837946643
				]
			}
		},
		{
			"type": "Feature",
			"id": "10041",
			"properties": {
				"number": "10041",
				"name": "Bef Kampong Bahru Ter",
				"road": "Kg Bahru Rd",
				"services": [
					"12",
					"121",
					"122",
					"124",
					"143",
					"147",
					"166",
					"167",
					"174",
					"190",
					"196",
					"197",
					"2",
					"54",
					"61",
					"961",
					"961M"
				]
			},
			"geometry": {
				"type": "Point",
				"coordinates": [
					103.83519065305671,
					1.27605834770353
				]
			}
		},
		{
			"type": "Feature",
			"id": "10049",
			"properties": {
				"number": "10049",
				"name": "Opp Kampong Bahru Ter",
				"road": "Kg Bahru Rd",
				"services": [
					"12",
					"121",
					"122",
					"124",
					"143",
					"147",
					"166",
					"167",
					"174",
					"190",
					"196",
					"197",
					"2",
					"2A",
					"54",
					"61",
					"961",
					"961M"
				]
			},
			"geometry": {
				"type": "Point",
				"coordinates": [
					103.83483786772155,
					1.27623302424393
				]
			}
		},
		{
			"type": "Feature",
			"id": "10051",
			"properties": {
				"number": "10051",
				"name": "Blk 149",
				"road": "Jln Bt Merah",
				"services": [
					"120",
					"147",
					"167",
					"196",
					"197",
					"961",
					"961M"
				]
			},
			"geometry": {
				"type": "Point",
				"coordinates": [
					103.83214410914843,
					1.2774116353284
				]
			}
		},
		{
			"type": "Feature",
			"id": "10059",
			"properties": {
				"number": "10059",
				"name": "Opp Blk 149",
				"road": "Jln Bt Merah",
				"services": [
					"120",
					"147",
					"167",
					"196",
					"197",
					"961",
					"961M"
				]
			},
			"geometry": {
				"type": "Point",
				"coordinates": [
					103.83275178077875,
					1.27739664167497
				]
			}
		},
		{
			"type": "Feature",
			"id": "10061",
			"properties": {
				"number": "10061",
				"name": "Blk 140",
				"road": "Jln Bt Merah",
				"services": [
					"120",
					"147",
					"167",
					"196",
					"197",
					"961",
					"961M"
				]
			},
			"geometry": {
				"type": "Point",
				"coordinates": [
					103.82948638898173,
					1.27860472196885
				]
			}
		},
		{
			"type": "Feature",
			"id": "10069",
			"properties": {
				"number": "10069",
				"name": "Opp Blk 140",
				"road": "Jln Bt Merah",
				"services": [
					"120",
					"147",
					"167",
					"196",
					"197",
					"961",
					"961M"
				]
			},
			"geometry": {
				"type": "Point",
				"coordinates": [
					103.83008250001669,
					1.27855472196877
				]
			}
		},
		{
			"type": "Feature",
			"id": "10071",
			"properties": {
				"number": "10071",
				"name": "Blk 111",
				"road": "Jln Bt Merah",
				"services": [
					"120",
					"121",
					"147",
					"167",
					"175",
					"196",
					"197",
					"961",
					"961M"
				]
			},
			"geometry": {
				"type": "Point",
				"coordinates": [
					103.82638920754815,
					1.28045309423663
				]
			}
		},
		{
			"type": "Feature",
			"id": "10079",
			"properties": {
				"number": "10079",
				"name": "Blk 201",
				"road": "Jln Bt Merah",
				"services": [
					"120",
					"121",
					"147",
					"167",
					"175",
					"196",
					"197",
					"961",
					"961M"
				]
			},
			"geometry": {
				"type": "Point",
				"coordinates": [
					103.82708906887606,
					1.2803950142786
				]
			}
		},
		{
			"type": "Feature",
			"id": "10081",
			"properties": {
				"number": "10081",
				"name": "Opp Blk 120",
				"road": "Jln Bt Merah",
				"services": [
					"131",
					"14",
					"147",
					"167",
					"175",
					"196",
					"197",
					"5",
					"855",
					"961",
					"961M"
				]
			},
			"geometry": {
				"type": "Point",
				"coordinates": [
					103.82241744338572,
					1.2822783541702
				]
			}
		},
		{
			"type": "Feature",
			"id": "10089",
			"properties": {
				"number": "10089",
				"name": "Blk 119",
				"road": "Jln Bt Merah",
				"services": [
					"131",
					"14",
					"147",
					"167",
					"175",
					"196",
					"197",
					"5",
					"855",
					"961",
					"961M"
				]
			},
			"geometry": {
				"type": "Point",
				"coordinates": [
					103.82165660905856,
					1.28292332245689
				]
			}
		},
		{
			"type": "Feature",
			"id": "10091",
			"properties": {
				"number": "10091",
				"name": "Bt Merah Town Ctr",
				"road": "Jln Bt Merah",
				"services": [
					"14",
					"147",
					"16M",
					"196",
					"197",
					"855",
					"961",
					"961M"
				]
			},
			"geometry": {
				"type": "Point",
				"coordinates": [
					103.81783962251122,
					1.28394108576437
				]
			}
		},
		{
			"type": "Feature",
			"id": "10099",
			"properties": {
				"number": "10099",
				"name": "Opp Bt Merah Town Ctr",
				"road": "Jln Bt Merah",
				"services": [
					"14",
					"147",
					"16M",
					"196",
					"197",
					"855",
					"961",
					"961M"
				]
			},
			"geometry": {
				"type": "Point",
				"coordinates": [
					103.81765723225827,
					1.28420923932422
				]
			}
		},
		{
			"type": "Feature",
			"id": "10101",
			"properties": {
				"number": "10101",
				"name": "Opp Bt Merah Sec Sch",
				"road": "Jln Bt Merah",
				"services": [
					"123",
					"139",
					"14",
					"147",
					"153",
					"196",
					"197",
					"198",
					"855",
					"961",
					"961M"
				]
			},
			"geometry": {
				"type": "Point",
				"coordinates": [
					103.8137833011436,
					1.28506195168861
				]
			}
		},
		{
			"type": "Feature",
			"id": "10109",
			"properties": {
				"number": "10109",
				"name": "Bt Merah Sec Sch",
				"road": "Jln Bt Merah",
				"services": [
					"14",
					"147",
					"196",
					"197",
					"855",
					"961",
					"961M"
				]
			},
			"geometry": {
				"type": "Point",
				"coordinates": [
					103.81370529674271,
					1.28535315729277
				]
			}
		},
		{
			"type": "Feature",
			"id": "10111",
			"properties": {
				"number": "10111",
				"name": "Opp Blk 28",
				"road": "Jln Bt Merah",
				"services": [
					"123",
					"14",
					"147",
					"153",
					"196",
					"197",
					"198",
					"855",
					"961",
					"961M"
				]
			},
			"geometry": {
				"type": "Point",
				"coordinates": [
					103.80935410958449,
					1.28592835098556
				]
			}
		},
		{
			"type": "Feature",
			"id": "10119",
			"properties": {
				"number": "10119",
				"name": "Opp Pacific Tech Ctr",
				"road": "Jln Bt Merah",
				"services": [
					"123",
					"139",
					"14",
					"147",
					"153",
					"196",
					"197",
					"198",
					"855",
					"961",
					"961M"
				]
			},
			"geometry": {
				"type": "Point",
				"coordinates": [
					103.81122515087834,
					1.28598009010704
				]
			}
		},
		{
			"type": "Feature",
			"id": "10121",
			"properties": {
				"number": "10121",
				"name": "Blk 126 CP",
				"road": "Kim Tian Rd",
				"services": [
					"121"
				]
			},
			"geometry": {
				"type": "Point",
				"coordinates": [
					103.82890541983913,
					1.28259924598805
				]
			}
		},
		{
			"type": "Feature",
			"id": "10129",
			"properties": {
				"number": "10129",
				"name": "Blk 121",
				"road": "Kim Tian Rd",
				"services": [
					"121"
				]
			},
			"geometry": {
				"type": "Point",
				"coordinates": [
					103.8285719444802,
					1.28231999999009
				]
			}
		},
		{
			"type": "Feature",
			"id": "10131",
			"properties": {
				"number": "10131",
				"name": "Opp Blk 2",
				"road": "Jln Bt Merah",
				"services": [
					"123",
					"14",
					"147",
					"153",
					"196",
					"197",
					"198",
					"855",
					"961",
					"961M"
				]
			},
			"geometry": {
				"type": "Point",
				"coordinates": [
					103.80686549059318,
					1.28619141382394
				]
			}
		},
		{
			"type": "Feature",
			"id": "10139",
			"properties": {
				"number": "10139",
				"name": "Blk 1",
				"road": "Jln Bt Merah",
				"services": [
					"123",
					"14",
					"147",
					"153",
					"196",
					"197",
					"198",
					"855",
					"961",
					"961M"
				]
			},
			"geometry": {
				"type": "Point",
				"coordinates": [
					103.8081000223439,
					1.28635135443034
				]
			}
		},
		{
			"type": "Feature",
			"id": "10141",
			"properties": {
				"number": "10141",
				"name": "Blk 18",
				"road": "Tiong Bahru Rd",
				"services": [
					"122",
					"123",
					"123M",
					"16",
					"16M",
					"195",
					"195A",
					"33",
					"5",
					"63",
					"63A",
					"851"
				]
			},
			"geometry": {
				"type": "Point",
				"coordinates": [
					103.83238179897589,
					1.28583847140468
				]
			}
		},
		{
			"type": "Feature",
			"id": "10149",
			"properties": {
				"number": "10149",
				"name": "Blk 1",
				"road": "Tiong Bahru Rd",
				"services": [
					"122",
					"123",
					"123M",
					"16",
					"16M",
					"195",
					"33",
					"33A",
					"5",
					"63",
					"851"
				]
			},
			"geometry": {
				"type": "Point",
				"coordinates": [
					103.83283384311112,
					1.28606797463712
				]
			}
		},
		{
			"type": "Feature",
			"id": "10151",
			"properties": {
				"number": "10151",
				"name": "Ctrl Green Condo",
				"road": "Tiong Bahru Rd",
				"services": [
					"121",
					"122",
					"123",
					"123M",
					"16",
					"16M",
					"195",
					"195A",
					"33",
					"5",
					"63",
					"63A",
					"851"
				]
			},
			"geometry": {
				"type": "Point",
				"coordinates": [
					103.8285292287095,
					1.28572048365401
				]
			}
		},
		{
			"type": "Feature",
			"id": "10161",
			"properties": {
				"number": "10161",
				"name": "Opp Tiong Bahru Stn",
				"road": "Tiong Bahru Rd",
				"services": [
					"121",
					"122",
					"123",
					"123M",
					"16",
					"16M",
					"195",
					"195A",
					"33",
					"5",
					"63",
					"63A",
					"851"
				]
			},
			"geometry": {
				"type": "Point",
				"coordinates": [
					103.82668969231534,
					1.28593135445772
				]
			}
		},
		{
			"type": "Feature",
			"id": "10169",
			"properties": {
				"number": "10169",
				"name": "Tiong Bahru Stn",
				"road": "Tiong Bahru Rd",
				"services": [
					"121",
					"122",
					"123",
					"123M",
					"16",
					"16M",
					"195",
					"195A",
					"33",
					"33A",
					"5",
					"63",
					"851"
				]
			},
			"geometry": {
				"type": "Point",
				"coordinates": [
					103.82748123930962,
					1.28599961406266
				]
			}
		},
		{
			"type": "Feature",
			"id": "10171",
			"properties": {
				"number": "10171",
				"name": "Opp Tiong Bahru Pk",
				"road": "Tiong Bahru Rd",
				"services": [
					"120",
					"16",
					"16M",
					"32",
					"33",
					"63",
					"63A",
					"64",
					"851"
				]
			},
			"geometry": {
				"type": "Point",
				"coordinates": [
					103.82346004890803,
					1.28736808047078
				]
			}
		},
		{
			"type": "Feature",
			"id": "10179",
			"properties": {
				"number": "10179",
				"name": "Tiong Bahru Pk",
				"road": "Tiong Bahru Rd",
				"services": [
					"120",
					"16",
					"16M",
					"32",
					"33",
					"33A",
					"63",
					"64",
					"851"
				]
			},
			"geometry": {
				"type": "Point",
				"coordinates": [
					103.82395833301354,
					1.28722333302937
				]
			}
		},
		{
			"type": "Feature",
			"id": "10181",
			"properties": {
				"number": "10181",
				"name": "Bef Ar-Rabitah Mque",
				"road": "Tiong Bahru Rd",
				"services": [
					"120",
					"132",
					"145",
					"32",
					"33",
					"63",
					"63A",
					"64"
				]
			},
			"geometry": {
				"type": "Point",
				"coordinates": [
					103.82109741719866,
					1.28850399420484
				]
			}
		},
		{
			"type": "Feature",
			"id": "10189",
			"properties": {
				"number": "10189",
				"name": "Blk 104A CP",
				"road": "Tiong Bahru Rd",
				"services": [
					"120",
					"132",
					"145",
					"145A",
					"32",
					"33",
					"33A",
					"63",
					"64"
				]
			},
			"geometry": {
				"type": "Point",
				"coordinates": [
					103.82183192865197,
					1.28858805222806
				]
			}
		},
		{
			"type": "Feature",
			"id": "10191",
			"properties": {
				"number": "10191",
				"name": "Blk 78",
				"road": "Tiong Bahru Rd",
				"services": [
					"120",
					"132",
					"145",
					"32",
					"33",
					"63",
					"63A",
					"64"
				]
			},
			"geometry": {
				"type": "Point",
				"coordinates": [
					103.81903121724014,
					1.28860026020096
				]
			}
		},
		{
			"type": "Feature",
			"id": "10199",
			"properties": {
				"number": "10199",
				"name": "Delta Swim Cplx",
				"road": "Tiong Bahru Rd",
				"services": [
					"120",
					"132",
					"145",
					"145A",
					"32",
					"33",
					"33A",
					"63",
					"64"
				]
			},
			"geometry": {
				"type": "Point",
				"coordinates": [
					103.81936618662205,
					1.28875723330649
				]
			}
		},
		{
			"type": "Feature",
			"id": "10201",
			"properties": {
				"number": "10201",
				"name": "Opp Redhill Stn",
				"road": "Tiong Bahru Rd",
				"services": [
					"120",
					"132",
					"145",
					"32",
					"33",
					"64"
				]
			},
			"geometry": {
				"type": "Point",
				"coordinates": [
					103.81662854691157,
					1.28928144532567
				]
			}
		},
		{
			"type": "Feature",
			"id": "10209",
			"properties": {
				"number": "10209",
				"name": "Redhill Stn",
				"road": "Tiong Bahru Rd",
				"services": [
					"120",
					"132",
					"145",
					"145A",
					"32",
					"33",
					"33A",
					"64"
				]
			},
			"geometry": {
				"type": "Point",
				"coordinates": [
					103.81672885450702,
					1.28954631749853
				]
			}
		},
		{
			"type": "Feature",
			"id": "10211",
			"properties": {
				"number": "10211",
				"name": "Porsche Ctr S'pore",
				"road": "Leng Kee Rd",
				"services": [
					"139"
				]
			},
			"geometry": {
				"type": "Point",
				"coordinates": [
					103.81144166700754,
					1.29075499997303
				]
			}
		},
		{
			"type": "Feature",
			"id": "10219",
			"properties": {
				"number": "10219",
				"name": "Opp Motor Image",
				"road": "Leng Kee Rd",
				"services": [
					"139"
				]
			},
			"geometry": {
				"type": "Point",
				"coordinates": [
					103.81191424883255,
					1.29089526651849
				]
			}
		},
		{
			"type": "Feature",
			"id": "10221",
			"properties": {
				"number": "10221",
				"name": "Ganges Ctr",
				"road": "Ganges Ave",
				"services": [
					"121",
					"186",
					"51",
					"64"
				]
			},
			"geometry": {
				"type": "Point",
				"coordinates": [
					103.83111793441608,
					1.29032906602668
				]
			}
		},
		{
			"type": "Feature",
			"id": "10229",
			"properties": {
				"number": "10229",
				"name": "Opp Harvest Mansions",
				"road": "Ganges Ave",
				"services": [
					"121",
					"186",
					"51",
					"64"
				]
			},
			"geometry": {
				"type": "Point",
				"coordinates": [
					103.83178189529583,
					1.29052137840164
				]
			}
		},
		{
			"type": "Feature",
			"id": "10231",
			"properties": {
				"number": "10231",
				"name": "Blk 51 CP",
				"road": "Ganges Ave",
				"services": [
					"121",
					"186",
					"51",
					"64"
				]
			},
			"geometry": {
				"type": "Point",
				"coordinates": [
					103.82788100149519,
					1.29041850946952
				]
			}
		},
		{
			"type": "Feature",
			"id": "10239",
			"properties": {
				"number": "10239",
				"name": "Blk 79",
				"road": "Ganges Ave",
				"services": [
					"121",
					"186",
					"51",
					"64"
				]
			},
			"geometry": {
				"type": "Point",
				"coordinates": [
					103.82865297447873,
					1.29060688839488
				]
			}
		},
		{
			"type": "Feature",
			"id": "10241",
			"properties": {
				"number": "10241",
				"name": "Gan Eng Seng Sec Sch",
				"road": "Alexandra Rd",
				"services": [
					"122",
					"139",
					"186",
					"51",
					"970"
				]
			},
			"geometry": {
				"type": "Point",
				"coordinates": [
					103.82362326803131,
					1.2906166672167
				]
			}
		},
		{
			"type": "Feature",
			"id": "10249",
			"properties": {
				"number": "10249",
				"name": "Opp Gan Eng Seng Sec Sch",
				"road": "Alexandra Rd",
				"services": [
					"122",
					"139",
					"186",
					"51",
					"970"
				]
			},
			"geometry": {
				"type": "Point",
				"coordinates": [
					103.82407777797806,
					1.29088138899671
				]
			}
		},
		{
			"type": "Feature",
			"id": "10261",
			"properties": {
				"number": "10261",
				"name": "Delta Sports Hall",
				"road": "Alexandra Rd",
				"services": [
					"122",
					"139",
					"186",
					"51",
					"970"
				]
			},
			"geometry": {
				"type": "Point",
				"coordinates": [
					103.82047232884216,
					1.29090335842692
				]
			}
		},
		{
			"type": "Feature",
			"id": "10269",
			"properties": {
				"number": "10269",
				"name": "Opp Delta Sports Hall",
				"road": "Alexandra Rd",
				"services": [
					"122",
					"139",
					"186",
					"51",
					"970"
				]
			},
			"geometry": {
				"type": "Point",
				"coordinates": [
					103.82057583280772,
					1.29125331927458
				]
			}
		},
		{
			"type": "Feature",
			"id": "10271",
			"properties": {
				"number": "10271",
				"name": "Opp Tanglin View",
				"road": "Alexandra Rd",
				"services": [
					"122",
					"139",
					"186",
					"51",
					"970"
				]
			},
			"geometry": {
				"type": "Point",
				"coordinates": [
					103.81757666701353,
					1.29115999997607
				]
			}
		},
		{
			"type": "Feature",
			"id": "10279",
			"properties": {
				"number": "10279",
				"name": "Tanglin View",
				"road": "Alexandra Rd",
				"services": [
					"122",
					"139",
					"186",
					"51",
					"970"
				]
			},
			"geometry": {
				"type": "Point",
				"coordinates": [
					103.81757660887743,
					1.29151373164978
				]
			}
		},
		{
			"type": "Feature",
			"id": "10281",
			"properties": {
				"number": "10281",
				"name": "SIS Bldg",
				"road": "Alexandra Rd",
				"services": [
					"111",
					"120",
					"139",
					"145",
					"186",
					"33",
					"51",
					"64",
					"970"
				]
			},
			"geometry": {
				"type": "Point",
				"coordinates": [
					103.81445166697797,
					1.29153833298318
				]
			}
		},
		{
			"type": "Feature",
			"id": "10289",
			"properties": {
				"number": "10289",
				"name": "Opp SIS Bldg",
				"road": "Alexandra Rd",
				"services": [
					"111",
					"139",
					"186",
					"51",
					"970"
				]
			},
			"geometry": {
				"type": "Point",
				"coordinates": [
					103.81440639448375,
					1.2918699745378
				]
			}
		},
		{
			"type": "Feature",
			"id": "10291",
			"properties": {
				"number": "10291",
				"name": "Bef Dawson Rd",
				"road": "Alexandra Rd",
				"services": [
					"111",
					"120",
					"139",
					"145",
					"186",
					"33",
					"51",
					"64",
					"970"
				]
			},
			"geometry": {
				"type": "Point",
				"coordinates": [
					103.81065866068086,
					1.29215855273858
				]
			}
		},
		{
			"type": "Feature",
			"id": "10299",
			"properties": {
				"number": "10299",
				"name": "Aft Dawson Rd",
				"road": "Alexandra Rd",
				"services": [
					"111",
					"120",
					"139",
					"145",
					"186",
					"33",
					"33A",
					"51",
					"64",
					"970"
				]
			},
			"geometry": {
				"type": "Point",
				"coordinates": [
					103.81146486767658,
					1.29233498466278
				]
			}
		},
		{
			"type": "Feature",
			"id": "10321",
			"properties": {
				"number": "10321",
				"name": "Aft Margaret Dr",
				"road": "Tanglin Rd",
				"services": [
					"111",
					"122",
					"132",
					"32"
				]
			},
			"geometry": {
				"type": "Point",
				"coordinates": [
					103.81587839882768,
					1.29428332949691
				]
			}
		},
		{
			"type": "Feature",
			"id": "10329",
			"properties": {
				"number": "10329",
				"name": "Crescent Girls' Sch",
				"road": "Tanglin Rd",
				"services": [
					"111",
					"122",
					"132",
					"32"
				]
			},
			"geometry": {
				"type": "Point",
				"coordinates": [
					103.81597460107542,
					1.29364671283262
				]
			}
		},
		{
			"type": "Feature",
			"id": "10331",
			"properties": {
				"number": "10331",
				"name": "Bef Bt Merah Ctrl",
				"road": "Henderson Rd",
				"services": [
					"145",
					"175",
					"176",
					"272",
					"273",
					"57"
				]
			},
			"geometry": {
				"type": "Point",
				"coordinates": [
					103.81834423228645,
					1.28136306628839
				]
			}
		},
		{
			"type": "Feature",
			"id": "10339",
			"properties": {
				"number": "10339",
				"name": "Aft Bt Merah Ctrl",
				"road": "Henderson Rd",
				"services": [
					"145",
					"145A",
					"175",
					"176",
					"272",
					"273",
					"57"
				]
			},
			"geometry": {
				"type": "Point",
				"coordinates": [
					103.81857250844851,
					1.28115835063292
				]
			}
		},
		{
			"type": "Feature",
			"id": "10341",
			"properties": {
				"number": "10341",
				"name": "Opp Blk 116",
				"road": "Henderson Rd",
				"services": [
					"132",
					"145",
					"16",
					"16M",
					"851"
				]
			},
			"geometry": {
				"type": "Point",
				"coordinates": [
					103.82059301467888,
					1.28484639603431
				]
			}
		},
		{
			"type": "Feature",
			"id": "10349",
			"properties": {
				"number": "10349",
				"name": "Blk 116",
				"road": "Henderson Rd",
				"services": [
					"132",
					"145",
					"145A",
					"16",
					"16M",
					"851"
				]
			},
			"geometry": {
				"type": "Point",
				"coordinates": [
					103.821011,
					1.284977
				]
			}
		},
		{
			"type": "Feature",
			"id": "10351",
			"properties": {
				"number": "10351",
				"name": "Blk 95B",
				"road": "Henderson Rd",
				"services": [
					"132",
					"145",
					"16",
					"16M",
					"851"
				]
			},
			"geometry": {
				"type": "Point",
				"coordinates": [
					103.82204990181914,
					1.28675501760897
				]
			}
		},
		{
			"type": "Feature",
			"id": "10359",
			"properties": {
				"number": "10359",
				"name": "Opp Blk 95C",
				"road": "Henderson Rd",
				"services": [
					"132",
					"145",
					"145A",
					"16",
					"16M",
					"851"
				]
			},
			"geometry": {
				"type": "Point",
				"coordinates": [
					103.82259298997768,
					1.28723833324362
				]
			}
		},
		{
			"type": "Feature",
			"id": "10361",
			"properties": {
				"number": "10361",
				"name": "Cendex Ctr",
				"road": "Lower Delta Rd",
				"services": [
					"121",
					"123",
					"123M",
					"131",
					"195",
					"195A",
					"65",
					"855"
				]
			},
			"geometry": {
				"type": "Point",
				"coordinates": [
					103.82353025808791,
					1.28038092060065
				]
			}
		},
		{
			"type": "Feature",
			"id": "10369",
			"properties": {
				"number": "10369",
				"name": "Opp Cendex Ctr",
				"road": "Lower Delta Rd",
				"services": [
					"121",
					"123",
					"123M",
					"131",
					"195",
					"195A",
					"65",
					"855"
				]
			},
			"geometry": {
				"type": "Point",
				"coordinates": [
					103.82387343933006,
					1.28037471151153
				]
			}
		},
		{
			"type": "Feature",
			"id": "10371",
			"properties": {
				"number": "10371",
				"name": "Blk 129",
				"road": "Lower Delta Rd",
				"services": [
					"120",
					"123",
					"123M",
					"14",
					"195",
					"195A",
					"5",
					"65"
				]
			},
			"geometry": {
				"type": "Point",
				"coordinates": [
					103.824502653383,
					1.28365072319387
				]
			}
		},
		{
			"type": "Feature",
			"id": "10379",
			"properties": {
				"number": "10379",
				"name": "Blk 25B",
				"road": "Lower Delta Rd",
				"services": [
					"120",
					"123",
					"123M",
					"14",
					"195",
					"195A",
					"5",
					"65"
				]
			},
			"geometry": {
				"type": "Point",
				"coordinates": [
					103.82489520929732,
					1.28373603376667
				]
			}
		},
		{
			"type": "Feature",
			"id": "10381",
			"properties": {
				"number": "10381",
				"name": "Opp Blk 48",
				"road": "Lower Delta Rd",
				"services": [
					"121",
					"122",
					"14",
					"32",
					"64",
					"65"
				]
			},
			"geometry": {
				"type": "Point",
				"coordinates": [
					103.82559411728036,
					1.28906972186602
				]
			}
		},
		{
			"type": "Feature",
			"id": "10389",
			"properties": {
				"number": "10389",
				"name": "Blk 48",
				"road": "Lower Delta Rd",
				"services": [
					"121",
					"122",
					"14",
					"32",
					"64",
					"65"
				]
			},
			"geometry": {
				"type": "Point",
				"coordinates": [
					103.82573455047122,
					1.28875832991208
				]
			}
		},
		{
			"type": "Feature",
			"id": "10391",
			"properties": {
				"number": "10391",
				"name": "Opp Melati Blk 2",
				"road": "Kg Bahru Rd",
				"services": [
					"124",
					"143",
					"166",
					"61"
				]
			},
			"geometry": {
				"type": "Point",
				"coordinates": [
					103.8312563936613,
					1.27627105343758
				]
			}
		},
		{
			"type": "Feature",
			"id": "10399",
			"properties": {
				"number": "10399",
				"name": "Melati Blk 2",
				"road": "Kg Bahru Rd",
				"services": [
					"124",
					"143",
					"166",
					"61"
				]
			},
			"geometry": {
				"type": "Point",
				"coordinates": [
					103.83019454205221,
					1.27588166292683
				]
			}
		},
		{
			"type": "Feature",
			"id": "10401",
			"properties": {
				"number": "10401",
				"name": "Shriro Hse",
				"road": "Hoy Fatt Rd",
				"services": [
					"63"
				]
			},
			"geometry": {
				"type": "Point",
				"coordinates": [
					103.81167850401884,
					1.28816729863
				]
			}
		},
		{
			"type": "Feature",
			"id": "10409",
			"properties": {
				"number": "10409",
				"name": "Blk 50",
				"road": "Hoy Fatt Rd",
				"services": [
					"63",
					"63A"
				]
			},
			"geometry": {
				"type": "Point",
				"coordinates": [
					103.81099317775703,
					1.28788221830638
				]
			}
		},
		{
			"type": "Feature",
			"id": "10411",
			"properties": {
				"number": "10411",
				"name": "Opp Blk 53",
				"road": "Hoy Fatt Rd",
				"services": [
					"63"
				]
			},
			"geometry": {
				"type": "Point",
				"coordinates": [
					103.81280840030111,
					1.28912979528004
				]
			}
		},
		{
			"type": "Feature",
			"id": "10419",
			"properties": {
				"number": "10419",
				"name": "Blk 52",
				"road": "Hoy Fatt Rd",
				"services": [
					"63",
					"63A"
				]
			},
			"geometry": {
				"type": "Point",
				"coordinates": [
					103.81257549749508,
					1.28842024220748
				]
			}
		},
		{
			"type": "Feature",
			"id": "10421",
			"properties": {
				"number": "10421",
				"name": "Blk 63B",
				"road": "Lengkok Bahru",
				"services": [
					"139",
					"63"
				]
			},
			"geometry": {
				"type": "Point",
				"coordinates": [
					103.814975,
					1.288964
				]
			}
		},
		{
			"type": "Feature",
			"id": "10429",
			"properties": {
				"number": "10429",
				"name": "Blk 54",
				"road": "Lengkok Bahru",
				"services": [
					"139",
					"63",
					"63A"
				]
			},
			"geometry": {
				"type": "Point",
				"coordinates": [
					103.81404805422201,
					1.2892779060127
				]
			}
		},
		{
			"type": "Feature",
			"id": "10431",
			"properties": {
				"number": "10431",
				"name": "Enabling Village",
				"road": "Lengkok Bahru",
				"services": [
					"139"
				]
			},
			"geometry": {
				"type": "Point",
				"coordinates": [
					103.813984,
					1.287195
				]
			}
		},
		{
			"type": "Feature",
			"id": "10439",
			"properties": {
				"number": "10439",
				"name": "Opp Enabling Village",
				"road": "Lengkok Bahru",
				"services": [
					"139"
				]
			},
			"geometry": {
				"type": "Point",
				"coordinates": [
					103.81418936580334,
					1.28747956947939
				]
			}
		},
		{
			"type": "Feature",
			"id": "10441",
			"properties": {
				"number": "10441",
				"name": "Opp Blk 44",
				"road": "Lengkok Bahru",
				"services": [
					"139"
				]
			},
			"geometry": {
				"type": "Point",
				"coordinates": [
					103.8116061687213,
					1.28656898930199
				]
			}
		},
		{
			"type": "Feature",
			"id": "10449",
			"properties": {
				"number": "10449",
				"name": "Blk 44",
				"road": "Lengkok Bahru",
				"services": [
					"139"
				]
			},
			"geometry": {
				"type": "Point",
				"coordinates": [
					103.81195378046979,
					1.28666552495266
				]
			}
		},
		{
			"type": "Feature",
			"id": "10451",
			"properties": {
				"number": "10451",
				"name": "Opp Blk 71",
				"road": "Redhill Rd",
				"services": [
					"63"
				]
			},
			"geometry": {
				"type": "Point",
				"coordinates": [
					103.8172559639682,
					1.28762380319765
				]
			}
		},
		{
			"type": "Feature",
			"id": "10459",
			"properties": {
				"number": "10459",
				"name": "Blk 72",
				"road": "Redhill Rd",
				"services": [
					"63",
					"63A"
				]
			},
			"geometry": {
				"type": "Point",
				"coordinates": [
					103.81639920301684,
					1.28754723360397
				]
			}
		},
		{
			"type": "Feature",
			"id": "10461",
			"properties": {
				"number": "10461",
				"name": "Aft Margaret Dr",
				"road": "Kay Siang Rd",
				"services": [
					"122",
					"32"
				]
			},
			"geometry": {
				"type": "Point",
				"coordinates": [
					103.81169140516062,
					1.29680597432594
				]
			}
		},
		{
			"type": "Feature",
			"id": "10469",
			"properties": {
				"number": "10469",
				"name": "Bef Margaret Dr",
				"road": "Kay Siang Rd",
				"services": [
					"122",
					"32"
				]
			},
			"geometry": {
				"type": "Point",
				"coordinates": [
					103.81216918970023,
					1.29668400003303
				]
			}
		},
		{
			"type": "Feature",
			"id": "10471",
			"properties": {
				"number": "10471",
				"name": "Bef Tanglin Rd",
				"road": "Kay Siang Rd",
				"services": [
					"122",
					"32"
				]
			},
			"geometry": {
				"type": "Point",
				"coordinates": [
					103.81468220659576,
					1.29679993078344
				]
			}
		},
		{
			"type": "Feature",
			"id": "10479",
			"properties": {
				"number": "10479",
				"name": "Aft Tanglin Rd",
				"road": "Kay Siang Rd",
				"services": [
					"122",
					"32"
				]
			},
			"geometry": {
				"type": "Point",
				"coordinates": [
					103.81547381025995,
					1.29668100002552
				]
			}
		},
		{
			"type": "Feature",
			"id": "10481",
			"properties": {
				"number": "10481",
				"name": "Opp Blk 73",
				"road": "Redhill Cl",
				"services": [
					"63",
					"63A"
				]
			},
			"geometry": {
				"type": "Point",
				"coordinates": [
					103.81797160113335,
					1.28784195484767
				]
			}
		},
		{
			"type": "Feature",
			"id": "10489",
			"properties": {
				"number": "10489",
				"name": "Blk 73",
				"road": "Redhill Cl",
				"services": [
					"63"
				]
			},
			"geometry": {
				"type": "Point",
				"coordinates": [
					103.81778388900163,
					1.28811638897142
				]
			}
		},
		{
			"type": "Feature",
			"id": "10499",
			"properties": {
				"number": "10499",
				"name": "Kampong Bahru Ter",
				"road": "Spooner Rd",
				"services": [
					"12",
					"120",
					"121",
					"122",
					"12e",
					"174",
					"174e",
					"190",
					"2",
					"2A",
					"54"
				]
			},
			"geometry": {
				"type": "Point",
				"coordinates": [
					103.83401000002084,
					1.27585400417691
				]
			}
		},
		{
			"type": "Feature",
			"id": "10501",
			"properties": {
				"number": "10501",
				"name": "Blk 104",
				"road": "Jln Bt Merah",
				"services": [
					"121",
					"147",
					"167",
					"175",
					"196",
					"197",
					"961",
					"961M"
				]
			},
			"geometry": {
				"type": "Point",
				"coordinates": [
					103.82528065411316,
					1.28105845355429
				]
			}
		},
		{
			"type": "Feature",
			"id": "10519",
			"properties": {
				"number": "10519",
				"name": "Blk 4",
				"road": "Delta Rd",
				"services": [
					"139",
					"14",
					"32",
					"65",
					"970"
				]
			},
			"geometry": {
				"type": "Point",
				"coordinates": [
					103.826122,
					1.291728
				]
			}
		},
		{
			"type": "Feature",
			"id": "10599",
			"properties": {
				"number": "10599",
				"name": "Opp Blk 36",
				"road": "Jln Rumah Tinggi",
				"services": [
					"63",
					"63A"
				]
			},
			"geometry": {
				"type": "Point",
				"coordinates": [
					103.80924997344987,
					1.28883435010664
				]
			}
		},
		{
			"type": "Feature",
			"id": "10651",
			"properties": {
				"number": "10651",
				"name": "Blk 161",
				"road": "Bt Merah Ctrl",
				"services": [
					"123",
					"139",
					"153",
					"16M",
					"198"
				]
			},
			"geometry": {
				"type": "Point",
				"coordinates": [
					103.81547665017668,
					1.28329993019059
				]
			}
		},
		{
			"type": "Feature",
			"id": "10659",
			"properties": {
				"number": "10659",
				"name": "Blk 1003",
				"road": "Bt Merah Ctrl",
				"services": [
					"123",
					"139",
					"153",
					"16M",
					"198"
				]
			},
			"geometry": {
				"type": "Point",
				"coordinates": [
					103.81472833301791,
					1.28362333298689
				]
			}
		},
		{
			"type": "Feature",
			"id": "11009",
			"properties": {
				"number": "11009",
				"name": "Ghim Moh Ter",
				"road": "Ghim Moh Rd",
				"services": [
					"100",
					"111",
					"92",
					"92A",
					"92B",
					"92M"
				]
			},
			"geometry": {
				"type": "Point",
				"coordinates": [
					103.78932237623975,
					1.3110673548964
				]
			}
		},
		{
			"type": "Feature",
			"id": "11019",
			"properties": {
				"number": "11019",
				"name": "Bef Blk 2",
				"road": "Jln Bt Merah",
				"services": [
					"123",
					"14",
					"147",
					"153",
					"196",
					"197",
					"198",
					"855",
					"961",
					"961M"
				]
			},
			"geometry": {
				"type": "Point",
				"coordinates": [
					103.80565677295323,
					1.28679632523156
				]
			}
		},
		{
			"type": "Feature",
			"id": "11021",
			"properties": {
				"number": "11021",
				"name": "Aft Queenstown NPC HQ",
				"road": "Queensway",
				"services": [
					"100",
					"123",
					"147",
					"153",
					"196",
					"198",
					"51",
					"61",
					"855",
					"93",
					"961",
					"961M"
				]
			},
			"geometry": {
				"type": "Point",
				"coordinates": [
					103.80228694398484,
					1.28941805603102
				]
			}
		},
		{
			"type": "Feature",
			"id": "11029",
			"properties": {
				"number": "11029",
				"name": "Blk 166",
				"road": "Queensway",
				"services": [
					"100",
					"123",
					"147",
					"153",
					"196",
					"198",
					"51",
					"61",
					"64",
					"855",
					"93",
					"961",
					"961M"
				]
			},
			"geometry": {
				"type": "Point",
				"coordinates": [
					103.80202111098815,
					1.29013472201419
				]
			}
		},
		{
			"type": "Feature",
			"id": "11031",
			"properties": {
				"number": "11031",
				"name": "Opp Queen's Cl",
				"road": "Queensway",
				"services": [
					"100",
					"123",
					"147",
					"153",
					"196",
					"198",
					"51",
					"61",
					"855",
					"93",
					"961",
					"961M"
				]
			},
			"geometry": {
				"type": "Point",
				"coordinates": [
					103.80045500000118,
					1.29119666696879
				]
			}
		},
		{
			"type": "Feature",
			"id": "11039",
			"properties": {
				"number": "11039",
				"name": "Blk 19",
				"road": "Queensway",
				"services": [
					"100",
					"123",
					"147",
					"153",
					"196",
					"198",
					"51",
					"61",
					"855",
					"93",
					"961",
					"961M"
				]
			},
			"geometry": {
				"type": "Point",
				"coordinates": [
					103.79998683928974,
					1.29245762862665
				]
			}
		},
		{
			"type": "Feature",
			"id": "11041",
			"properties": {
				"number": "11041",
				"name": "Aft C'wealth Dr",
				"road": "Queensway",
				"services": [
					"100",
					"123",
					"147",
					"153",
					"196",
					"198",
					"51",
					"855",
					"93",
					"961",
					"961M"
				]
			},
			"geometry": {
				"type": "Point",
				"coordinates": [
					103.79952333299494,
					1.29624499998226
				]
			}
		},
		{
			"type": "Feature",
			"id": "11049",
			"properties": {
				"number": "11049",
				"name": "Opp Blessed Sacrament Ch",
				"road": "Queensway",
				"services": [
					"100",
					"123",
					"147",
					"153",
					"196",
					"198",
					"51",
					"61",
					"855",
					"93",
					"961",
					"961M"
				]
			},
			"geometry": {
				"type": "Point",
				"coordinates": [
					103.79952549937242,
					1.2954609366563
				]
			}
		},
		{
			"type": "Feature",
			"id": "11051",
			"properties": {
				"number": "11051",
				"name": "Opp Queenstown Polyclinic",
				"road": "Queensway",
				"services": [
					"100",
					"123",
					"147",
					"153",
					"196",
					"198",
					"51",
					"855",
					"93",
					"961",
					"961M"
				]
			},
			"geometry": {
				"type": "Point",
				"coordinates": [
					103.8002979755481,
					1.29872166703909
				]
			}
		},
		{
			"type": "Feature",
			"id": "11059",
			"properties": {
				"number": "11059",
				"name": "Queenstown Polyclinic",
				"road": "Queensway",
				"services": [
					"100",
					"123",
					"147",
					"153",
					"196",
					"198",
					"51",
					"61",
					"855",
					"93",
					"961",
					"961M"
				]
			},
			"geometry": {
				"type": "Point",
				"coordinates": [
					103.80097389222824,
					1.29882892782979
				]
			}
		},
		{
			"type": "Feature",
			"id": "11061",
			"properties": {
				"number": "11061",
				"name": "Opp Queensway Sec Sch",
				"road": "Queensway",
				"services": [
					"105",
					"122",
					"123",
					"153",
					"186",
					"195",
					"195A",
					"855",
					"93",
					"961",
					"961M"
				]
			},
			"geometry": {
				"type": "Point",
				"coordinates": [
					103.80118694402536,
					1.30265777802206
				]
			}
		},
		{
			"type": "Feature",
			"id": "11069",
			"properties": {
				"number": "11069",
				"name": "Queensway Sec Sch",
				"road": "Queensway",
				"services": [
					"105",
					"123",
					"153",
					"186",
					"855",
					"93",
					"961",
					"961M"
				]
			},
			"geometry": {
				"type": "Point",
				"coordinates": [
					103.80161762237655,
					1.30236853162324
				]
			}
		},
		{
			"type": "Feature",
			"id": "11071",
			"properties": {
				"number": "11071",
				"name": "Blk 97",
				"road": "Queensway",
				"services": [
					"105",
					"123",
					"153",
					"186",
					"855",
					"93",
					"961",
					"961M"
				]
			},
			"geometry": {
				"type": "Point",
				"coordinates": [
					103.80170944396954,
					1.30621305601609
				]
			}
		},
		{
			"type": "Feature",
			"id": "11079",
			"properties": {
				"number": "11079",
				"name": "Opp Blk 95",
				"road": "Queensway",
				"services": [
					"105",
					"123",
					"153",
					"186",
					"855",
					"93",
					"961",
					"961M"
				]
			},
			"geometry": {
				"type": "Point",
				"coordinates": [
					103.80185250000659,
					1.305441389003
				]
			}
		},
		{
			"type": "Feature",
			"id": "11081",
			"properties": {
				"number": "11081",
				"name": "Viz Holland",
				"road": "Queensway",
				"services": [
					"105",
					"123",
					"153",
					"186",
					"855",
					"93",
					"961",
					"961M"
				]
			},
			"geometry": {
				"type": "Point",
				"coordinates": [
					103.80258027799627,
					1.30851972202313
				]
			}
		},
		{
			"type": "Feature",
			"id": "11089",
			"properties": {
				"number": "11089",
				"name": "Opp Holland Hill Lodge",
				"road": "Queensway",
				"services": [
					"105",
					"123",
					"153",
					"186",
					"855",
					"93",
					"961",
					"961M"
				]
			},
			"geometry": {
				"type": "Point",
				"coordinates": [
					103.80334087354639,
					1.30946135492693
				]
			}
		},
		{
			"type": "Feature",
			"id": "11091",
			"properties": {
				"number": "11091",
				"name": "Leedon Green",
				"road": "Farrer Rd",
				"services": [
					"153",
					"165",
					"174",
					"186",
					"48",
					"855",
					"93",
					"961",
					"961M"
				]
			},
			"geometry": {
				"type": "Point",
				"coordinates": [
					103.80367378215983,
					1.31219444050072
				]
			}
		},
		{
			"type": "Feature",
			"id": "11099",
			"properties": {
				"number": "11099",
				"name": "Opp Leedon Green",
				"road": "Farrer Rd",
				"services": [
					"153",
					"165",
					"174",
					"186",
					"48",
					"855",
					"93",
					"961",
					"961M"
				]
			},
			"geometry": {
				"type": "Point",
				"coordinates": [
					103.80437666697586,
					1.31305333300118
				]
			}
		},
		{
			"type": "Feature",
			"id": "11101",
			"properties": {
				"number": "11101",
				"name": "Farrer Rd Mkt",
				"road": "Farrer Rd",
				"services": [
					"153",
					"165",
					"174",
					"186",
					"48",
					"855",
					"93",
					"961",
					"961M"
				]
			},
			"geometry": {
				"type": "Point",
				"coordinates": [
					103.80596012189226,
					1.31614971080385
				]
			}
		},
		{
			"type": "Feature",
			"id": "11109",
			"properties": {
				"number": "11109",
				"name": "Spanish Village",
				"road": "Farrer Rd",
				"services": [
					"153",
					"165",
					"174",
					"186",
					"48",
					"855",
					"93",
					"961",
					"961M"
				]
			},
			"geometry": {
				"type": "Point",
				"coordinates": [
					103.80574305602846,
					1.31552472199926
				]
			}
		},
		{
			"type": "Feature",
			"id": "11111",
			"properties": {
				"number": "11111",
				"name": "Farrer Rd Stn Exit B",
				"road": "Farrer Rd",
				"services": [
					"153",
					"165",
					"174",
					"186",
					"48",
					"855",
					"93",
					"961",
					"961M"
				]
			},
			"geometry": {
				"type": "Point",
				"coordinates": [
					103.80771866952543,
					1.31780157259006
				]
			}
		},
		{
			"type": "Feature",
			"id": "11119",
			"properties": {
				"number": "11119",
				"name": "Farrer Rd Stn Exit A",
				"road": "Farrer Rd",
				"services": [
					"153",
					"165",
					"174",
					"186",
					"48",
					"855",
					"93",
					"961",
					"961M"
				]
			},
			"geometry": {
				"type": "Point",
				"coordinates": [
					103.80785606728587,
					1.31747833490912
				]
			}
		},
		{
			"type": "Feature",
			"id": "11131",
			"properties": {
				"number": "11131",
				"name": "Queens Condo",
				"road": "C'wealth Ave",
				"services": [
					"111",
					"145",
					"186",
					"195",
					"195A",
					"51",
					"970"
				]
			},
			"geometry": {
				"type": "Point",
				"coordinates": [
					103.80706694417339,
					1.2928849988829
				]
			}
		},
		{
			"type": "Feature",
			"id": "11139",
			"properties": {
				"number": "11139",
				"name": "Blk 53A CP",
				"road": "C'wealth Ave",
				"services": [
					"111",
					"145",
					"186",
					"51",
					"970"
				]
			},
			"geometry": {
				"type": "Point",
				"coordinates": [
					103.80744694841283,
					1.2931986108138
				]
			}
		},
		{
			"type": "Feature",
			"id": "11141",
			"properties": {
				"number": "11141",
				"name": "Queenstown Stn Exit A/D",
				"road": "C'wealth Ave",
				"services": [
					"111",
					"145",
					"186",
					"195",
					"195A",
					"51",
					"970"
				]
			},
			"geometry": {
				"type": "Point",
				"coordinates": [
					103.80582510668431,
					1.29463705145492
				]
			}
		},
		{
			"type": "Feature",
			"id": "11149",
			"properties": {
				"number": "11149",
				"name": "Queenstown Stn Exit B/C",
				"road": "C'wealth Ave",
				"services": [
					"111",
					"145",
					"186",
					"195",
					"195A",
					"51",
					"970"
				]
			},
			"geometry": {
				"type": "Point",
				"coordinates": [
					103.80596280094791,
					1.29506407111991
				]
			}
		},
		{
			"type": "Feature",
			"id": "11151",
			"properties": {
				"number": "11151",
				"name": "Blk 42",
				"road": "C'wealth Ave",
				"services": [
					"111",
					"145",
					"186",
					"195",
					"195A",
					"51",
					"970"
				]
			},
			"geometry": {
				"type": "Point",
				"coordinates": [
					103.80247592925552,
					1.29863585845076
				]
			}
		},
		{
			"type": "Feature",
			"id": "11159",
			"properties": {
				"number": "11159",
				"name": "Aft Ch Of Our Saviour",
				"road": "C'wealth Ave",
				"services": [
					"111",
					"145",
					"186",
					"195",
					"195A",
					"51",
					"970"
				]
			},
			"geometry": {
				"type": "Point",
				"coordinates": [
					103.80362656855579,
					1.29800440816386
				]
			}
		},
		{
			"type": "Feature",
			"id": "11161",
			"properties": {
				"number": "11161",
				"name": "C'Wealth Stn Exit A/D",
				"road": "C'wealth Ave",
				"services": [
					"100",
					"105",
					"111",
					"145",
					"147",
					"196",
					"198",
					"32",
					"61",
					"970"
				]
			},
			"geometry": {
				"type": "Point",
				"coordinates": [
					103.79839083302141,
					1.30213305598263
				]
			}
		},
		{
			"type": "Feature",
			"id": "11169",
			"properties": {
				"number": "11169",
				"name": "C'Wealth Stn Exit B/C",
				"road": "C'wealth Ave",
				"services": [
					"100",
					"105",
					"111",
					"122",
					"145",
					"147",
					"195",
					"195A",
					"196",
					"198",
					"32",
					"61",
					"970"
				]
			},
			"geometry": {
				"type": "Point",
				"coordinates": [
					103.79838166697326,
					1.30270500001823
				]
			}
		},
		{
			"type": "Feature",
			"id": "11171",
			"properties": {
				"number": "11171",
				"name": "Opp Blk 7B",
				"road": "C'wealth Ave",
				"services": [
					"100",
					"105",
					"111",
					"145",
					"147",
					"196",
					"198",
					"32",
					"61",
					"970"
				]
			},
			"geometry": {
				"type": "Point",
				"coordinates": [
					103.79479722196947,
					1.30535666699303
				]
			}
		},
		{
			"type": "Feature",
			"id": "11179",
			"properties": {
				"number": "11179",
				"name": "Blk 8",
				"road": "C'wealth Ave",
				"services": [
					"100",
					"105",
					"111",
					"145",
					"147",
					"196",
					"198",
					"32",
					"61",
					"970"
				]
			},
			"geometry": {
				"type": "Point",
				"coordinates": [
					103.79427940117534,
					1.30627521395682
				]
			}
		},
		{
			"type": "Feature",
			"id": "11181",
			"properties": {
				"number": "11181",
				"name": "Opp Blk 43",
				"road": "C'wealth Ave",
				"services": [
					"100",
					"105",
					"106",
					"111",
					"147",
					"185",
					"191",
					"196",
					"198",
					"200",
					"200A",
					"74",
					"91",
					"95"
				]
			},
			"geometry": {
				"type": "Point",
				"coordinates": [
					103.79227638896938,
					1.30722333300814
				]
			}
		},
		{
			"type": "Feature",
			"id": "11189",
			"properties": {
				"number": "11189",
				"name": "Blk 43",
				"road": "C'wealth Ave",
				"services": [
					"100",
					"105",
					"106",
					"111",
					"145",
					"147",
					"185",
					"191",
					"196",
					"198",
					"200",
					"32",
					"74",
					"91",
					"95"
				]
			},
			"geometry": {
				"type": "Point",
				"coordinates": [
					103.79254222202354,
					1.30740138898924
				]
			}
		},
		{
			"type": "Feature",
			"id": "11191",
			"properties": {
				"number": "11191",
				"name": "The Star Vista",
				"road": "C'wealth Ave West",
				"services": [
					"105",
					"106",
					"14",
					"147",
					"185"
				]
			},
			"geometry": {
				"type": "Point",
				"coordinates": [
					103.7883731546267,
					1.30801640815091
				]
			}
		},
		{
			"type": "Feature",
			"id": "11199",
			"properties": {
				"number": "11199",
				"name": "Blk 15",
				"road": "C'wealth Ave West",
				"services": [
					"105",
					"106",
					"14",
					"147",
					"185"
				]
			},
			"geometry": {
				"type": "Point",
				"coordinates": [
					103.78843145303215,
					1.30837970735444
				]
			}
		},
		{
			"type": "Feature",
			"id": "11201",
			"properties": {
				"number": "11201",
				"name": "CSC Dempsey Clubhse",
				"road": "Holland Rd",
				"services": [
					"105",
					"106",
					"123",
					"174",
					"7",
					"75",
					"77"
				]
			},
			"geometry": {
				"type": "Point",
				"coordinates": [
					103.81186453577433,
					1.30692642897557
				]
			}
		},
		{
			"type": "Feature",
			"id": "11209",
			"properties": {
				"number": "11209",
				"name": "Opp Peirce Rd",
				"road": "Holland Rd",
				"services": [
					"105",
					"106",
					"123",
					"174",
					"7",
					"75",
					"77",
					"7B"
				]
			},
			"geometry": {
				"type": "Point",
				"coordinates": [
					103.81038349817638,
					1.30817280849852
				]
			}
		},
		{
			"type": "Feature",
			"id": "11211",
			"properties": {
				"number": "11211",
				"name": "Aft Peirce Rd",
				"road": "Holland Rd",
				"services": [
					"105",
					"106",
					"123",
					"174",
					"7",
					"75",
					"77"
				]
			},
			"geometry": {
				"type": "Point",
				"coordinates": [
					103.80939522851014,
					1.30838779885113
				]
			}
		},
		{
			"type": "Feature",
			"id": "11219",
			"properties": {
				"number": "11219",
				"name": "Great Eastern Mansions",
				"road": "Holland Rd",
				"services": [
					"105",
					"106",
					"123",
					"174",
					"7",
					"75",
					"77",
					"7B"
				]
			},
			"geometry": {
				"type": "Point",
				"coordinates": [
					103.80716407830104,
					1.30988506093033
				]
			}
		},
		{
			"type": "Feature",
			"id": "11221",
			"properties": {
				"number": "11221",
				"name": "Lien Twrs",
				"road": "Holland Rd",
				"services": [
					"105",
					"106",
					"123",
					"174",
					"7",
					"75",
					"77"
				]
			},
			"geometry": {
				"type": "Point",
				"coordinates": [
					103.805506,
					1.310019
				]
			}
		},
		{
			"type": "Feature",
			"id": "11229",
			"properties": {
				"number": "11229",
				"name": "Sommerville Pk",
				"road": "Holland Rd",
				"services": [
					"105",
					"106",
					"123",
					"174",
					"7",
					"75",
					"77",
					"7B"
				]
			},
			"geometry": {
				"type": "Point",
				"coordinates": [
					103.80522542227166,
					1.31060065879064
				]
			}
		},
		{
			"type": "Feature",
			"id": "11231",
			"properties": {
				"number": "11231",
				"name": "Aft Hyll on Holland",
				"road": "Holland Rd",
				"services": [
					"106",
					"165",
					"48",
					"7",
					"75",
					"77"
				]
			},
			"geometry": {
				"type": "Point",
				"coordinates": [
					103.80119919777994,
					1.31115316310297
				]
			}
		},
		{
			"type": "Feature",
			"id": "11239",
			"properties": {
				"number": "11239",
				"name": "Fairlodge",
				"road": "Holland Rd",
				"services": [
					"106",
					"165",
					"48",
					"7",
					"75",
					"77",
					"7B"
				]
			},
			"geometry": {
				"type": "Point",
				"coordinates": [
					103.80165517330278,
					1.31152857401616
				]
			}
		},
		{
			"type": "Feature",
			"id": "11259",
			"properties": {
				"number": "11259",
				"name": "Opp Blk 21",
				"road": "Holland Dr",
				"services": [
					"95"
				]
			},
			"geometry": {
				"type": "Point",
				"coordinates": [
					103.79274002213417,
					1.31119887945564
				]
			}
		},
		{
			"type": "Feature",
			"id": "11261",
			"properties": {
				"number": "11261",
				"name": "Holland Village",
				"road": "Holland Rd",
				"services": [
					"165",
					"61",
					"7",
					"75",
					"77",
					"95",
					"970"
				]
			},
			"geometry": {
				"type": "Point",
				"coordinates": [
					103.79444621838488,
					1.31223168432152
				]
			}
		},
		{
			"type": "Feature",
			"id": "11269",
			"properties": {
				"number": "11269",
				"name": "Opp Holland Village",
				"road": "Holland Rd",
				"services": [
					"165",
					"61",
					"7",
					"75",
					"77",
					"7B",
					"970"
				]
			},
			"geometry": {
				"type": "Point",
				"coordinates": [
					103.79453796697418,
					1.31256112590195
				]
			}
		},
		{
			"type": "Feature",
			"id": "11271",
			"properties": {
				"number": "11271",
				"name": "Aft East Sussex Lane",
				"road": "Holland Rd",
				"services": [
					"165",
					"61",
					"7",
					"75",
					"77",
					"970"
				]
			},
			"geometry": {
				"type": "Point",
				"coordinates": [
					103.79008416699845,
					1.31473444398294
				]
			}
		},
		{
			"type": "Feature",
			"id": "11279",
			"properties": {
				"number": "11279",
				"name": "Aft Coronation Rd West",
				"road": "Holland Rd",
				"services": [
					"165",
					"61",
					"7",
					"75",
					"77",
					"7B",
					"970"
				]
			},
			"geometry": {
				"type": "Point",
				"coordinates": [
					103.79069259768109,
					1.31466878886978
				]
			}
		},
		{
			"type": "Feature",
			"id": "11281",
			"properties": {
				"number": "11281",
				"name": "Aft Tan Boon Chong Ave",
				"road": "Holland Rd",
				"services": [
					"165",
					"61",
					"7",
					"75"
				]
			},
			"geometry": {
				"type": "Point",
				"coordinates": [
					103.78852194399074,
					1.31622694399746
				]
			}
		},
		{
			"type": "Feature",
			"id": "11289",
			"properties": {
				"number": "11289",
				"name": "Opp Tan Boon Chong Ave",
				"road": "Holland Rd",
				"services": [
					"165",
					"61",
					"7",
					"75",
					"77",
					"7B",
					"970"
				]
			},
			"geometry": {
				"type": "Point",
				"coordinates": [
					103.78904342517946,
					1.31618891387774
				]
			}
		},
		{
			"type": "Feature",
			"id": "11291",
			"properties": {
				"number": "11291",
				"name": "Cold Storage Jelita",
				"road": "Holland Rd",
				"services": [
					"156",
					"165",
					"61",
					"7",
					"75"
				]
			},
			"geometry": {
				"type": "Point",
				"coordinates": [
					103.78592333300938,
					1.31792777802094
				]
			}
		},
		{
			"type": "Feature",
			"id": "11299",
			"properties": {
				"number": "11299",
				"name": "Opp Cold Storage Jelita",
				"road": "Holland Rd",
				"services": [
					"156",
					"165",
					"61",
					"7",
					"75",
					"7B"
				]
			},
			"geometry": {
				"type": "Point",
				"coordinates": [
					103.78558843680226,
					1.31826975603165
				]
			}
		},
		{
			"type": "Feature",
			"id": "11301",
			"properties": {
				"number": "11301",
				"name": "Hse No. 578",
				"road": "Sixth Ave",
				"services": [
					"156",
					"77",
					"970"
				]
			},
			"geometry": {
				"type": "Point",
				"coordinates": [
					103.78790067716272,
					1.31803972093441
				]
			}
		},
		{
			"type": "Feature",
			"id": "11309",
			"properties": {
				"number": "11309",
				"name": "Hse No. 589",
				"road": "Sixth Ave",
				"services": [
					"156",
					"77",
					"970"
				]
			},
			"geometry": {
				"type": "Point",
				"coordinates": [
					103.78842993526158,
					1.31862443850443
				]
			}
		},
		{
			"type": "Feature",
			"id": "11311",
			"properties": {
				"number": "11311",
				"name": "Hse No. 532",
				"road": "Sixth Ave",
				"services": [
					"156",
					"77",
					"970"
				]
			},
			"geometry": {
				"type": "Point",
				"coordinates": [
					103.78918694402276,
					1.31989638898836
				]
			}
		},
		{
			"type": "Feature",
			"id": "11319",
			"properties": {
				"number": "11319",
				"name": "Opp Hse No. 516",
				"road": "Sixth Ave",
				"services": [
					"156",
					"77",
					"970"
				]
			},
			"geometry": {
				"type": "Point",
				"coordinates": [
					103.78959970624805,
					1.3203063798654
				]
			}
		},
		{
			"type": "Feature",
			"id": "11321",
			"properties": {
				"number": "11321",
				"name": "Opp Regent Villa",
				"road": "Sixth Ave",
				"services": [
					"156",
					"77",
					"970"
				]
			},
			"geometry": {
				"type": "Point",
				"coordinates": [
					103.79010361098513,
					1.32123138902898
				]
			}
		},
		{
			"type": "Feature",
			"id": "11329",
			"properties": {
				"number": "11329",
				"name": "Regent Villa",
				"road": "Sixth Ave",
				"services": [
					"156",
					"77",
					"970"
				]
			},
			"geometry": {
				"type": "Point",
				"coordinates": [
					103.7909809400838,
					1.32236139685053
				]
			}
		},
		{
			"type": "Feature",
			"id": "11331",
			"properties": {
				"number": "11331",
				"name": "Opp Dynasty Gdn II",
				"road": "Sixth Ave",
				"services": [
					"156",
					"77",
					"970"
				]
			},
			"geometry": {
				"type": "Point",
				"coordinates": [
					103.79144668575621,
					1.32320918827361
				]
			}
		},
		{
			"type": "Feature",
			"id": "11339",
			"properties": {
				"number": "11339",
				"name": "Dynasty Lodge",
				"road": "Sixth Ave",
				"services": [
					"156",
					"77",
					"970"
				]
			},
			"geometry": {
				"type": "Point",
				"coordinates": [
					103.79204722198944,
					1.32398638897489
				]
			}
		},
		{
			"type": "Feature",
			"id": "11341",
			"properties": {
				"number": "11341",
				"name": "Garlick Ville",
				"road": "Sixth Ave",
				"services": [
					"156",
					"77",
					"970"
				]
			},
			"geometry": {
				"type": "Point",
				"coordinates": [
					103.79282790894261,
					1.32551506183496
				]
			}
		},
		{
			"type": "Feature",
			"id": "11349",
			"properties": {
				"number": "11349",
				"name": "Opp Garlick Ville",
				"road": "Sixth Ave",
				"services": [
					"156",
					"77",
					"970"
				]
			},
			"geometry": {
				"type": "Point",
				"coordinates": [
					103.79304,
					1.325628
				]
			}
		},
		{
			"type": "Feature",
			"id": "11351",
			"properties": {
				"number": "11351",
				"name": "Blk 13",
				"road": "Ghim Moh Rd",
				"services": [
					"100",
					"111",
					"92",
					"92A",
					"92M"
				]
			},
			"geometry": {
				"type": "Point",
				"coordinates": [
					103.78945112775229,
					1.30934571218561
				]
			}
		},
		{
			"type": "Feature",
			"id": "11359",
			"properties": {
				"number": "11359",
				"name": "Opp Blk 13",
				"road": "Ghim Moh Rd",
				"services": [
					"100",
					"111",
					"92",
					"92A",
					"92B",
					"92M"
				]
			},
			"geometry": {
				"type": "Point",
				"coordinates": [
					103.78968608347117,
					1.30931022636473
				]
			}
		},
		{
			"type": "Feature",
			"id": "11361",
			"properties": {
				"number": "11361",
				"name": "Buona Vista Stn Exit C",
				"road": "Nth Buona Vista Rd",
				"services": [
					"14",
					"191",
					"196",
					"198",
					"200",
					"74",
					"91",
					"92",
					"92A",
					"92M",
					"95",
					"95B"
				]
			},
			"geometry": {
				"type": "Point",
				"coordinates": [
					103.79058123542397,
					1.30649698638726
				]
			}
		},
		{
			"type": "Feature",
			"id": "11369",
			"properties": {
				"number": "11369",
				"name": "Buona Vista Stn Exit D",
				"road": "Nth Buona Vista Rd",
				"services": [
					"14",
					"191",
					"196",
					"198",
					"200",
					"200A",
					"74",
					"91",
					"92",
					"92A",
					"92B",
					"92M",
					"95"
				]
			},
			"geometry": {
				"type": "Point",
				"coordinates": [
					103.79084827741467,
					1.3063259638605
				]
			}
		},
		{
			"type": "Feature",
			"id": "11379",
			"properties": {
				"number": "11379",
				"name": "Buona Vista Ter",
				"road": "Nth Buona Vista Rd",
				"services": [
					"145",
					"185",
					"191",
					"200",
					"200A",
					"32",
					"48",
					"74",
					"91"
				]
			},
			"geometry": {
				"type": "Point",
				"coordinates": [
					103.79236323128613,
					1.30917002463976
				]
			}
		},
		{
			"type": "Feature",
			"id": "11381",
			"properties": {
				"number": "11381",
				"name": "Blk 10A",
				"road": "Holland Dr",
				"services": [
					"185",
					"191",
					"200",
					"200A",
					"48",
					"74",
					"91",
					"95"
				]
			},
			"geometry": {
				"type": "Point",
				"coordinates": [
					103.79328294102335,
					1.30841137865065
				]
			}
		},
		{
			"type": "Feature",
			"id": "11389",
			"properties": {
				"number": "11389",
				"name": "Buona Vista CC",
				"road": "Holland Dr",
				"services": [
					"145",
					"185",
					"191",
					"200",
					"32",
					"48",
					"74",
					"91"
				]
			},
			"geometry": {
				"type": "Point",
				"coordinates": [
					103.7929321687807,
					1.30906501014268
				]
			}
		},
		{
			"type": "Feature",
			"id": "11401",
			"properties": {
				"number": "11401",
				"name": "Holland V Stn/Blk12",
				"road": "Holland Ave",
				"services": [
					"106",
					"48",
					"61",
					"95",
					"970"
				]
			},
			"geometry": {
				"type": "Point",
				"coordinates": [
					103.79507444402137,
					1.30906722197973
				]
			}
		},
		{
			"type": "Feature",
			"id": "11409",
			"properties": {
				"number": "11409",
				"name": "Blk 9",
				"road": "Holland Ave",
				"services": [
					"106",
					"61",
					"970"
				]
			},
			"geometry": {
				"type": "Point",
				"coordinates": [
					103.79432583301961,
					1.3076441670056
				]
			}
		},
		{
			"type": "Feature",
			"id": "11419",
			"properties": {
				"number": "11419",
				"name": "Holland V Stn Exit A",
				"road": "Holland Ave",
				"services": [
					"106",
					"48",
					"61",
					"970"
				]
			},
			"geometry": {
				"type": "Point",
				"coordinates": [
					103.79604399202725,
					1.31102981378085
				]
			}
		},
		{
			"type": "Feature",
			"id": "11429",
			"properties": {
				"number": "11429",
				"name": "Opp Blk 115B",
				"road": "C'wealth Dr",
				"services": [
					"122",
					"195",
					"195A"
				]
			},
			"geometry": {
				"type": "Point",
				"coordinates": [
					103.7983633329984,
					1.30454000002017
				]
			}
		},
		{
			"type": "Feature",
			"id": "11439",
			"properties": {
				"number": "11439",
				"name": "Blk 92",
				"road": "C'wealth Dr",
				"services": [
					"122",
					"195",
					"195A"
				]
			},
			"geometry": {
				"type": "Point",
				"coordinates": [
					103.80029777801455,
					1.30606472198412
				]
			}
		},
		{
			"type": "Feature",
			"id": "11441",
			"properties": {
				"number": "11441",
				"name": "Blk 58",
				"road": "C'wealth Dr",
				"services": [
					"61"
				]
			},
			"geometry": {
				"type": "Point",
				"coordinates": [
					103.79754055603178,
					1.29780416697573
				]
			}
		},
		{
			"type": "Feature",
			"id": "11449",
			"properties": {
				"number": "11449",
				"name": "Blk 37B",
				"road": "C'wealth Dr",
				"services": [
					"61"
				]
			},
			"geometry": {
				"type": "Point",
				"coordinates": [
					103.79760333302292,
					1.29840527801842
				]
			}
		},
		{
			"type": "Feature",
			"id": "11451",
			"properties": {
				"number": "11451",
				"name": "Blk 72",
				"road": "C'wealth Dr",
				"services": [
					"61"
				]
			},
			"geometry": {
				"type": "Point",
				"coordinates": [
					103.79707277801477,
					1.30034972200468
				]
			}
		},
		{
			"type": "Feature",
			"id": "11459",
			"properties": {
				"number": "11459",
				"name": "Blk 50",
				"road": "C'wealth Dr",
				"services": [
					"61"
				]
			},
			"geometry": {
				"type": "Point",
				"coordinates": [
					103.7968519439962,
					1.30097055597804
				]
			}
		},
		{
			"type": "Feature",
			"id": "11469",
			"properties": {
				"number": "11469",
				"name": "Queensway Sec Sch",
				"road": "Margaret Dr",
				"services": [
					"122",
					"32"
				]
			},
			"geometry": {
				"type": "Point",
				"coordinates": [
					103.80188584326886,
					1.30113503392421
				]
			}
		},
		{
			"type": "Feature",
			"id": "11471",
			"properties": {
				"number": "11471",
				"name": "Opp The Fisherman Ch",
				"road": "Margaret Dr",
				"services": [
					"122",
					"32"
				]
			},
			"geometry": {
				"type": "Point",
				"coordinates": [
					103.80315156606572,
					1.29951892595663
				]
			}
		},
		{
			"type": "Feature",
			"id": "11481",
			"properties": {
				"number": "11481",
				"name": "Queenstown Lib",
				"road": "Margaret Dr",
				"services": [
					"122",
					"32"
				]
			},
			"geometry": {
				"type": "Point",
				"coordinates": [
					103.8060054035445,
					1.29811518922625
				]
			}
		},
		{
			"type": "Feature",
			"id": "11489",
			"properties": {
				"number": "11489",
				"name": "Blk 30",
				"road": "Margaret Dr",
				"services": [
					"122",
					"32"
				]
			},
			"geometry": {
				"type": "Point",
				"coordinates": [
					103.804395,
					1.298817
				]
			}
		},
		{
			"type": "Feature",
			"id": "11491",
			"properties": {
				"number": "11491",
				"name": "Opp Queenstown Pr Sch",
				"road": "Margaret Dr",
				"services": [
					"122",
					"32"
				]
			},
			"geometry": {
				"type": "Point",
				"coordinates": [
					103.8076364994003,
					1.29710202847016
				]
			}
		},
		{
			"type": "Feature",
			"id": "11499",
			"properties": {
				"number": "11499",
				"name": "Queenstown Pr Sch",
				"road": "Margaret Dr",
				"services": [
					"122",
					"32"
				]
			},
			"geometry": {
				"type": "Point",
				"coordinates": [
					103.80788663334461,
					1.29685053610951
				]
			}
		},
		{
			"type": "Feature",
			"id": "11511",
			"properties": {
				"number": "11511",
				"name": "Alexandra Hosp",
				"road": "Alexandra Rd",
				"services": [
					"100",
					"120",
					"14",
					"195",
					"195A",
					"197",
					"33",
					"33A",
					"51",
					"61",
					"93"
				]
			},
			"geometry": {
				"type": "Point",
				"coordinates": [
					103.80251884462385,
					1.2859468736223
				]
			}
		},
		{
			"type": "Feature",
			"id": "11519",
			"properties": {
				"number": "11519",
				"name": "Opp Queensway Shop Ctr",
				"road": "Alexandra Rd",
				"services": [
					"100",
					"120",
					"14",
					"195",
					"195A",
					"197",
					"33",
					"51",
					"61",
					"93"
				]
			},
			"geometry": {
				"type": "Point",
				"coordinates": [
					103.80334129425303,
					1.28665742231261
				]
			}
		},
		{
			"type": "Feature",
			"id": "11521",
			"properties": {
				"number": "11521",
				"name": "Anchorpoint",
				"road": "Alexandra Rd",
				"services": [
					"120",
					"195",
					"195A",
					"33",
					"33A",
					"64"
				]
			},
			"geometry": {
				"type": "Point",
				"coordinates": [
					103.80543003047167,
					1.2885710102662
				]
			}
		},
		{
			"type": "Feature",
			"id": "11529",
			"properties": {
				"number": "11529",
				"name": "Bef IKEA Ind Bldg",
				"road": "Alexandra Rd",
				"services": [
					"120",
					"195",
					"195A",
					"33"
				]
			},
			"geometry": {
				"type": "Point",
				"coordinates": [
					103.8060909305284,
					1.28903120647732
				]
			}
		},
		{
			"type": "Feature",
			"id": "11531",
			"properties": {
				"number": "11531",
				"name": "Opp Lea Hin Hardware Fty",
				"road": "Alexandra Rd",
				"services": [
					"120",
					"195",
					"195A",
					"33",
					"33A",
					"64"
				]
			},
			"geometry": {
				"type": "Point",
				"coordinates": [
					103.80753083302794,
					1.29108833302538
				]
			}
		},
		{
			"type": "Feature",
			"id": "11539",
			"properties": {
				"number": "11539",
				"name": "Lea Hin Hardware Fty",
				"road": "Alexandra Rd",
				"services": [
					"120",
					"195",
					"195A",
					"33"
				]
			},
			"geometry": {
				"type": "Point",
				"coordinates": [
					103.80786180498694,
					1.29117049549107
				]
			}
		},
		{
			"type": "Feature",
			"id": "11541",
			"properties": {
				"number": "11541",
				"name": "Opp Queens",
				"road": "Stirling Rd",
				"services": [
					"64"
				]
			},
			"geometry": {
				"type": "Point",
				"coordinates": [
					103.80578500139798,
					1.29235984013148
				]
			}
		},
		{
			"type": "Feature",
			"id": "11551",
			"properties": {
				"number": "11551",
				"name": "Tiong Ghee Tp",
				"road": "Stirling Rd",
				"services": [
					"64"
				]
			},
			"geometry": {
				"type": "Point",
				"coordinates": [
					103.8040959835246,
					1.29126703051517
				]
			}
		},
		{
			"type": "Feature",
			"id": "11561",
			"properties": {
				"number": "11561",
				"name": "Blk 166",
				"road": "Stirling Rd",
				"services": [
					"64"
				]
			},
			"geometry": {
				"type": "Point",
				"coordinates": [
					103.80247592924283,
					1.29107396045212
				]
			}
		},
		{
			"type": "Feature",
			"id": "11579",
			"properties": {
				"number": "11579",
				"name": "Blk 158",
				"road": "Mei Ling St",
				"services": [
					"64"
				]
			},
			"geometry": {
				"type": "Point",
				"coordinates": [
					103.80303321252237,
					1.29256489056942
				]
			}
		},
		{
			"type": "Feature",
			"id": "11589",
			"properties": {
				"number": "11589",
				"name": "Blk 157",
				"road": "Mei Ling St",
				"services": [
					"64"
				]
			},
			"geometry": {
				"type": "Point",
				"coordinates": [
					103.80400524995773,
					1.292991881006
				]
			}
		},
		{
			"type": "Feature",
			"id": "11599",
			"properties": {
				"number": "11599",
				"name": "Blk 153",
				"road": "Mei Ling St",
				"services": [
					"64"
				]
			},
			"geometry": {
				"type": "Point",
				"coordinates": [
					103.80314888900556,
					1.29420805600708
				]
			}
		},
		{
			"type": "Feature",
			"id": "11609",
			"properties": {
				"number": "11609",
				"name": "Blk 163",
				"road": "Mei Chin Rd",
				"services": [
					"64"
				]
			},
			"geometry": {
				"type": "Point",
				"coordinates": [
					103.80212194401808,
					1.29188972202709
				]
			}
		},
		{
			"type": "Feature",
			"id": "12021",
			"properties": {
				"number": "12021",
				"name": "Bef Moonbeam Wk",
				"road": "Holland Rd",
				"services": [
					"156",
					"165",
					"61",
					"7",
					"75"
				]
			},
			"geometry": {
				"type": "Point",
				"coordinates": [
					103.78243055601493,
					1.31907638897016
				]
			}
		},
		{
			"type": "Feature",
			"id": "12029",
			"properties": {
				"number": "12029",
				"name": "Opp Moonbeam Wk",
				"road": "Holland Rd",
				"services": [
					"156",
					"165",
					"61",
					"7",
					"75",
					"7B"
				]
			},
			"geometry": {
				"type": "Point",
				"coordinates": [
					103.7824392109149,
					1.31958369390988
				]
			}
		},
		{
			"type": "Feature",
			"id": "12031",
			"properties": {
				"number": "12031",
				"name": "Pandan Valley Condo",
				"road": "Ulu Pandan Rd",
				"services": [
					"156",
					"165",
					"61",
					"7",
					"75",
					"92",
					"92M"
				]
			},
			"geometry": {
				"type": "Point",
				"coordinates": [
					103.7796285552172,
					1.3208008510991
				]
			}
		},
		{
			"type": "Feature",
			"id": "12039",
			"properties": {
				"number": "12039",
				"name": "Opp Pandan Valley Condo",
				"road": "Ulu Pandan Rd",
				"services": [
					"156",
					"165",
					"61",
					"7",
					"75",
					"7B"
				]
			},
			"geometry": {
				"type": "Point",
				"coordinates": [
					103.78018998386835,
					1.32104526183447
				]
			}
		},
		{
			"type": "Feature",
			"id": "12041",
			"properties": {
				"number": "12041",
				"name": "Aft Pandan Valley",
				"road": "Ulu Pandan Rd",
				"services": [
					"156",
					"165",
					"61",
					"7",
					"75"
				]
			},
			"geometry": {
				"type": "Point",
				"coordinates": [
					103.77653442120544,
					1.32049172685895
				]
			}
		},
		{
			"type": "Feature",
			"id": "12049",
			"properties": {
				"number": "12049",
				"name": "Opp Pandan Valley",
				"road": "Ulu Pandan Rd",
				"services": [
					"156",
					"165",
					"61",
					"7",
					"75",
					"7B"
				]
			},
			"geometry": {
				"type": "Point",
				"coordinates": [
					103.77655888991401,
					1.32091131971837
				]
			}
		},
		{
			"type": "Feature",
			"id": "12051",
			"properties": {
				"number": "12051",
				"name": "Pine Gr Condo",
				"road": "Ulu Pandan Rd",
				"services": [
					"156",
					"165",
					"61",
					"7",
					"75"
				]
			},
			"geometry": {
				"type": "Point",
				"coordinates": [
					103.7750613105408,
					1.3204289505949
				]
			}
		},
		{
			"type": "Feature",
			"id": "12059",
			"properties": {
				"number": "12059",
				"name": "Opp Pine Gr Condo",
				"road": "Ulu Pandan Rd",
				"services": [
					"156",
					"165",
					"61",
					"7",
					"75",
					"7B"
				]
			},
			"geometry": {
				"type": "Point",
				"coordinates": [
					103.77515897833835,
					1.32072731097778
				]
			}
		},
		{
			"type": "Feature",
			"id": "12061",
			"properties": {
				"number": "12061",
				"name": "Blk 109",
				"road": "Clementi Rd",
				"services": [
					"151",
					"154",
					"154B",
					"184",
					"52",
					"61",
					"74",
					"75"
				]
			},
			"geometry": {
				"type": "Point",
				"coordinates": [
					103.77087339859139,
					1.32178500189496
				]
			}
		},
		{
			"type": "Feature",
			"id": "12069",
			"properties": {
				"number": "12069",
				"name": "Opp Blk 109A",
				"road": "Clementi Rd",
				"services": [
					"151",
					"154",
					"184",
					"52",
					"61",
					"74",
					"75"
				]
			},
			"geometry": {
				"type": "Point",
				"coordinates": [
					103.7710419,
					1.321433056
				]
			}
		},
		{
			"type": "Feature",
			"id": "12071",
			"properties": {
				"number": "12071",
				"name": "Blk 116",
				"road": "Clementi Rd",
				"services": [
					"151",
					"154",
					"154B",
					"184",
					"52",
					"61",
					"74",
					"75"
				]
			},
			"geometry": {
				"type": "Point",
				"coordinates": [
					103.77219388896603,
					1.32402249998323
				]
			}
		},
		{
			"type": "Feature",
			"id": "12079",
			"properties": {
				"number": "12079",
				"name": "Opp Blk 116",
				"road": "Clementi Rd",
				"services": [
					"151",
					"154",
					"184",
					"52",
					"61",
					"74",
					"75"
				]
			},
			"geometry": {
				"type": "Point",
				"coordinates": [
					103.77263094375739,
					1.32383187575187
				]
			}
		},
		{
			"type": "Feature",
			"id": "12081",
			"properties": {
				"number": "12081",
				"name": "Maju Camp",
				"road": "Clementi Rd",
				"services": [
					"151",
					"154",
					"154B",
					"184",
					"52",
					"61",
					"74",
					"75"
				]
			},
			"geometry": {
				"type": "Point",
				"coordinates": [
					103.77543,
					1.326468056
				]
			}
		},
		{
			"type": "Feature",
			"id": "12089",
			"properties": {
				"number": "12089",
				"name": "Opp Maju Camp",
				"road": "Clementi Rd",
				"services": [
					"151",
					"154",
					"184",
					"52",
					"61",
					"74",
					"75"
				]
			},
			"geometry": {
				"type": "Point",
				"coordinates": [
					103.7757089,
					1.326261111
				]
			}
		},
		{
			"type": "Feature",
			"id": "12091",
			"properties": {
				"number": "12091",
				"name": "SIM HQ",
				"road": "Clementi Rd",
				"services": [
					"151",
					"154",
					"154B",
					"184",
					"52",
					"61",
					"74",
					"75"
				]
			},
			"geometry": {
				"type": "Point",
				"coordinates": [
					103.7771471166854,
					1.32918315486756
				]
			}
		},
		{
			"type": "Feature",
			"id": "12099",
			"properties": {
				"number": "12099",
				"name": "Opp SIM HQ",
				"road": "Clementi Rd",
				"services": [
					"151",
					"154",
					"184",
					"52",
					"61",
					"74",
					"75"
				]
			},
			"geometry": {
				"type": "Point",
				"coordinates": [
					103.7767036,
					1.327838056
				]
			}
		},
		{
			"type": "Feature",
			"id": "12101",
			"properties": {
				"number": "12101",
				"name": "Ngee Ann Poly",
				"road": "Clementi Rd",
				"services": [
					"151",
					"154",
					"154B",
					"184",
					"52",
					"61",
					"74",
					"75"
				]
			},
			"geometry": {
				"type": "Point",
				"coordinates": [
					103.77768506316727,
					1.33243896358504
				]
			}
		},
		{
			"type": "Feature",
			"id": "12109",
			"properties": {
				"number": "12109",
				"name": "Opp Ngee Ann Poly",
				"road": "Clementi Rd",
				"services": [
					"151",
					"154",
					"184",
					"52",
					"61",
					"74",
					"75"
				]
			},
			"geometry": {
				"type": "Point",
				"coordinates": [
					103.7780086,
					1.330819444
				]
			}
		},
		{
			"type": "Feature",
			"id": "12111",
			"properties": {
				"number": "12111",
				"name": "Bef Clementi Rd",
				"road": "Ulu Pandan Rd",
				"services": [
					"156",
					"165",
					"61",
					"7",
					"75"
				]
			},
			"geometry": {
				"type": "Point",
				"coordinates": [
					103.77222980786665,
					1.3191179107649
				]
			}
		},
		{
			"type": "Feature",
			"id": "12119",
			"properties": {
				"number": "12119",
				"name": "Police KINS Trg Camp",
				"road": "Ulu Pandan Rd",
				"services": [
					"156",
					"165",
					"61",
					"7",
					"75",
					"7B"
				]
			},
			"geometry": {
				"type": "Point",
				"coordinates": [
					103.77279266281438,
					1.31964598192789
				]
			}
		},
		{
			"type": "Feature",
			"id": "12121",
			"properties": {
				"number": "12121",
				"name": "Blk 7",
				"road": "Ghim Moh Rd",
				"services": [
					"92",
					"92M"
				]
			},
			"geometry": {
				"type": "Point",
				"coordinates": [
					103.7871516670319,
					1.31164833301814
				]
			}
		},
		{
			"type": "Feature",
			"id": "12129",
			"properties": {
				"number": "12129",
				"name": "Blk 3",
				"road": "Ghim Moh Rd",
				"services": [
					"92",
					"92M"
				]
			},
			"geometry": {
				"type": "Point",
				"coordinates": [
					103.78732611099163,
					1.31182111096862
				]
			}
		},
		{
			"type": "Feature",
			"id": "12131",
			"properties": {
				"number": "12131",
				"name": "Aft Grove Ave",
				"road": "Mt Sinai Rd",
				"services": [
					"92",
					"92M"
				]
			},
			"geometry": {
				"type": "Point",
				"coordinates": [
					103.785061666981,
					1.3141594439742
				]
			}
		},
		{
			"type": "Feature",
			"id": "12139",
			"properties": {
				"number": "12139",
				"name": "Aft Mt Sinai Lane",
				"road": "Mt Sinai Rd",
				"services": [
					"92",
					"92M"
				]
			},
			"geometry": {
				"type": "Point",
				"coordinates": [
					103.78504157068625,
					1.31453185933289
				]
			}
		},
		{
			"type": "Feature",
			"id": "12141",
			"properties": {
				"number": "12141",
				"name": "Opp Henry Pk",
				"road": "Mt Sinai Rd",
				"services": [
					"92",
					"92M"
				]
			},
			"geometry": {
				"type": "Point",
				"coordinates": [
					103.78239154819083,
					1.31574389841394
				]
			}
		},
		{
			"type": "Feature",
			"id": "12149",
			"properties": {
				"number": "12149",
				"name": "Henry Pk",
				"road": "Mt Sinai Rd",
				"services": [
					"92",
					"92M"
				]
			},
			"geometry": {
				"type": "Point",
				"coordinates": [
					103.78266099158458,
					1.31576900455367
				]
			}
		},
		{
			"type": "Feature",
			"id": "12151",
			"properties": {
				"number": "12151",
				"name": "Bef Moonbeam Terr",
				"road": "Moonbeam Walk",
				"services": [
					"92",
					"92M"
				]
			},
			"geometry": {
				"type": "Point",
				"coordinates": [
					103.78127574919664,
					1.31865064467378
				]
			}
		},
		{
			"type": "Feature",
			"id": "12169",
			"properties": {
				"number": "12169",
				"name": "Pandan Valley",
				"road": "Pandan Valley",
				"services": [
					"92",
					"92M"
				]
			},
			"geometry": {
				"type": "Point",
				"coordinates": [
					103.77724170687915,
					1.31916549240365
				]
			}
		},
		{
			"type": "Feature",
			"id": "12179",
			"properties": {
				"number": "12179",
				"name": "Montview",
				"road": "Mt Sinai Rise",
				"services": [
					"92",
					"92M"
				]
			},
			"geometry": {
				"type": "Point",
				"coordinates": [
					103.7769949436126,
					1.31679504687757
				]
			}
		},
		{
			"type": "Feature",
			"id": "12189",
			"properties": {
				"number": "12189",
				"name": "Bef Mt Sinai Dr",
				"road": "Mt Sinai Rise",
				"services": [
					"92",
					"92M"
				]
			},
			"geometry": {
				"type": "Point",
				"coordinates": [
					103.78022402243116,
					1.31642693680141
				]
			}
		},
		{
			"type": "Feature",
			"id": "12199",
			"properties": {
				"number": "12199",
				"name": "Opp Village Twr",
				"road": "Mt Sinai Rise",
				"services": [
					"92",
					"92M"
				]
			},
			"geometry": {
				"type": "Point",
				"coordinates": [
					103.77820622498255,
					1.31547998901343
				]
			}
		},
		{
			"type": "Feature",
			"id": "12201",
			"properties": {
				"number": "12201",
				"name": "Logishub @ Clementi",
				"road": "Clementi Ave 6",
				"services": [
					"185",
					"189"
				]
			},
			"geometry": {
				"type": "Point",
				"coordinates": [
					103.76399509585458,
					1.32670826856501
				]
			}
		},
		{
			"type": "Feature",
			"id": "12209",
			"properties": {
				"number": "12209",
				"name": "Opp Logishub @ Clementi",
				"road": "Clementi Ave 6",
				"services": [
					"185",
					"189"
				]
			},
			"geometry": {
				"type": "Point",
				"coordinates": [
					103.76429968220569,
					1.32653202760922
				]
			}
		},
		{
			"type": "Feature",
			"id": "12211",
			"properties": {
				"number": "12211",
				"name": "Bef Mt Sinai Wk",
				"road": "Mt Sinai Dr",
				"services": [
					"92",
					"92M"
				]
			},
			"geometry": {
				"type": "Point",
				"coordinates": [
					103.78070712088581,
					1.31721336095462
				]
			}
		},
		{
			"type": "Feature",
			"id": "13011",
			"properties": {
				"number": "13011",
				"name": "Napier Stn Exit 2",
				"road": "Napier Rd",
				"services": [
					"105",
					"106",
					"123",
					"174",
					"174e",
					"7",
					"75",
					"77"
				]
			},
			"geometry": {
				"type": "Point",
				"coordinates": [
					103.81932,
					1.306504
				]
			}
		},
		{
			"type": "Feature",
			"id": "13019",
			"properties": {
				"number": "13019",
				"name": "Napier Stn Exit 1",
				"road": "Napier Rd",
				"services": [
					"105",
					"106",
					"123",
					"174",
					"174e",
					"7",
					"75",
					"77",
					"7B"
				]
			},
			"geometry": {
				"type": "Point",
				"coordinates": [
					103.82013079894885,
					1.3067380217198
				]
			}
		},
		{
			"type": "Feature",
			"id": "13021",
			"properties": {
				"number": "13021",
				"name": "Aft Min Of Foreign Affairs",
				"road": "Holland Rd",
				"services": [
					"105",
					"106",
					"123",
					"174",
					"7",
					"75",
					"77"
				]
			},
			"geometry": {
				"type": "Point",
				"coordinates": [
					103.81430670816292,
					1.30633972996805
				]
			}
		},
		{
			"type": "Feature",
			"id": "13029",
			"properties": {
				"number": "13029",
				"name": "Bef Tyersall Ave",
				"road": "Holland Rd",
				"services": [
					"105",
					"106",
					"123",
					"174",
					"7",
					"75",
					"77",
					"7B"
				]
			},
			"geometry": {
				"type": "Point",
				"coordinates": [
					103.8145185880206,
					1.30671783282361
				]
			}
		},
		{
			"type": "Feature",
			"id": "13031",
			"properties": {
				"number": "13031",
				"name": "Opp Chatsworth Rd",
				"road": "Tanglin Rd",
				"services": [
					"111",
					"132"
				]
			},
			"geometry": {
				"type": "Point",
				"coordinates": [
					103.81707388901162,
					1.29912972200223
				]
			}
		},
		{
			"type": "Feature",
			"id": "13039",
			"properties": {
				"number": "13039",
				"name": "Bef Chatsworth Rd",
				"road": "Tanglin Rd",
				"services": [
					"111",
					"132"
				]
			},
			"geometry": {
				"type": "Point",
				"coordinates": [
					103.81744265557978,
					1.29981572699945
				]
			}
		},
		{
			"type": "Feature",
			"id": "13041",
			"properties": {
				"number": "13041",
				"name": "Aft Camp Rd",
				"road": "Tanglin Rd",
				"services": [
					"111",
					"132"
				]
			},
			"geometry": {
				"type": "Point",
				"coordinates": [
					103.81967634723284,
					1.30242834318416
				]
			}
		},
		{
			"type": "Feature",
			"id": "13049",
			"properties": {
				"number": "13049",
				"name": "Bef Rochalie Dr",
				"road": "Tanglin Rd",
				"services": [
					"111",
					"132"
				]
			},
			"geometry": {
				"type": "Point",
				"coordinates": [
					103.82045069624506,
					1.30261671321463
				]
			}
		},
		{
			"type": "Feature",
			"id": "13051",
			"properties": {
				"number": "13051",
				"name": "Opp Valley Pt",
				"road": "River Valley Rd",
				"services": [
					"139",
					"14",
					"32",
					"65",
					"970"
				]
			},
			"geometry": {
				"type": "Point",
				"coordinates": [
					103.8263656209055,
					1.29334305906356
				]
			}
		},
		{
			"type": "Feature",
			"id": "13059",
			"properties": {
				"number": "13059",
				"name": "Valley Pt",
				"road": "River Valley Rd",
				"services": [
					"139",
					"14",
					"32",
					"65",
					"970"
				]
			},
			"geometry": {
				"type": "Point",
				"coordinates": [
					103.82663492676832,
					1.29328273601932
				]
			}
		},
		{
			"type": "Feature",
			"id": "13062",
			"properties": {
				"number": "13062",
				"name": "Stellar RV",
				"road": "River Valley Rd",
				"services": [
					"139",
					"32",
					"970"
				]
			},
			"geometry": {
				"type": "Point",
				"coordinates": [
					103.82853268161283,
					1.29476674399435
				]
			}
		},
		{
			"type": "Feature",
			"id": "13063",
			"properties": {
				"number": "13063",
				"name": "RV Suites",
				"road": "River Valley Rd",
				"services": [
					"14",
					"65"
				]
			},
			"geometry": {
				"type": "Point",
				"coordinates": [
					103.82964309110659,
					1.29534692836828
				]
			}
		},
		{
			"type": "Feature",
			"id": "13069",
			"properties": {
				"number": "13069",
				"name": "RV Residences",
				"road": "River Valley Rd",
				"services": [
					"139",
					"14",
					"32",
					"65",
					"970"
				]
			},
			"geometry": {
				"type": "Point",
				"coordinates": [
					103.82880805602646,
					1.29488000002792
				]
			}
		},
		{
			"type": "Feature",
			"id": "13071",
			"properties": {
				"number": "13071",
				"name": "Riva Lodge",
				"road": "River Valley Rd",
				"services": [
					"139",
					"195",
					"32",
					"54"
				]
			},
			"geometry": {
				"type": "Point",
				"coordinates": [
					103.832936,
					1.296335
				]
			}
		},
		{
			"type": "Feature",
			"id": "13079",
			"properties": {
				"number": "13079",
				"name": "Great World Stn Exit 4",
				"road": "River Valley Rd",
				"services": [
					"139",
					"195",
					"195A",
					"32",
					"54"
				]
			},
			"geometry": {
				"type": "Point",
				"coordinates": [
					103.83229211134126,
					1.29612213279141
				]
			}
		},
		{
			"type": "Feature",
			"id": "13081",
			"properties": {
				"number": "13081",
				"name": "St. Thomas Wk",
				"road": "River Valley Rd",
				"services": [
					"139",
					"195",
					"32",
					"54"
				]
			},
			"geometry": {
				"type": "Point",
				"coordinates": [
					103.83624277798825,
					1.2959113890106
				]
			}
		},
		{
			"type": "Feature",
			"id": "13089",
			"properties": {
				"number": "13089",
				"name": "Opp St. Thomas Wk",
				"road": "River Valley Rd",
				"services": [
					"139",
					"195",
					"195A",
					"32",
					"54"
				]
			},
			"geometry": {
				"type": "Point",
				"coordinates": [
					103.83604111103381,
					1.29575111096804
				]
			}
		},
		{
			"type": "Feature",
			"id": "13091",
			"properties": {
				"number": "13091",
				"name": "Aft Kim Yam Rd",
				"road": "River Valley Rd",
				"services": [
					"139",
					"195",
					"32",
					"54"
				]
			},
			"geometry": {
				"type": "Point",
				"coordinates": [
					103.83937805601917,
					1.29593138900491
				]
			}
		},
		{
			"type": "Feature",
			"id": "13099",
			"properties": {
				"number": "13099",
				"name": "Bef Kim Yam Rd",
				"road": "River Valley Rd",
				"services": [
					"139",
					"195",
					"195A",
					"32",
					"54"
				]
			},
			"geometry": {
				"type": "Point",
				"coordinates": [
					103.83961272081199,
					1.29578024244395
				]
			}
		},
		{
			"type": "Feature",
			"id": "13101",
			"properties": {
				"number": "13101",
				"name": "Opp Mohd Sultan Rd",
				"road": "River Valley Rd",
				"services": [
					"139",
					"195",
					"32",
					"54"
				]
			},
			"geometry": {
				"type": "Point",
				"coordinates": [
					103.84231209757696,
					1.29414162678811
				]
			}
		},
		{
			"type": "Feature",
			"id": "13109",
			"properties": {
				"number": "13109",
				"name": "UE Sq/Bef Mohd Sultan Rd",
				"road": "River Valley Rd",
				"services": [
					"139",
					"195",
					"195A",
					"32",
					"54"
				]
			},
			"geometry": {
				"type": "Point",
				"coordinates": [
					103.84272416702719,
					1.29350944398488
				]
			}
		},
		{
			"type": "Feature",
			"id": "13119",
			"properties": {
				"number": "13119",
				"name": "Opp Great World City",
				"road": "Kim Seng Rd",
				"services": [
					"16",
					"16M",
					"175",
					"195",
					"195A",
					"5",
					"75",
					"970"
				]
			},
			"geometry": {
				"type": "Point",
				"coordinates": [
					103.832759,
					1.293615
				]
			}
		},
		{
			"type": "Feature",
			"id": "13121",
			"properties": {
				"number": "13121",
				"name": "Opp Great World City",
				"road": "Zion Rd",
				"services": [
					"16",
					"16M",
					"175",
					"195",
					"5",
					"75",
					"970"
				]
			},
			"geometry": {
				"type": "Point",
				"coordinates": [
					103.8308377640795,
					1.29409221679274
				]
			}
		},
		{
			"type": "Feature",
			"id": "13139",
			"properties": {
				"number": "13139",
				"name": "The Trillium",
				"road": "Kim Seng Rd",
				"services": [
					"16",
					"16M",
					"175",
					"195",
					"195A",
					"5",
					"75",
					"970"
				]
			},
			"geometry": {
				"type": "Point",
				"coordinates": [
					103.83205533028763,
					1.2950426189642
				]
			}
		},
		{
			"type": "Feature",
			"id": "13141",
			"properties": {
				"number": "13141",
				"name": "Aft Zion Full Gospel Ch",
				"road": "Hoot Kiam Rd",
				"services": [
					"14",
					"16",
					"16M",
					"175",
					"5",
					"54",
					"65",
					"75"
				]
			},
			"geometry": {
				"type": "Point",
				"coordinates": [
					103.82997986347917,
					1.29763682834545
				]
			}
		},
		{
			"type": "Feature",
			"id": "13159",
			"properties": {
				"number": "13159",
				"name": "Bef Zion Full Gospel Ch",
				"road": "Irwell Bank Rd",
				"services": [
					"14",
					"16",
					"16M",
					"175",
					"5",
					"54",
					"65",
					"75"
				]
			},
			"geometry": {
				"type": "Point",
				"coordinates": [
					103.83053183555204,
					1.29796011528522
				]
			}
		},
		{
			"type": "Feature",
			"id": "13169",
			"properties": {
				"number": "13169",
				"name": "Grange 80 Condo",
				"road": "Grange Rd",
				"services": [
					"75"
				]
			},
			"geometry": {
				"type": "Point",
				"coordinates": [
					103.82839289158527,
					1.29910305180416
				]
			}
		},
		{
			"type": "Feature",
			"id": "13171",
			"properties": {
				"number": "13171",
				"name": "Gramercy Pk",
				"road": "Grange Rd",
				"services": [
					"75"
				]
			},
			"geometry": {
				"type": "Point",
				"coordinates": [
					103.82650703485064,
					1.29906809120339
				]
			}
		},
		{
			"type": "Feature",
			"id": "13179",
			"properties": {
				"number": "13179",
				"name": "Cliveden At Grange",
				"road": "Grange Rd",
				"services": [
					"75"
				]
			},
			"geometry": {
				"type": "Point",
				"coordinates": [
					103.82665250000115,
					1.29925749997453
				]
			}
		},
		{
			"type": "Feature",
			"id": "13181",
			"properties": {
				"number": "13181",
				"name": "Aft One Tree Hill",
				"road": "Grange Rd",
				"services": [
					"75"
				]
			},
			"geometry": {
				"type": "Point",
				"coordinates": [
					103.82403473005562,
					1.30023223661153
				]
			}
		},
		{
			"type": "Feature",
			"id": "13189",
			"properties": {
				"number": "13189",
				"name": "Bef One Tree Hill",
				"road": "Grange Rd",
				"services": [
					"75"
				]
			},
			"geometry": {
				"type": "Point",
				"coordinates": [
					103.82414749997376,
					1.30038166697497
				]
			}
		},
		{
			"type": "Feature",
			"id": "13191",
			"properties": {
				"number": "13191",
				"name": "Opp Orchard Stn Exit 12",
				"road": "Paterson Rd",
				"services": [
					"14",
					"16",
					"16M",
					"175",
					"5",
					"54",
					"65"
				]
			},
			"geometry": {
				"type": "Point",
				"coordinates": [
					103.8297819,
					1.302461
				]
			}
		},
		{
			"type": "Feature",
			"id": "13199",
			"properties": {
				"number": "13199",
				"name": "Aft Orchard Stn Exit 12",
				"road": "Paterson Rd",
				"services": [
					"14",
					"16",
					"16M",
					"175",
					"5",
					"54",
					"65"
				]
			},
			"geometry": {
				"type": "Point",
				"coordinates": [
					103.829875,
					1.302127
				]
			}
		},
		{
			"type": "Feature",
			"id": "13201",
			"properties": {
				"number": "13201",
				"name": "British High Commission",
				"road": "Tanglin Rd",
				"services": [
					"111",
					"132"
				]
			},
			"geometry": {
				"type": "Point",
				"coordinates": [
					103.82209559895128,
					1.30453622259471
				]
			}
		},
		{
			"type": "Feature",
			"id": "13209",
			"properties": {
				"number": "13209",
				"name": "Opp British High Comsn",
				"road": "Tanglin Rd",
				"services": [
					"111",
					"132"
				]
			},
			"geometry": {
				"type": "Point",
				"coordinates": [
					103.82205605505206,
					1.3040310710651
				]
			}
		},
		{
			"type": "Feature",
			"id": "14009",
			"properties": {
				"number": "14009",
				"name": "HarbourFront Int",
				"road": "Seah Im Rd",
				"services": [
					"123M",
					"124",
					"188",
					"188e",
					"65",
					"80",
					"855",
					"93",
					"963",
					"963e"
				]
			},
			"geometry": {
				"type": "Point",
				"coordinates": [
					103.81901469907409,
					1.26703502614245
				]
			}
		},
		{
			"type": "Feature",
			"id": "14011",
			"properties": {
				"number": "14011",
				"name": "Bef Mt Faber Lodge",
				"road": "Kg Bahru Rd",
				"services": [
					"123",
					"123M",
					"143",
					"166",
					"61",
					"65",
					"855"
				]
			},
			"geometry": {
				"type": "Point",
				"coordinates": [
					103.8255261109799,
					1.26795444401606
				]
			}
		},
		{
			"type": "Feature",
			"id": "14019",
			"properties": {
				"number": "14019",
				"name": "Opp Mt Faber Lodge",
				"road": "Kg Bahru Rd",
				"services": [
					"123",
					"123M",
					"143",
					"166",
					"61",
					"65",
					"855"
				]
			},
			"geometry": {
				"type": "Point",
				"coordinates": [
					103.82571717446542,
					1.2684889249437
				]
			}
		},
		{
			"type": "Feature",
			"id": "14021",
			"properties": {
				"number": "14021",
				"name": "The Pearl @ Mt Faber",
				"road": "Lower Delta Rd",
				"services": [
					"123",
					"123M",
					"124",
					"65",
					"855"
				]
			},
			"geometry": {
				"type": "Point",
				"coordinates": [
					103.82478361101728,
					1.27132972198996
				]
			}
		},
		{
			"type": "Feature",
			"id": "14029",
			"properties": {
				"number": "14029",
				"name": "Blk 105",
				"road": "Lower Delta Rd",
				"services": [
					"123",
					"123M",
					"124",
					"65",
					"855"
				]
			},
			"geometry": {
				"type": "Point",
				"coordinates": [
					103.82418777803016,
					1.27247333301883
				]
			}
		},
		{
			"type": "Feature",
			"id": "14031",
			"properties": {
				"number": "14031",
				"name": "St. Theresa's Convent",
				"road": "Lower Delta Rd",
				"services": [
					"121",
					"123",
					"123M",
					"131",
					"195",
					"195A",
					"65",
					"855"
				]
			},
			"geometry": {
				"type": "Point",
				"coordinates": [
					103.82306027800865,
					1.27624277802151
				]
			}
		},
		{
			"type": "Feature",
			"id": "14039",
			"properties": {
				"number": "14039",
				"name": "Opp St. Theresa's Convent",
				"road": "Lower Delta Rd",
				"services": [
					"121",
					"123",
					"123M",
					"131",
					"195",
					"195A",
					"65",
					"855"
				]
			},
			"geometry": {
				"type": "Point",
				"coordinates": [
					103.82345826768822,
					1.27663637861466
				]
			}
		},
		{
			"type": "Feature",
			"id": "14041",
			"properties": {
				"number": "14041",
				"name": "Blk 54",
				"road": "Henderson Rd",
				"services": [
					"120",
					"131",
					"145",
					"176",
					"273"
				]
			},
			"geometry": {
				"type": "Point",
				"coordinates": [
					103.81247079301698,
					1.2732727805917
				]
			}
		},
		{
			"type": "Feature",
			"id": "14049",
			"properties": {
				"number": "14049",
				"name": "Opp Blk 55",
				"road": "Henderson Rd",
				"services": [
					"120",
					"131",
					"145",
					"176"
				]
			},
			"geometry": {
				"type": "Point",
				"coordinates": [
					103.81304231999674,
					1.27324166755337
				]
			}
		},
		{
			"type": "Feature",
			"id": "14051",
			"properties": {
				"number": "14051",
				"name": "Aft Telok Blangah Hts",
				"road": "Henderson Rd",
				"services": [
					"124",
					"131",
					"145",
					"176",
					"273"
				]
			},
			"geometry": {
				"type": "Point",
				"coordinates": [
					103.815157,
					1.275847
				]
			}
		},
		{
			"type": "Feature",
			"id": "14059",
			"properties": {
				"number": "14059",
				"name": "Bef Telok Blangah Hts",
				"road": "Henderson Rd",
				"services": [
					"124",
					"131",
					"145",
					"176",
					"273"
				]
			},
			"geometry": {
				"type": "Point",
				"coordinates": [
					103.815613,
					1.276025
				]
			}
		},
		{
			"type": "Feature",
			"id": "14061",
			"properties": {
				"number": "14061",
				"name": "Opp Former Railway Stn",
				"road": "Keppel Rd",
				"services": [
					"10",
					"100",
					"131",
					"145",
					"30",
					"57",
					"80",
					"97",
					"97e"
				]
			},
			"geometry": {
				"type": "Point",
				"coordinates": [
					103.83862035734883,
					1.27231269789239
				]
			}
		},
		{
			"type": "Feature",
			"id": "14069",
			"properties": {
				"number": "14069",
				"name": "Former Railway Stn",
				"road": "Keppel Rd",
				"services": [
					"10",
					"100",
					"131",
					"145",
					"30",
					"57",
					"80",
					"97",
					"97e"
				]
			},
			"geometry": {
				"type": "Point",
				"coordinates": [
					103.8364069,
					1.272538056
				]
			}
		},
		{
			"type": "Feature",
			"id": "14071",
			"properties": {
				"number": "14071",
				"name": "Keppel Workshop",
				"road": "Keppel Rd",
				"services": [
					"10",
					"100",
					"131",
					"145",
					"30",
					"57",
					"80",
					"97"
				]
			},
			"geometry": {
				"type": "Point",
				"coordinates": [
					103.8339025862589,
					1.27220342411953
				]
			}
		},